{"type":"FeatureCollection", "features":[
{"type":"Feature","id":"0D58007AE93048BF6CE9","geometry":{"type":"Point","coordinates":[46.0844365686541,39.51718163291387,1640.454450971001]},"properties":{"name":"Qənimət Baxşəliyev"}},
{"type":"Feature","id":"0015694E12305A13B098","geometry":{"type":"Point","coordinates":[46.08477080803413,39.51699991494414,1646.101044450334]},"properties":{"0DAC93D7F8305A13B0A8":0,"name":"Məmməd Baxşəliyev","extrude":true}},
{"type":"Feature","id":"034CD7BE4A305A14AD9D","geometry":{"type":"Point","coordinates":[46.08547646474529,39.51664204042013,1655.447666235412]},"properties":{"0762D85134305A14ADAC":0,"name":"Tapdıq Qasımov","extrude":true}},
{"type":"Feature","id":"03FC33CF56305A164A3B","geometry":{"type":"Point","coordinates":[46.0862336288303,39.51536347386771,1641.188259023565]},"properties":{"048ED2A2E5305A164A4C":0,"name":"Dağbəyi Xəlilov","extrude":true}},
{"type":"Feature","id":"0B12AB557D305A17AF56","geometry":{"type":"Point","coordinates":[46.08729097468046,39.51407040464456,1633.894764797655]},"properties":{"058CCC172F305A17AF66":0,"name":"Asin Cümşüd","extrude":true}},
{"type":"Feature","id":"000684E011305A18930F","geometry":{"type":"Point","coordinates":[46.08768748774652,39.51353039656455,1631.216259262465]},"properties":{"05CC424A12305A18931C":0,"name":"Əsəd Rüstəmov","extrude":true}},
{"type":"Feature","id":"0090701EBF305A153D83","geometry":{"type":"Point","coordinates":[46.08652695391718,39.51585186575286,1659.722439680583]},"properties":{"07D7348D37305A153D92":0,"name":"Oruc Teymurov","extrude":true}},
{"type":"Feature","id":"0553CDDFD7305A193B06","geometry":{"type":"Point","coordinates":[46.08655787521263,39.51422067588035,1623.124951706673]},"properties":{"0938F5D7DE305A193B13":0,"name":"Müsübət Əliyev (Yusif)","extrude":true}},
{"type":"Feature","id":"0CE93C522E305A1A3E19","geometry":{"type":"Point","coordinates":[46.0862083995392,39.51390728318878,1614.114591427165]},"properties":{"0D04D3F22B305A1A3E2C":0,"name":"Əmir Həsənov","extrude":true}},
{"type":"Feature","id":"0A0F55ED67305A1AFD2A","geometry":{"type":"Point","coordinates":[46.08542541082348,39.51358546749231,1604.087716755854]},"properties":{"0D3EC736BA305A1AFD39":0,"name":"Tapdıq Cəfərov","extrude":true}},
{"type":"Feature","id":"0F63E91D84305A1B907D","geometry":{"type":"Point","coordinates":[46.08524939676153,39.5140048609052,1605.463297494148]},"properties":{"0732F3B9D4305A1B908B":0,"name":"Sofiq Əliyev","extrude":true}},
{"type":"Feature","id":"09A756F8FC305A1BFCD3","geometry":{"type":"Point","coordinates":[46.08500773139096,39.51374679084362,1601.467027008063]},"properties":{"0E8AF670C0305A1BFCE0":0,"name":"Xanış Mirzəyev","extrude":true}},
{"type":"Feature","id":"09E7402F8C305A1C732B","geometry":{"type":"Point","coordinates":[46.08475202197322,39.51389060266305,1599.767506146626]},"properties":{"0F20A72423305A1C733A":0,"name":"Yurin Cəfərov","extrude":true}},
{"type":"Feature","id":"06A8786DDA305A1D2926","geometry":{"type":"Point","coordinates":[46.08406121878587,39.51328225331331,1588.046033895869]},"properties":{"0EBF669FE5305A1D2936":0,"name":"Abış Quliyev","extrude":true}},
{"type":"Feature","id":"0253CEFDB1305A1E68DA","geometry":{"type":"Point","coordinates":[46.08328080723906,39.51367782587021,1591.313621091263]},"properties":{"0345D711C6305A1E68EB":0,"name":"Yaqub Mirzəyev","extrude":true}},
{"type":"Feature","id":"015848C14F305A1F7F45","geometry":{"type":"Point","coordinates":[46.08252477998057,39.51390530009868,1591.876088446313]},"properties":{"07E4573F37305A1F7F53":0,"name":"Fərman Kərimov","extrude":true}},
{"type":"Feature","id":"025E501274305A20FACB","geometry":{"type":"Point","coordinates":[46.08408411482485,39.51359802048117,1592.054983111638]},"properties":{"052DA8EB4A305A20FADA":0,"name":"Məhəmməd Əliyev (Yaşar)","extrude":true}},
{"type":"Feature","id":"02BAC0051B305A21684F","geometry":{"type":"Point","coordinates":[46.08414292666316,39.5138534663045,1594.179714422188]},"properties":{"05C5558D5A305A21685B":0,"name":"Gülbaba Həmzəyev","extrude":true}},
{"type":"Feature","id":"0D69FD890B305A2345CC","geometry":{"type":"Point","coordinates":[46.08531198774511,39.51457423745007,1611.282985922717]},"properties":{"0CE8BD586C305A2345D9":0,"name":"Əhliyyət Cəfərov","extrude":true}},
{"type":"Feature","id":"023BD0E101305A243171","geometry":{"type":"Point","coordinates":[46.08553285225081,39.51557137139195,1629.860224037816]},"properties":{"0387105AC5305A24317E":0,"name":"İsmayıl Abdullayev","extrude":true}},
{"type":"Feature","id":"0C3CF3A9DA305A24D31A","geometry":{"type":"Point","coordinates":[46.08515444226489,39.51514574792176,1615.863198480201]},"properties":{"0A48C51FD6305A24D328":0,"name":"Mehdixan Əliyev","extrude":true}},
{"type":"Feature","id":"032E147BC2305A25B735","geometry":{"type":"Point","coordinates":[46.08436652183335,39.51443864621615,1598.16496819099]},"properties":{"094E511BB2305A25B742":0,"name":"Əbil Kərimov","extrude":true}},
{"type":"Feature","id":"0D00EF7A88305A263EFE","geometry":{"type":"Point","coordinates":[46.08426335892477,39.5146952664067,1598.368697388074]},"properties":{"021D564EB9305A263F0E":0,"name":"Surxay Kərimov","extrude":true}},
{"type":"Feature","id":"0CE9AF3C0D305A284D99","geometry":{"type":"Point","coordinates":[46.08424329699753,39.51582583285614,1612.052990060431]},"properties":{"09DA4E6FB3305A284DA6":0,"name":"Yusif Əhmədov","extrude":true}},
{"type":"Feature","id":"07C014E226305A29A2B2","geometry":{"type":"Point","coordinates":[46.08368151709853,39.51602052883751,1604.626081929887]},"properties":{"032B940FF5305A29A2BF":0,"name":"Şəmil-Telli Əhmədov","extrude":true}},
{"type":"Feature","id":"04CB327751305A2B0E29","geometry":{"type":"Point","coordinates":[46.08360351018577,39.51655336512301,1609.759012937277]},"properties":{"04128562AB305A2B0E37":0,"name":"Əhliman-Əhəd Rüstəmov","extrude":true}},
{"type":"Feature","id":"0F59885C1D305A2BB019","geometry":{"type":"Point","coordinates":[46.08326111117398,39.51677941904726,1608.724233677657]},"properties":{"01FFAAFCCD305A2BB027":0,"name":"Cümşüd Rüstəmov","extrude":true}},
{"type":"Feature","id":"07671A53B7305A2C6BF4","geometry":{"type":"Point","coordinates":[46.08301548712802,39.51709535136413,1609.820876828778]},"properties":{"04EC561F4F305A2C6C01":0,"name":"Şəmil-Adil Həsəov","extrude":true}},
{"type":"Feature","id":"0F17019D59305A2DC80D","geometry":{"type":"Point","coordinates":[46.08343105468922,39.517256393471,1618.426166561393]},"properties":{"05E24DB16A305A2DC818":0,"name":"Seyfəli İsmayılov","extrude":true}},
{"type":"Feature","id":"0D9930627C305A2EBA08","geometry":{"type":"Point","coordinates":[46.08375714651412,39.51691272867551,1618.319076294106]},"properties":{"0C6EDE3B6C305A2EBA34":0,"name":"İsa İsmayılov","extrude":true}},
{"type":"Feature","id":"0E39791466305A2F91D7","geometry":{"type":"Point","coordinates":[46.08384212688591,39.51727322965073,1627.578391492917]},"properties":{"097F3DE7D7305A2F91E5":0,"name":"Cənnət İsmayılov (Tanrıverdi)","extrude":true}},
{"type":"Feature","id":"04A0AD2715305A317A20","geometry":{"type":"Point","coordinates":[46.08419576589766,39.51672328147853,1623.225794924828]},"properties":{"07E873F7E6305A317A31":0,"name":"Xalıqverdi Bayramov","extrude":true}},
{"type":"Feature","id":"0F69CFAFB5305A32E692","geometry":{"type":"Point","coordinates":[46.08248343140518,39.5178904097257,1611.686193903919]},"properties":{"05781BE953305A32E69E":0,"name":"Məhəmməd Dünyamalıyev (Gülməmməd)","extrude":true}},
{"type":"Feature","id":"046B6888A7305A34A5B8","geometry":{"type":"Point","coordinates":[46.08245884665339,39.5180154434306,1612.77332491394]},"properties":{"0C62F7384A305A34A5C5":0,"name":"Qasım-Rahib Süleymanov","extrude":true}},
{"type":"Feature","id":"067B0B2B1F305A3611B7","geometry":{"type":"Point","coordinates":[46.08213213645161,39.51771962112218,1604.237929471584]},"properties":{"024EB7375E305A3611C4":0,"name":"İman Quliyev","extrude":true}},
{"type":"Feature","id":"03975ABC3A305A37E33E","geometry":{"type":"Point","coordinates":[46.08219674761893,39.51714064590495,1601.657010158613]},"properties":{"0114BCB00A305A37E34C":0,"name":"Müzəffər Quliyev","extrude":true}},
{"type":"Feature","id":"03D2ABD73D305A390E7A","geometry":{"type":"Point","coordinates":[46.08194261337534,39.51747694515156,1601.109028600868]},"properties":{"0EF92CF447305A390E87":0,"name":"Hüseyn Kərimov","extrude":true}},
{"type":"Feature","id":"00A60FBF2F305A39A1FD","geometry":{"type":"Point","coordinates":[46.08164770069548,39.51721275556231,1596.942406546504]},"properties":{"0CAFBBF896305A39A20B":0,"name":"Məhərrəm-Tahir Quliyev","extrude":true}},
{"type":"Feature","id":"0512F0CB7C305A3AFB32","geometry":{"type":"Point","coordinates":[46.08130544471397,39.51730482952178,1595.111832276896]},"properties":{"02C7DFB3C6305A3AFB3F":0,"name":"Yusif-Gülnaz Muradov","extrude":true}},
{"type":"Feature","id":"00FB895996305A3BDD90","geometry":{"type":"Point","coordinates":[46.08111290775058,39.51747577160387,1595.102118750695]},"properties":{"064C6AAD81305A3BDD9C":0,"name":"Niftalı Əliyev","extrude":true}},
{"type":"Feature","id":"0DED53113C305A3C9D8E","geometry":{"type":"Point","coordinates":[46.08087505019151,39.51748707672602,1593.999527921165]},"properties":{"043312681F305A3C9D9D":0,"name":"Hətəm (Rafiq) Quliyev","extrude":true}},
{"type":"Feature","id":"00EC4893EB305A3D64B6","geometry":{"type":"Point","coordinates":[46.08046609187564,39.51710161099251,1590.514239141236]},"properties":{"0E85880776305A3D64C2":0,"name":"İsmayıl İsmayılov","extrude":true}},
{"type":"Feature","id":"0E3457F64A305A3E42D6","geometry":{"type":"Point","coordinates":[46.08052128228826,39.51679175357424,1589.602023495279]},"properties":{"0EE1BB7329305A3E42E3":0,"name":"Barat İskəndərov","extrude":true}},
{"type":"Feature","id":"0C0BF90D05305A3EF8E4","geometry":{"type":"Point","coordinates":[46.08082744995895,39.51685239938294,1591.002735907985]},"properties":{"0A154EAD21305A3EF8F0":0,"name":"Astan-Umud Şirinov","extrude":true}},
{"type":"Feature","id":"069CCECD70305A424BAD","geometry":{"type":"Point","coordinates":[46.08153408617481,39.51691435926485,1594.618127780559]},"properties":{"07F924D305305A424BBF":0,"name":"Köçəri Cəfərov","extrude":true}},
{"type":"Feature","id":"063202FC46305A42DE07","geometry":{"type":"Point","coordinates":[46.08171642975906,39.51673063577726,1594.777915232752]},"properties":{"0BDB1A30A1305A42DE14":0,"name":"Allahverdi Verdiyev","extrude":true}},
{"type":"Feature","id":"001CADD4F6305A43D7CC","geometry":{"type":"Point","coordinates":[46.08138354019071,39.51671254510463,1592.837566495303]},"properties":{"0ADE4E907E305A43D7DC":0,"name":"Bəylər İmanov","extrude":true}},
{"type":"Feature","id":"020091259E305A45EA46","geometry":{"type":"Point","coordinates":[46.08184738087208,39.5161754446265,1591.317841155779]},"properties":{"0E79AC76BE305A45EA54":0,"name":"Alməmməd-Tofiq Orucov","extrude":true}},
{"type":"Feature","id":"07BC4E51AA305A4781AD","geometry":{"type":"Point","coordinates":[46.08284584116638,39.51580664870583,1592.478502963962]},"properties":{"059030BB17305A4781BB":0,"name":"Həsən Qasımov","extrude":true}},
{"type":"Feature","id":"02C2CF6708305A48069F","geometry":{"type":"Point","coordinates":[46.08264131192002,39.51595960630529,1593.320763832126]},"properties":{"078377D164305A4806AF":0,"name":"Rza Quliyev","extrude":true}},
{"type":"Feature","id":"06B53FFA3D305A4B09DA","geometry":{"type":"Point","coordinates":[46.08340776186661,39.51560346515057,1596.598578750122]},"properties":{"0D1993C67D305A4B09E6":0,"name":"Fehruz-Əzizxan Əhmədov","extrude":true}},
{"type":"Feature","id":"0C22792C90305A4C9953","geometry":{"type":"Point","coordinates":[46.08370692603703,39.51540452868243,1598.21568688967]},"properties":{"096B185A1E305A4C9960":0,"name":"İsgəndərov Turab","extrude":true}},
{"type":"Feature","id":"0459214CF6305A4DD7BC","geometry":{"type":"Point","coordinates":[46.08045840580124,39.51805727304122,1595.560445896715]},"properties":{"05C051D33D305A4DD7CE":0,"name":"Əjdər Rüstəmov","extrude":true}},
{"type":"Feature","id":"00F4C1A1E6305A4E94B3","geometry":{"type":"Point","coordinates":[46.07860946379538,39.51999281434271,1605.555600106454]},"properties":{"0BAD80159D305A4E94BF":0,"name":" Möhübbət (Zülfüqar)Bayramov","extrude":true}},
{"type":"Feature","id":"01323389F3305A50DF38","geometry":{"type":"Point","coordinates":[46.07758668086853,39.5206656799826,1619.221497688365]},"properties":{"07CF48AD4F305A50DF45":0,"name":"Xudaverdi Hüseynov","extrude":true}},
{"type":"Feature","id":"0195DF7E35305A533380","geometry":{"type":"Point","coordinates":[46.07801323462279,39.52077176642753,1620.841315871265]},"properties":{"067F78F7A3305A533391":0,"name":"Qurban Əliyev","extrude":true}},
{"type":"Feature","id":"055FE86801305A53BAF6","geometry":{"type":"Point","coordinates":[46.07822811933063,39.52049880438081,1614.03562993668]},"properties":{"0FD4A72DC3305A53BB03":0,"name":"Sovet Əliyev","extrude":true}},
{"type":"Feature","id":"099EB656CC305A54652A","geometry":{"type":"Point","coordinates":[46.07886060216822,39.52107053269265,1628.396042530657]},"properties":{"0C6E6866A1305A546536":0,"name":"Seyfəli Sevdimalıyev","extrude":true}},
{"type":"Feature","id":"0DEA1356B1305A55906B","geometry":{"type":"Point","coordinates":[46.07920764610475,39.5204292654428,1615.368975904254]},"properties":{"089E5A3ED3305A559078":0,"name":"İsmayılov Heyvəli","extrude":true}},
{"type":"Feature","id":"07CD8E32B0305A56DA9C","geometry":{"type":"Point","coordinates":[46.07961289433552,39.52046198909137,1617.240959092652]},"properties":{"0ACA039A89305A56DAA9":0,"name":"İsmayılov Zeyvəli","extrude":true}},
{"type":"Feature","id":"003060FAD9305A575C0E","geometry":{"type":"Point","coordinates":[46.08027776376915,39.52043489357889,1619.53592337019]},"properties":{"02C1A3E56C305A575C1B":0,"name":"Süleymanov Əliş","extrude":true}},
{"type":"Feature","id":"0869FFEBDA305A57C0AB","geometry":{"type":"Point","coordinates":[46.07991978207961,39.52045461546485,1618.030095174382]},"properties":{"02501F81A2305A57C0B8":0,"name":"Himeyrə Məstalıyeva","extrude":true}},
{"type":"Feature","id":"0550FCD5053082D95BA6","geometry":{"type":"Point","coordinates":[46.08261270679939,39.52142661607996,1675.892901414799]},"properties":{"033CA601163082D95BBF":0,"name":"Qurban Məmmədov","extrude":true}},
{"type":"Feature","id":"03ED44153A3082DA1874","geometry":{"type":"Point","coordinates":[46.08135832190847,39.52118825686055,1641.907104054259]},"properties":{"0FDD51EA5D3082DA1885":0,"name":"Tapdıq Nəcəfov","extrude":true}},
{"type":"Feature","id":"0312E05A743082DA9E53","geometry":{"type":"Point","coordinates":[46.08181549009784,39.52128578392026,1652.624138301172]},"properties":{"0E0EF14A573082DA9E66":0,"name":"Şahbaz Gülmməmədov","extrude":true}},
{"type":"Feature","id":"06D2512D873082DB4B3E","geometry":{"type":"Point","coordinates":[46.08081762950738,39.52171834817796,1644.638248148496]},"properties":{"07CD0C88733082DB4B4D":0,"name":"İbrahim Quliyev","extrude":true}},
{"type":"Feature","id":"0C244A49B33082DC28F9","geometry":{"type":"Point","coordinates":[46.08146272146232,39.52195604352502,1656.279806953667]},"properties":{"0EE0BCE61E3082DC2905":0,"name":"Ağaqulu Nəcəfov","extrude":true}},
{"type":"Feature","id":"0F00AA83643082DDB1CF","geometry":{"type":"Point","coordinates":[46.08070730609765,39.52203874981554,1649.958764246813]},"properties":{"0F6223DCFA3082DDB1DF":0,"name":"Aşır Qasımov","extrude":true}},
{"type":"Feature","id":"039BC651963082DE13E4","geometry":{"type":"Point","coordinates":[46.08100549259331,39.52201419864639,1652.05824664255]},"properties":{"07EBFCAA003082DE13F6":0,"name":"Məcnun (Hacı) Quliyev","extrude":true}},
{"type":"Feature","id":"03DD18B15E3082E36326","geometry":{"type":"Point","coordinates":[46.08212592887902,39.52187799401873,1668.44828951409]},"properties":{"0CCB2B9B263082E36335":0,"name":"Cəmil Həsənov","extrude":true}},
{"type":"Feature","id":"0A389194283082E5E877","geometry":{"type":"Point","coordinates":[46.07962867143177,39.52363018138475,1674.835098752494]},"properties":{"03437986B83082E5E885":0,"name":"Alı Baxışov","extrude":true}},
{"type":"Feature","id":"078BF82A2A3082E6E87F","geometry":{"type":"Point","coordinates":[46.08007833954587,39.5234984399945,1675.046454426608]},"properties":{"0971B6BE4A3082E6E88E":0,"name":"Əli Əliyev","extrude":true}},
{"type":"Feature","id":"09463CF7813082E762F8","geometry":{"type":"Point","coordinates":[46.08030504816755,39.52335568258688,1674.101575598801]},"properties":{"03E92DDE2C3082E76307":0,"name":"Hayvəli Əliyev","extrude":true}},
{"type":"Feature","id":"08666556CE3082E7CA33","geometry":{"type":"Point","coordinates":[46.08054839605209,39.52336378419371,1675.793505551713]},"properties":{"06CF0FFED73082E7CA43":0,"name":"Məhərrəm Əliyev","extrude":true}},
{"type":"Feature","id":"0A9C1F0F8E3082E8D3A3","geometry":{"type":"Point","coordinates":[46.08022190447959,39.52291666542374,1665.734841893261]},"properties":{"0EE8246FDB3082E8D3B3":0,"name":"Şəmil Şirinov","extrude":true}},
{"type":"Feature","id":"0777C5A8763082E9595F","geometry":{"type":"Point","coordinates":[46.07967913787979,39.52281389568192,1663.307810764757]},"properties":{"0BCD137F8B3082E9596C":0,"name":"Məhərrəm Əliyev","extrude":true}},
{"type":"Feature","id":"0CEF29ED6E3082EABBB5","geometry":{"type":"Point","coordinates":[46.0792846552553,39.52376961506899,1674.561858610818]},"properties":{"078345855B3082EABBC2":0,"name":"imran Seyidov","extrude":true}},
{"type":"Feature","id":"06D58FAB663082EB7A6B","geometry":{"type":"Point","coordinates":[46.07937484140453,39.52328363303007,1669.327967794196]},"properties":{"0F711D801F3082EB7A79":0,"name":"Qurban Məhərrəmov","extrude":true}},
{"type":"Feature","id":"0B9B38F1483082EDB2FB","geometry":{"type":"Point","coordinates":[46.08006745282507,39.52193606264585,1647.000035980039]},"properties":{"038487744D3082EDB30D":0,"name":"Şirinov Köçəri","extrude":true}},
{"type":"Feature","id":"0ACA0CD5613082EE70B0","geometry":{"type":"Point","coordinates":[46.08016885276501,39.5221052954629,1650.354435275595]},"properties":{"037AA51A213082EE70C3":0,"name":"Alkərim Şirinov","extrude":true}},
{"type":"Feature","id":"0EFE232A703082EF1CB7","geometry":{"type":"Point","coordinates":[46.07987446216861,39.52237262271386,1655.438167110492]},"properties":{"0D2DD13F723082EF1CCA":0,"name":"Ağam - Fikrət Həmidov","extrude":true}},
{"type":"Feature","id":"0C4CCFB3EB3082F0B242","geometry":{"type":"Point","coordinates":[46.07905268616121,39.52299716947196,1664.63944210491]},"properties":{"0108C232613082F0B254":0,"name":"Qardaşxan Quliyev","extrude":true}},
{"type":"Feature","id":"0FE46EE0913082F30A00","geometry":{"type":"Point","coordinates":[46.07829798766751,39.52266207876658,1660.051228105107]},"properties":{"07EC904E003082F30A16":0,"name":"Əliş Zülfiyev","extrude":true}},
{"type":"Feature","id":"0A8E9B6CED3082F3EAD3","geometry":{"type":"Point","coordinates":[46.07768679674406,39.52299750241976,1658.217260901756]},"properties":{"06DECDC3A33082F3EAE0":0,"name":"Gəray (İsax) Talışov","extrude":true}},
{"type":"Feature","id":"07175996E13082F8C9AF","geometry":{"type":"Point","coordinates":[46.07860324010154,39.52305736941756,1663.324929924397]},"properties":{"080C4895F23082F8C9C0":0,"name":"Həmzəyey Mirəli ( Kəmənd)","extrude":true}},
{"type":"Feature","id":"07467ED9C43082FB0407","geometry":{"type":"Point","coordinates":[46.0786570373696,39.5238855990504,1671.385647923912]},"properties":{"0DAA53366C3082FB0415":0,"name":"Süleyman Orucov","extrude":true}},
{"type":"Feature","id":"06FFF9442E3082FBF1A7","geometry":{"type":"Point","coordinates":[46.07893563314099,39.52358736569295,1670.096179856734]},"properties":{"0660B348553082FBF1C0":0,"name":"Seyfəddin İsmayılov","extrude":true}},
{"type":"Feature","id":"032AC6C45C3082FDB746","geometry":{"type":"Point","coordinates":[46.0778221095466,39.5214500470477,1640.558948977147]},"properties":{"0CC2A6DA573082FDB757":0,"name":"Əhməd Quliyev","extrude":true}},
{"type":"Feature","id":"0F7442D4B23082FE7832","geometry":{"type":"Point","coordinates":[46.0783278743765,39.52160574624155,1642.871308962526]},"properties":{"077E268CBE3082FE7844":0,"name":"Həsən Məhərrəmov","extrude":true}},
{"type":"Feature","id":"00E0C16CAE3082FFA6BE","geometry":{"type":"Point","coordinates":[46.07802999247405,39.52228100055235,1655.670122720582]},"properties":{"0ED38EFFD13082FFA6CD":0,"name":"Rəhman Şatırov","extrude":true}},
{"type":"Feature","id":"04FA1AD602308301E44D","geometry":{"type":"Point","coordinates":[46.0778684422225,39.52203783854179,1653.239407510962]},"properties":{"086FA5AE91308301E460":0,"name":"Baxış Zilfiyev","extrude":true}},
{"type":"Feature","id":"02BE7053FE308303F001","geometry":{"type":"Point","coordinates":[46.07835150365005,39.52232022458692,1656.044874828565]},"properties":{"0D42701771308303F00E":0,"name":"Səfiyyət Heydərov","extrude":true}},
{"type":"Feature","id":"06DE7F6F2A3083051779","geometry":{"type":"Point","coordinates":[46.07842299563057,39.52222162136938,1654.752354036436]},"properties":{"078F6C0D403083051788":0,"name":"Bayramov Kamil","extrude":true}},
{"type":"Feature","id":"047517270A30830647EF","geometry":{"type":"Point","coordinates":[46.07870930299165,39.52218252058558,1653.919904994148]},"properties":{"063EF8B2AF30830647FD":0,"name":"Əliyev Hidayət","extrude":true}},
{"type":"Feature","id":"0A317E961D308306C18F","geometry":{"type":"Point","coordinates":[46.07955723073947,39.52198427199084,1648.627624543662]},"properties":{"00C250A600308306C19C":0,"name":"Kərimov Mehman","extrude":true}},
{"type":"Feature","id":"0E737DA26C308307BB98","geometry":{"type":"Point","coordinates":[46.08025320435237,39.52173123229115,1643.108481136684]},"properties":{"0DFD1C236F308307BBA5":0,"name":"Bəşir (Sahib) Əhmədov","extrude":true}},
{"type":"Feature","id":"03C421646D3083088731","geometry":{"type":"Point","coordinates":[46.08037072866455,39.52139943499785,1637.053505990074]},"properties":{"054DC9DF77308308873D":0,"name":"Oruc Qurbanov","extrude":true}},
{"type":"Feature","id":"01383D555130830950E1","geometry":{"type":"Point","coordinates":[46.07952187413842,39.52132686310345,1633.840244740677]},"properties":{"00F122B7CE30830950F2":0,"name":"Talıb Zülfiyev","extrude":true}},
{"type":"Feature","id":"0AA8CAADA730830D15CB","geometry":{"type":"Point","coordinates":[46.07917969528668,39.52115822553291,1630.163350597514]},"properties":{"0C8F8CB69130830D15DB":0,"name":"Binyət Bayramov","extrude":true}},
{"type":"Feature","id":"03553A28DA30830EEA2F","geometry":{"type":"Point","coordinates":[46.0798080511255,39.5214981340004,1637.824176718602]},"properties":{"0226627B3E30830EEA42":0,"name":"Qurban Qurbanov","extrude":true}},
{"type":"Feature","id":"09DCA112613083103DB7","geometry":{"type":"Point","coordinates":[46.07938428835719,39.5215350810883,1638.672889824988]},"properties":{"009A9714D23083103DC8":0,"name":"Rəhman Kərimov","extrude":true}},
{"type":"Feature","id":"07D1AECD3F3083117188","geometry":{"type":"Point","coordinates":[46.08083188996412,39.52128816963622,1637.244279914932]},"properties":{"060E20F75F3083117195":0,"name":"Suliddin Orduxanov","extrude":true}},
{"type":"Feature","id":"0C5D5C3522308312BF32","geometry":{"type":"Point","coordinates":[46.08050795963543,39.52113436012242,1632.867653102112]},"properties":{"0A50E2CB4D308312BF44":0,"name":"Mirələm Əliyev","extrude":true}},
{"type":"Feature","id":"0187DC7C9B308313D60C","geometry":{"type":"Point","coordinates":[46.08090428922814,39.5210096074907,1633.65942712398]},"properties":{"09A9B228C7308313D619":0,"name":"Azad Orduxanov","extrude":true}},
{"type":"Feature","id":"0CC387528E3083149A2B","geometry":{"type":"Point","coordinates":[46.08069527703753,39.52079130959117,1628.099615208208]},"properties":{"025A1928CA3083149A39":0,"name":"Vaqif Bayramov","extrude":true}},
{"type":"Feature","id":"02C24525C93083154B9E","geometry":{"type":"Point","coordinates":[46.08076170919098,39.52034973618019,1621.416105471676]},"properties":{"0FCFB1DA533083154BAF":0,"name":"Mamed Rüstəmov","extrude":true}},
{"type":"Feature","id":"076F3660B4308316F009","geometry":{"type":"Point","coordinates":[46.07974679658311,39.52079137678955,1623.553202591685]},"properties":{"0D2D0ADBBC308316F017":0,"name":"Umud Əliyev","extrude":true}},
{"type":"Feature","id":"04CCAEECC330831750CC","geometry":{"type":"Point","coordinates":[46.07999442770767,39.52076472216487,1623.509435364893]},"properties":{"06E14AAB9D30831750DC":0,"name":"Şaiq Əliyev","extrude":true}},
{"type":"Feature","id":"063DA53FB13083184C1A","geometry":{"type":"Point","coordinates":[46.08037710930782,39.51996751367825,1613.576325337934]},"properties":{"0487475BE33083184C2A":0,"name":"Mehdiqulu Əliyev","extrude":true}},
{"type":"Feature","id":"0260B4B6C73083192D93","geometry":{"type":"Point","coordinates":[46.08126452143514,39.52206151442957,1656.198394736199]},"properties":{"013997A4B63083192DA2":0,"name":"Əhməd (Süleyman) Quliyev","extrude":true}},
{"type":"Feature","id":"06BC3B0EAE308319D532","geometry":{"type":"Point","coordinates":[46.08134665443115,39.52202554508776,1656.441226187226]},"properties":{"0CA804EC4B308319D53F":0,"name":"Allahverən Quliyev","extrude":true}},
{"type":"Feature","id":"0F677E2D6230831BC082","geometry":{"type":"Point","coordinates":[46.08120454584763,39.5229468082815,1674.440725877229]},"properties":{"0A4230B33630831BC092":0,"name":"Seyfəddin Niyazov","extrude":true}},
{"type":"Feature","id":"0F14062D5830831D7E9D","geometry":{"type":"Point","coordinates":[46.08237057689744,39.52221566051654,1681.763871099618]},"properties":{"0F97F1B22130831D7EAC":0,"name":"Əli Baxışov","extrude":true}},
{"type":"Feature","id":"076BBF77E930831E9F3A","geometry":{"type":"Point","coordinates":[46.08243850716615,39.52109464313856,1666.095833260755]},"properties":{"0B05CD33C730831E9F4B":0,"name":"Kərəm Ənnağıyev","extrude":true}},
{"type":"Feature","id":"05E91E0BAF30831F95BB","geometry":{"type":"Point","coordinates":[46.08218343852964,39.52080804458305,1655.081580984988]},"properties":{"0103AC858D30831F95C9":0,"name":"Babakişi Məmmədov","extrude":true}},
{"type":"Feature","id":"067D0946AE30832147C6","geometry":{"type":"Point","coordinates":[46.08182476191601,39.52104561019043,1649.616004835341]},"properties":{"0EFFD226B930832147D6":0,"name":"Şahvəli Məmmədov","extrude":true}},
{"type":"Feature","id":"058FA5835C308325100C","geometry":{"type":"Point","coordinates":[46.08291447818593,39.52107891509454,1680.357132023025]},"properties":{"042A6DBFBD308325101B":0,"name":"Camal Həsənov","extrude":true}},
{"type":"Feature","id":"0822C764A130832590E8","geometry":{"type":"Point","coordinates":[46.0828600458351,39.52080627894773,1675.001888053618]},"properties":{"0D8B252DA930832590F9":0,"name":"Əliş Əliyev","extrude":true}},
{"type":"Feature","id":"083D064D3C308326672B","geometry":{"type":"Point","coordinates":[46.08236621762218,39.52024345578314,1651.481927975563]},"properties":{"04831FEB48308326673D":0,"name":"Firəddin Babayev","extrude":true}},
{"type":"Feature","id":"068DC6288A308327134C","geometry":{"type":"Point","coordinates":[46.08232169458838,39.51997336249286,1645.473292262831]},"properties":{"0ECDDE7F5B308327135C":0,"name":"Niyət Mamedov","extrude":true}},
{"type":"Feature","id":"04F6DE22573083278604","geometry":{"type":"Point","coordinates":[46.0822350257436,39.51953465975386,1633.604345673688]},"properties":{"035826D8EC3083278614":0,"name":"Bəşir Dünyamalıyev","extrude":true}},
{"type":"Feature","id":"02ECA063313083284D6C","geometry":{"type":"Point","coordinates":[46.08280631833082,39.51959701478972,1653.682344832862]},"properties":{"048EBF64A93083284D7D":0,"name":"Dünyamalıyev Ağyəddin ( Gülməmməd)","extrude":true}},
{"type":"Feature","id":"09F41A38FD308329410A","geometry":{"type":"Point","coordinates":[46.08253001623596,39.51905012536248,1633.145185504884]},"properties":{"0A4D2F80B4308329411C":0,"name":"Gözəl Dünyamalıyeva","extrude":true}},
{"type":"Feature","id":"0FDEBE4FBE30832A9866","geometry":{"type":"Point","coordinates":[46.08265578309346,39.51863160103277,1627.71968630051]},"properties":{"0B7518EA8F30832A9874":0,"name":"Binyət -Vaqif Bayramov","extrude":true}},
{"type":"Feature","id":"00DD40373330832CDB3E","geometry":{"type":"Point","coordinates":[46.0828366232917,39.51741651769179,1611.813923738557]},"properties":{"0B3EAAB30B30832CDB4E":0,"name":"Qurban Quliyev","extrude":true}},
{"type":"Feature","id":"0329319B6D30832F5A30","geometry":{"type":"Point","coordinates":[46.08298724913544,39.51772765577276,1618.959037490025]},"properties":{"074FC20FB630832F5A44":0,"name":"Qəmbər Məhərrəmov","extrude":true}},
{"type":"Feature","id":"0CA6CA84BF3083346ED3","geometry":{"type":"Point","coordinates":[46.0839622116814,39.51745999665719,1635.586013741658]},"properties":{"0F072D38083083346EE5":0,"name":"Həsənov Balay","extrude":true}},
{"type":"Feature","id":"099B8F944A308335ED9E","geometry":{"type":"Point","coordinates":[46.08375544021575,39.51748289209165,1630.921160839501]},"properties":{"07178F3B43308335EDAE":0,"name":"Misir Həsənov","extrude":true}},
{"type":"Feature","id":"09E9460E4930833731CD","geometry":{"type":"Point","coordinates":[46.08301584688456,39.51758050874841,1617.405330937908]},"properties":{"0E134F53E930833731DF":0,"name":"İmamquliyev Şəmil","extrude":true}},
{"type":"Feature","id":"052B38DC433083382871","geometry":{"type":"Point","coordinates":[46.08344206418918,39.51771165811611,1628.636441615422]},"properties":{"0F049E31A0308338287D":0,"name":"Aydın Fərzəliyev","extrude":true}},
{"type":"Feature","id":"0D3F98FBF5308338DA21","geometry":{"type":"Point","coordinates":[46.08338049254333,39.51785657440438,1630.656275810732]},"properties":{"052FE9F6E2308338DA2E":0,"name":"Əfruz (Şura) Orucova","extrude":true}},
{"type":"Feature","id":"06F016B86B30833A6FA5","geometry":{"type":"Point","coordinates":[46.08135264498412,39.51993997246515,1620.954575847441]},"properties":{"0F280E0F3830833A6FB2":0,"name":"Humay Bağırov","extrude":true}},
{"type":"Feature","id":"0D12703FEC30833B1366","geometry":{"type":"Point","coordinates":[46.08178559776481,39.51983518721158,1627.966960659955]},"properties":{"0DBA9C18B430833B1373":0,"name":"Sabir Əhmədov","extrude":true}},
{"type":"Feature","id":"007344E19130833BB78E","geometry":{"type":"Point","coordinates":[46.08171578073289,39.51981300791762,1625.949574612725]},"properties":{"0844680D6530833BB7A2":0,"name":"Mayıl Əliyev","extrude":true}},
{"type":"Feature","id":"0FED98132B30833D12E5","geometry":{"type":"Point","coordinates":[46.08155509198359,39.5207748508524,1639.274688353798]},"properties":{"087885CD6030833D12F5":0,"name":"Ziyad Əliyev ","extrude":true}},
{"type":"Feature","id":"020D54F7F130833D9AA6","geometry":{"type":"Point","coordinates":[46.08161080427632,39.52071830253237,1639.7871703738]},"properties":{"03D008929830833D9AEF":0,"name":"Razim Əliyev","extrude":true}},
{"type":"Feature","id":"0619A14BC630833E21C3","geometry":{"type":"Point","coordinates":[46.08107670538092,39.52090257071587,1634.022001904597]},"properties":{"0612B478D930833E21D3":0,"name":"Tofiq Azadov-Zeynəb","extrude":true}},
{"type":"Feature","id":"0342FC046730872BF7DF","geometry":{"type":"Point","coordinates":[46.07930908995572,39.5167366443755,1584.903171768157]},"properties":{"0411954F8330872BF7F7":0,"name":"Saybalı armudluğu","extrude":true}},
{"type":"Feature","id":"0BC64DA15330872EC846","geometry":{"type":"Point","coordinates":[46.08067774138991,39.51971264430576,1611.466623557533]},"properties":{"026B51CB5430872EC85C":0,"name":"Əlövsət Bayramov","extrude":true}},
{"type":"Feature","id":"036E35BF023087300F97","geometry":{"type":"Point","coordinates":[46.08069691726774,39.51980251767947,1612.71170102037]},"properties":{"09CDB2A0A03087300FAB":0,"name":"Mamed Əliyev","extrude":true}},
{"type":"Feature","id":"032BFA66FD3087310480","geometry":{"type":"Point","coordinates":[46.08138226506303,39.51962329082321,1615.691991700378]},"properties":{"019969D2863087310491":0,"name":"Eylaz Əliyev","extrude":true}},
{"type":"Feature","id":"04758277F73087319621","geometry":{"type":"Point","coordinates":[46.08145639837562,39.51945764952583,1613.656266724242]},"properties":{"0D5FB8A9E53087319637":0,"name":"Baloğlan Əliyev","extrude":true}},
{"type":"Feature","id":"0EAE3624253087332E4C","geometry":{"type":"Point","coordinates":[46.08179732511039,39.51936050372959,1619.485351913773]},"properties":{"060837A28C3087332E5E":0,"name":"Cavanşir Dünyamalıyev","extrude":true}},
{"type":"Feature","id":"08864AF5C7308733C3E2","geometry":{"type":"Point","coordinates":[46.08184819890244,39.51924607314288,1618.32152100176]},"properties":{"0DBBE613A9308733C3F6":0,"name":"Şulan Bayramov","extrude":true}},
{"type":"Feature","id":"0A751094EA308734499E","geometry":{"type":"Point","coordinates":[46.08215427862203,39.51898262981985,1620.05670185319]},"properties":{"0C73F7BF0730873449B0":0,"name":"Əbil Bayramov","extrude":true}},
{"type":"Feature","id":"080BF08B5D3087399F1B","geometry":{"type":"Point","coordinates":[46.08165944557917,39.5188108258469,1607.813456441948]},"properties":{"038587714C3087399F2B":0,"name":"Qədir Cəlilov","extrude":true}},
{"type":"Feature","id":"01C5546BF130873BBCFA","geometry":{"type":"Point","coordinates":[46.08174356630386,39.51843651861283,1604.604374181336]},"properties":{"03A2991B3330873BBD0C":0,"name":"Cəfərov Kamran","extrude":true}},
{"type":"Feature","id":"08C686BD7330873DD4C5","geometry":{"type":"Point","coordinates":[46.08194545934442,39.51593512006913,1589.598066737855]},"properties":{"033971369030873DD4D8":0,"name":"Vlas Məmmədov","extrude":true}},
{"type":"Feature","id":"093DA7F74230873EC8AB","geometry":{"type":"Point","coordinates":[46.08207555015497,39.51573128289353,1588.623346016669]},"properties":{"03B1207E8F30873EC8BD":0,"name":"Feyzi Muradov","extrude":true}},
{"type":"Feature","id":"02D0A6166230873F613F","geometry":{"type":"Point","coordinates":[46.08241300482241,39.51575663764566,1589.989614790856]},"properties":{"06F85668B930873F6150":0,"name":"Soltan Kərimov","extrude":true}},
{"type":"Feature","id":"07432CC5153087402CF3","geometry":{"type":"Point","coordinates":[46.08210683874211,39.51540154785036,1587.879770166332]},"properties":{"074B3F28E53087402D04":0,"name":"Çingiz Muradov","extrude":true}},
{"type":"Feature","id":"080D0BB1EC308740EE8A","geometry":{"type":"Point","coordinates":[46.08207079322108,39.5151884729531,1587.292459640265]},"properties":{"090B7D1B0B308740EE9A":0,"name":"Mənsum Muradov","extrude":true}},
{"type":"Feature","id":"07AB218D65308744E5A5","geometry":{"type":"Point","coordinates":[46.08207452435866,39.51458654770101,1588.441477529823]},"properties":{"0EC5A92D26308744E5B9":0,"name":"Allahverdi Quliyev","extrude":true}},
{"type":"Feature","id":"0FB938636D30874662C9","geometry":{"type":"Point","coordinates":[46.08139250526358,39.51473375389833,1586.852877531923]},"properties":{"0ECD2C95DF30874662DA":0,"name":"Mikayıl Həmzəyev","extrude":true}},
{"type":"Feature","id":"0C4A140E8D3087475BF7","geometry":{"type":"Point","coordinates":[46.08095063856179,39.51429120678199,1585.745936425152]},"properties":{"064499889A3087475C0C":0,"name":"İmran Cəfərov","extrude":true}},
{"type":"Feature","id":"0F4D8FE27F30874909A3","geometry":{"type":"Point","coordinates":[46.08162899666078,39.51524339011662,1586.480136730009]},"properties":{"058944460C30874909B8":0,"name":"Bədəl Məmmədov","extrude":true}},
{"type":"Feature","id":"0C8849894C308749B4E1","geometry":{"type":"Point","coordinates":[46.08159279764502,39.51534646463868,1586.349838185297]},"properties":{"01D53C429C308749B4EF":0,"name":"Məhəmməd İmanov","extrude":true}},
{"type":"Feature","id":"021A68E57530874C60B3","geometry":{"type":"Point","coordinates":[46.08094211439386,39.51452221736344,1585.539690318173]},"properties":{"02F7F5296D30874C60C9":0,"name":"Quliyev Abdulla","extrude":true}},
{"type":"Feature","id":"0A0B3E9E2430874D8792","geometry":{"type":"Point","coordinates":[46.08119831009147,39.51469307458365,1586.29493046656]},"properties":{"078CF1F88230874D87A8":0,"name":"Mamedov Qulu-Sovet","extrude":true}},
{"type":"Feature","id":"08FD9E21B230874F1DF9","geometry":{"type":"Point","coordinates":[46.07972030960104,39.51437948154817,1577.440998749015]},"properties":{"00A8992A1730874F1E13":0,"name":"Quliyev Hacı Əyyub","extrude":true}},
{"type":"Feature","id":"01C2798B3630874FDA6B","geometry":{"type":"Point","coordinates":[46.08022448087297,39.5148545220329,1581.7394751784]},"properties":{"0A46900A6830874FDA7C":0,"name":"Levin (Elburus) Bayramov","extrude":true}},
{"type":"Feature","id":"0CFCB70BEE3087534322","geometry":{"type":"Point","coordinates":[46.08006114170821,39.51500721173472,1581.512967573098]},"properties":{"07D57958BA3087534332":0,"name":"Yavər Mamedov","extrude":true}},
{"type":"Feature","id":"0B0B2E262B3087550E16","geometry":{"type":"Point","coordinates":[46.08124115700437,39.5155834067209,1585.785293863274]},"properties":{"02DD9D3F863087550E2A":0,"name":"Məmmədov Amanxan","extrude":true}},
{"type":"Feature","id":"06D683ED8330875AA787","geometry":{"type":"Point","coordinates":[46.08099503563273,39.51606221554729,1587.459473771459]},"properties":{"091A44AAE130875AA799":0,"name":"Kərimov Süleyman","extrude":true}},
{"type":"Feature","id":"00420BA65330875B456C","geometry":{"type":"Point","coordinates":[46.08063987715904,39.51603455636916,1586.281534561065]},"properties":{"04B6D1A53130875B457C":0,"name":"Kərimov Nəriman","extrude":true}},
{"type":"Feature","id":"030FF3DCC230875D5C27","geometry":{"type":"Point","coordinates":[46.0800354156954,39.51583797390939,1583.509297877566]},"properties":{"029FB3ED0D30875D5C37":0,"name":"Əbilfəz-Mirseyid Kərimov","extrude":true}},
{"type":"Feature","id":"070A4817683087654D32","geometry":{"type":"Point","coordinates":[46.0811243632076,39.51578281306903,1585.737760688248]},"properties":{"089FC250EF3087654D48":0,"name":"Qaçay Orucov","extrude":true}},
{"type":"Feature","id":"0C77DFA7E3308766C3C4","geometry":{"type":"Point","coordinates":[46.08205714770421,39.51628489790475,1593.273585755067]},"properties":{"05B11CB1F8308766C3D5":0,"name":"Zümrüd Orucova","extrude":true}},
{"type":"Feature","id":"0C1084140C3087677C83","geometry":{"type":"Point","coordinates":[46.08216218572656,39.5168992690562,1598.987906677999]},"properties":{"015B9A2BBE3087677C97":0,"name":"Rahib Rüstəmov","extrude":true}},
{"type":"Feature","id":"0EBA265C03308769D2F7","geometry":{"type":"Point","coordinates":[46.08056224487212,39.5165148902779,1589.082266969843]},"properties":{"088F80584E308769D30E":0,"name":"Kərimov (Həvva) Əli","extrude":true}},
{"type":"Feature","id":"04EF23F2FA3087706127","geometry":{"type":"Point","coordinates":[46.08360035719895,39.51410630445795,1591.38016639383]},"properties":{"0BC583CAD83087706139":0,"name":"Cəfərov Yaqub","extrude":true}},
{"type":"Feature","id":"091E762C423087712169","geometry":{"type":"Point","coordinates":[46.08376287803328,39.51447295282061,1593.097353214708]},"properties":{"0F6429A49F3087712179":0,"name":"Şatırov İsmayıl","extrude":true}},
{"type":"Feature","id":"0E78C0A65A308771A6B5","geometry":{"type":"Point","coordinates":[46.0831730731697,39.51447946315119,1590.506841180851]},"properties":{"0A5B1A81B0308771A6C8":0,"name":"Rəşid Kərimov","extrude":true}},
{"type":"Feature","id":"0ACC255092308772898A","geometry":{"type":"Point","coordinates":[46.08304761700128,39.51489854239205,1590.197616832988]},"properties":{"04FAFD75CB308772899F":0,"name":"Əhliman Əmirov","extrude":true}},
{"type":"Feature","id":"059889C14A3087749167","geometry":{"type":"Point","coordinates":[46.08362331889166,39.51487350521899,1593.414239154003]},"properties":{"0047ECBB7A3087749179":0,"name":"Əvəz Mahmudov Lələdağ","extrude":true}},
{"type":"Feature","id":"0C62DC5631308775A43E","geometry":{"type":"Point","coordinates":[46.08321144049157,39.51520329764116,1591.992572317066]},"properties":{"025A8379D7308775A456":0,"name":"İbiş Quliyev","extrude":true}},
{"type":"Feature","id":"090BB05C53308776A946","geometry":{"type":"Point","coordinates":[46.08388542228695,39.5153463480838,1600.217101051453]},"properties":{"0385A697FB308776A956":0,"name":"İsgəndərov Murad","extrude":true}},
{"type":"Feature","id":"0C9F3C31F3308777BB33","geometry":{"type":"Point","coordinates":[46.08446072859001,39.51471705792791,1601.119976335651]},"properties":{"0F95C724B1308777BB45":0,"name":"Qaraxan Xəlilov","extrude":true}},
{"type":"Feature","id":"0A809A6CAC308778EA4C","geometry":{"type":"Point","coordinates":[46.08409713689983,39.51551010599022,1605.310309556555]},"properties":{"097034961C308778EA5D":0,"name":"Möhübbət Novruzov","extrude":true}},
{"type":"Feature","id":"0A8258B40930877A2814","geometry":{"type":"Point","coordinates":[46.08343186996209,39.51586162660022,1599.337208652995]},"properties":{"01D334CA9630877A2826":0,"name":"Əhmədov Fərrux","extrude":true}},
{"type":"Feature","id":"0ECF8EFF0C30877BD260","geometry":{"type":"Point","coordinates":[46.08525939336278,39.51488454352067,1614.538704766932]},"properties":{"02E859D83730877BD271":0,"name":"Qəfər Cəfərov","extrude":true}},
{"type":"Feature","id":"0904B5F3EA30877CEC6A","geometry":{"type":"Point","coordinates":[46.08630737948063,39.51508907498517,1637.15494827363]},"properties":{"0AFE7778F830877CEC7A":0,"name":"İsgəndərov Səfər","extrude":true}},
{"type":"Feature","id":"066F70200B30877DB788","geometry":{"type":"Point","coordinates":[46.08604172586399,39.51526467986304,1635.424595082447]},"properties":{"04AFAFCC1A30877DB79B":0,"name":"Gülbahar Rüstəmova","extrude":true}},
{"type":"Feature","id":"09E0DCD527308783AD5B","geometry":{"type":"Point","coordinates":[46.08153800783881,39.5173552527776,1596.656635988296]},"properties":{"07FF959CE6308783AD70":0,"name":"Ağamalıyeva Narxanım","extrude":true}},
{"type":"Feature","id":"0A9F9AB2EC308784BAED","geometry":{"type":"Point","coordinates":[46.081547642222,39.51762659802262,1597.88822961958]},"properties":{"0EB62788FB308784BB01":0,"name":"Bayramov Qəbil","extrude":true}},
{"type":"Feature","id":"005F0A2B0F30878532A4","geometry":{"type":"Point","coordinates":[46.08130920070997,39.51763951783956,1596.654778672365]},"properties":{"00C648C1B230878532B7":0,"name":"Bayramov İmarət","extrude":true}},
{"type":"Feature","id":"0471C18B593087875F3B","geometry":{"type":"Point","coordinates":[46.08236026278883,39.51876015591135,1621.861437739558]},"properties":{"0CBA7BB3B63087875F4B":0,"name":"Növrəstə-Təyyub Quliyev","extrude":true}},
{"type":"Feature","id":"0303CD9A9D30878A8499","geometry":{"type":"Point","coordinates":[46.08461582973209,39.51629233542339,1624.939264684893]},"properties":{"0B2B1B011430878A84A9":0,"name":"Əli Həşimov","extrude":true}},
{"type":"Feature","id":"053BED3EC830878B1F70","geometry":{"type":"Point","coordinates":[46.08485163149611,39.51615649417158,1626.974548296386]},"properties":{"046F20F6B730878B1F8B":0,"name":"Paşayev İsa","extrude":true}},
{"type":"Feature","id":"0B877C510F30878C6C6C","geometry":{"type":"Point","coordinates":[46.08489254424186,39.51666565497584,1640.153581733216]},"properties":{"030E3CF1DC30878C6C7B":0,"name":"Əmiraslan Qasımov","extrude":true}},
{"type":"Feature","id":"09D05ACB1E30878D2E69","geometry":{"type":"Point","coordinates":[46.08471106944094,39.51678082093339,1638.596991986198]},"properties":{"0F0320C8A730878D2E7C":0,"name":"Asif Qasımov","extrude":true}},
{"type":"Feature","id":"0645CC235330878EC5BA","geometry":{"type":"Point","coordinates":[46.08571778051018,39.51601059045685,1643.883360493709]},"properties":{"0CB61E02F830878EC5C7":0,"name":"Əliyev Elxan","extrude":true}},
{"type":"Feature","id":"0B1000CDEE30878F92C5","geometry":{"type":"Point","coordinates":[46.0851760591624,39.51598806732179,1630.850981658861]},"properties":{"01DB3E06A230878F92D5":0,"name":"Nurulla Mamedov","extrude":true}},
{"type":"Feature","id":"03E3C541A2308791EF6E","geometry":{"type":"Point","coordinates":[46.08423948155023,39.51530956198459,1604.149084090205]},"properties":{"07E4F636C0308791EF7E":0,"name":"İsmixan-Yusif Novruzov","extrude":true}},
{"type":"Feature","id":"08FBAD747E3087928961","geometry":{"type":"Point","coordinates":[46.08423553637779,39.51523136454961,1602.977022823127]},"properties":{"050E860D103087928971":0,"name":"Əsim Novruzov","extrude":true}},
{"type":"Feature","id":"0D3295E56B308798DD32","geometry":{"type":"Point","coordinates":[46.08486019791147,39.51462198094071,1605.736316527693]},"properties":{"046F2E56B1308798DD46":0,"name":"Əliyev Müzəffər","extrude":true}},
{"type":"Feature","id":"039EA3BB5E30879AF7D3","geometry":{"type":"Point","coordinates":[46.08443860010454,39.51500018075129,1602.860305152018]},"properties":{"027831ABDA30879AF7E7":0,"name":"İsgəndərov Telman","extrude":true}},
{"type":"Feature","id":"0F8959839D30879BFDBB","geometry":{"type":"Point","coordinates":[46.08462577523008,39.51482946361664,1604.090270685681]},"properties":{"01DA9DBA3230879BFDCA":0,"name":"Əliyeva Heyvagül","extrude":true}},
{"type":"Feature","id":"04D1E090D73087A31758","geometry":{"type":"Point","coordinates":[46.08474855907465,39.51478366439637,1605.455741442559]},"properties":{"0F47C56C683087A3176C":0,"name":"Bayramov Dövlət-İlham","extrude":true}},
{"type":"Feature","id":"0B0483CEB13087A55569","geometry":{"type":"Point","coordinates":[46.08603877882423,39.51742034685149,1694.999378126668]},"properties":{"0D2AACB2F73087A5557B":0,"name":"Xıdırın evi xarabalığı","extrude":true}},
{"type":"Feature","id":"0C7F3228513087A66B61","geometry":{"type":"Point","coordinates":[46.08594955045032,39.51641755533923,1661.203356201024]},"properties":{"0A01BE9CFA3087A66B72":0,"name":"Davud Xudaverdiyev","extrude":true}},
{"type":"Feature","id":"0BBAAA92443087A88856","geometry":{"type":"Point","coordinates":[46.08274317678946,39.51821096628505,1622.089479415046]},"properties":{"0B657EC72E3087A8886B":0,"name":"Fətulla Məhərrəmov","extrude":true}},
{"type":"Feature","id":"0C61F5D7893087AB3AC4","geometry":{"type":"Point","coordinates":[46.08218647152368,39.52147944706728,1664.203143508674]},"properties":{"080BDC96D73087AB3AD5":0,"name":"Ələkbər Məmmədov","extrude":true}},
{"type":"Feature","id":"0DEB2A43AF3087AE4C34","geometry":{"type":"Point","coordinates":[46.08394187432585,39.51638689604165,1613.067724277081]},"properties":{"082BB3AEA03087AE4C44":0,"name":"Savalan Muradov","extrude":true}},
{"type":"Feature","id":"009C916CD53087B1D2A7","geometry":{"type":"Point","coordinates":[46.08422916588891,39.51737337831184,1639.708010855174]},"properties":{"0C60803D2D3087B1D2BC":0,"name":"Baxşəliyev Saqif","extrude":true}},
{"type":"Feature","id":"0F0B00355F3087B72D6A","geometry":{"type":"Point","coordinates":[46.08094070108097,39.51722613367676,1593.161767630978]},"properties":{"07C626F40D3087B72D7A":0,"name":"İsgəndərova Sitarə","extrude":true}},
{"type":"Feature","id":"0195638A983087B98885","geometry":{"type":"Point","coordinates":[46.08106061463901,39.51817460466191,1598.080366733587]},"properties":{"0C1A7EE8FD3087B98899":0,"name":"Surxay Cəlilov","extrude":true}},
{"type":"Feature","id":"0D1960DB293087CFC535","geometry":{"type":"Point","coordinates":[46.07964430892249,39.52296267616558,1665.464783693349]},"properties":{"0F9E5C80C63087CFC547":0,"name":"Cəfərova Sürəyya-Talış","extrude":true}},
{"type":"Feature","id":"04B405368E3087D203AA","geometry":{"type":"Point","coordinates":[46.07921424624176,39.52303460378408,1665.682835462778]},"properties":{"05187AD3F33087D203B9":0,"name":"Rəsul-Qumru Quliyeva","extrude":true}},
{"type":"Feature","id":"06115FC5013087D4CC2F","geometry":{"type":"Point","coordinates":[46.07920823761498,39.52152746235302,1638.883713646476]},"properties":{"04F1ECC3A83087D4CC41":0,"name":"Adıgözəlova Dürrə-Heyvəli","extrude":true}},
{"type":"Feature","id":"0BA5F12CFA3087D74018","geometry":{"type":"Point","coordinates":[46.07752743558397,39.52350488180732,1658.328987918245]},"properties":{"0DA2037E053087D74029":0,"name":"Cəfərov Balay-Saday","extrude":true}},
{"type":"Feature","id":"08B75C5C8B3087D93DE1","geometry":{"type":"Point","coordinates":[46.08130570066765,39.52044594087594,1629.645306612892]},"properties":{"0D3766AB283087D93DF0":0,"name":"İmamqulu Fərzəliyev","extrude":true}},
{"type":"Feature","id":"075584FD643087DF8AA7","geometry":{"type":"Point","coordinates":[46.08359493585852,39.51701095555278,1616.688136268572]},"properties":{"063C3E71D03087DF8AB6":0,"name":"Pərnaz İsmayılova","extrude":true}},
{"type":"Feature","id":"0F6AD769533087E3C7F2","geometry":{"type":"Point","coordinates":[46.08312157768898,39.51612551097487,1599.172092095797]},"properties":{"04295E13D83087E3C805":0,"name":"Həmzəyev Mustafa","extrude":true}},
{"type":"Feature","id":"0284DD0DC63087E49AC6","geometry":{"type":"Point","coordinates":[46.08289436330509,39.51649184694431,1601.203752470202]},"properties":{"077DC371B53087E49AD6":0,"name":"Novruzov Elsevər","extrude":true}},
{"type":"Feature","id":"0CED89680B3087E78F9A","geometry":{"type":"Point","coordinates":[46.08209633915335,39.51728779071369,1601.485871789772]},"properties":{"01513B40F93087E78FAE":0,"name":"Süsənbər Cəlilova","extrude":true}},
{"type":"Feature","id":"04426886BC308C68A824","geometry":{"type":"Point","coordinates":[46.08278570993067,39.51479551683887,1589.400691746689]},"properties":{"0D90C942B6308C68A83F":0,"name":"Urqiya Məmmədova","extrude":true}},
{"type":"Feature","id":"06643AF3B5308C6BDCC8","geometry":{"type":"Point","coordinates":[46.08327578791695,39.51558656911131,1595.286663278403]},"properties":{"0835D3A9F4308C6BDCDD":0,"name":"Hacı Mürsəl Əhmədov","extrude":true}},
{"type":"Feature","id":"0467E600A5308C6D5A57","geometry":{"type":"Point","coordinates":[46.08323543382519,39.51549738039755,1594.352673468981]},"properties":{"0A3543F22F308C6D5A67":0,"name":"Quliyeva Mənzər","extrude":true}},
{"type":"Feature","id":"00A10C83DF308C73338A","geometry":{"type":"Point","coordinates":[46.08546886328687,39.51580016853701,1632.511385374353]},"properties":{"0E7C23E6F3308C73339A":0,"name":"Cəfərov Yadulla","extrude":true}},
{"type":"Feature","id":"013657104A308C74F8BC","geometry":{"type":"Point","coordinates":[46.08495140682449,39.51588536767593,1623.658363544511]},"properties":{"06F68DCE95308C74F8CC":0,"name":"Xudum Cəfərov","extrude":true}},
{"type":"Feature","id":"069D83EA3F308C75C6E0","geometry":{"type":"Point","coordinates":[46.08497761522324,39.51548689996491,1617.586148500849]},"properties":{"0291B133E7308C75C6F4":0,"name":"Hümbülünün xarabalığı","extrude":true}},
{"type":"Feature","id":"03BC104205308C80CF18","geometry":{"type":"Point","coordinates":[46.08191521825509,39.51849265375499,1607.382018348435]},"properties":{"0211C7FE8D308C80CF2D":0,"name":"Cəlilov Adil","extrude":true}},
{"type":"Feature","id":"0EB8BE604E308C83C2BB","geometry":{"type":"Point","coordinates":[46.0847668780087,39.51678891816286,1640.349852072131]},"properties":{"03A565BC7F308C83C2CC":0,"name":"Abdulla Rüstəmov","extrude":true}},
{"type":"Feature","id":"0E14702764308C93BB92","geometry":{"type":"Point","coordinates":[46.08433812614003,39.51486155192912,1600.529451992961]},"properties":{"01FB31BBAE308C93BBA6":0,"name":"Xəlilov Sədətqulu","extrude":true}},
{"type":"Feature","id":"05E6E1B770308C9892F6","geometry":{"type":"Point","coordinates":[46.08476771289734,39.51548609316145,1614.270125737532]},"properties":{"0328EBF51B308C989308":0,"name":"Babayeva Kamıl","extrude":true}},
{"type":"Feature","id":"0C6FAC86B4308C9C0E61","geometry":{"type":"Point","coordinates":[46.08150886164033,39.5213706245301,1646.962675115836]},"properties":{"0AC97C6002308C9C0E73":0,"name":"Orucov Rəfi","extrude":true}},
{"type":"Feature","id":"022001339E308CD9CED4","geometry":{"type":"Point","coordinates":[46.08079237750895,39.52214122914472,1652.151714403132]},"properties":{"0401E9CDE3308CD9CEE8":0,"name":"Quliyev Allahverən","extrude":true}},
{"type":"Feature","id":"097EA16D5C30BABC6B0A","geometry":{"type":"Point","coordinates":[46.08207477020688,39.51713877797189,1600.480925804077]},"properties":{"0E8B755E5D30BABC6B1E":0,"name":"Sevindik İmanov","extrude":true}},
{"type":"Feature","id":"009DA1E09230BAD6E783","geometry":{"type":"Point","coordinates":[46.08391506452396,39.51711041753578,1625.11798866723]},"properties":{"033840384330BAD6E795":0,"name":"Bayramov Faiq","extrude":true}},
{"type":"Feature","id":"0D1F8F770130BADAE6D6","geometry":{"type":"Point","coordinates":[46.08059364379584,39.51506230869824,1583.975767492204]},"properties":{"063A9ECF2930BADAE6ED":0,"name":"Xəlilov Zahid","extrude":true}},
{"type":"Feature","id":"0A1226EA3E30BADC26CD","geometry":{"type":"Point","coordinates":[46.08014297781833,39.51410428914544,1578.680782593301]},"properties":{"0F8FDF514830BADC26E0":0,"name":"Muradov Yunus","extrude":true}},
{"type":"Feature","id":"0369A1372830BADE7288","geometry":{"type":"Point","coordinates":[46.08120018153372,39.51679078167412,1592.424859348156]},"properties":{"0559AA694F30BADE729E":0,"name":"İmanov Mahir","extrude":true}},
{"type":"Feature","id":"0BE813D26530BAE02726","geometry":{"type":"Point","coordinates":[46.08160765879435,39.51688395907883,1595.04388526572]},"properties":{"0C328C444630BAE0273B":0,"name":"Şatırov Eyvaz","extrude":true}},
{"type":"Feature","id":"08313B45E330BAE3DF21","geometry":{"type":"Point","coordinates":[46.08329217390653,39.51584871206945,1597.662261575325]},"properties":{"07A9DAD50830BAE3DF38":0,"name":"Əhmədov Ənvər","extrude":true}},
{"type":"Feature","id":"0E056DB39830BAE5D2F4","geometry":{"type":"Point","coordinates":[46.08337383501764,39.51399692679381,1590.910109540661]},"properties":{"0CA258ACCF30BAE5D307":0,"name":"İmanov İman","extrude":true}},
{"type":"Feature","id":"04837FA46330BAE8659F","geometry":{"type":"Point","coordinates":[46.08372994914015,39.514053401157,1592.298403347815]},"properties":{"0DCD27D43730BAE865B3":0,"name":"İmanova Qəşəng","extrude":true}},
{"type":"Feature","id":"027C1F728730BAEBCBAB","geometry":{"type":"Point","coordinates":[46.08159485652133,39.52043618264797,1634.671207542041]},"properties":{"066CDC745230BAEBCBBF":0,"name":"Bağırov Surxay","extrude":true}},
{"type":"Feature","id":"0BEA553DEE30BAEE9A4E","geometry":{"type":"Point","coordinates":[46.08173640584165,39.52110372294987,1648.353821376167]},"properties":{"057413F32930BAEE9A64":0,"name":"Mamedov Mamed","extrude":true}},
{"type":"Feature","id":"040315448330BAF00B8E","geometry":{"type":"Point","coordinates":[46.08205773401146,39.52070214766766,1650.312701543631]},"properties":{"0A2CBA143930BAF00BA3":0,"name":"Məmmədov Xanvəli","extrude":true}},
{"type":"Feature","id":"00FBE0586630BAF2C92F","geometry":{"type":"Point","coordinates":[46.08353477079159,39.5149911736205,1592.789669414708]},"properties":{"0B1E35133C30BAF2C947":0,"name":"Cəfərov Azay","extrude":true}},
{"type":"Feature","id":"09444A716930BAF6DC45","geometry":{"type":"Point","coordinates":[46.08366370494786,39.51741538610188,1627.005279330235]},"properties":{"096E5231F730BAF6DC5A":0,"name":"Əliyev Saybalı","extrude":true}}
]}
