{"type":"FeatureCollection", "features":[
{"type":"Feature","id":"0441630665358905BB54","geometry":{"type":"Point","coordinates":[46.15715797875406,39.161215591307,2053.99132489553]},"properties":{"0281522176358905BB66":0,"name":"Atqız","extrude":true}},
{"type":"Feature","id":"04A040DA2E35B3BD6DFE","geometry":{"type":"Point","coordinates":[46.16289164819983,39.14995382761477,1738.151393979224]},"properties":{"041ECBE2B735B3BD6E16":0,"name":"Oxçu","extrude":true}},
{"type":"Feature","id":"0566BC03CD35B3C63474","geometry":{"type":"Point","coordinates":[46.15604674331504,39.15924692001146,1993.143766029763]},"properties":{"0EAF5F8CDA35B3C63487":0,"name":"Qəbristanlıq ( Dağıdılıb)","extrude":true}},
{"type":"Feature","id":"075FE518B035B3CA2288","geometry":{"type":"Point","coordinates":[46.15655805024886,39.15941176379573,1991.800409664947]},"properties":{"0B0DC1C07235B3CA229D":0,"name":"Qədirov Xanlar","extrude":true}},
{"type":"Feature","id":"09E950AB0C35B3CBF856","geometry":{"type":"Point","coordinates":[46.15614034235873,39.15970852620079,2004.689566021563]},"properties":{"0F270CE2F935B3CBF866":0,"name":"İskədərov Qüdrət","extrude":true}},
{"type":"Feature","id":"06BACFB2CC35B3CC9D23","geometry":{"type":"Point","coordinates":[46.15568047981913,39.15941323371604,2003.63584963906]},"properties":{"0DCDC4E8C735B3CC9D37":0,"name":"Hüseynalıyev Hüseynalı","extrude":true}},
{"type":"Feature","id":"0AE021983535B3CD57F2","geometry":{"type":"Point","coordinates":[46.15583048805047,39.15960247227714,2006.838406747641]},"properties":{"0CD298365535B3CD5803":0,"name":"Bünyatov Bəhram","extrude":true}},
{"type":"Feature","id":"07EF22363D35B3CDE133","geometry":{"type":"Point","coordinates":[46.15547823216291,39.1596773852934,2015.089672073633]},"properties":{"07496D2B8835B3CDE144":0,"name":"Həsənov Camal","extrude":true}},
{"type":"Feature","id":"0755F7186135B3CEA458","geometry":{"type":"Point","coordinates":[46.15573005564476,39.15973640131202,2012.814636922777]},"properties":{"05BDE3691A35B3CEA46A":0,"name":"Orucov Həsənqulu","extrude":true}},
{"type":"Feature","id":"035EC6D50535B3CFAD07","geometry":{"type":"Point","coordinates":[46.15589718778254,39.15961813301887,2006.245756652413]},"properties":{"0CB49142D435B3CFAD25":0,"name":"Bünyatov Xıdır","extrude":true}},
{"type":"Feature","id":"06CB01D68F35B3D02CD8","geometry":{"type":"Point","coordinates":[46.15582733183459,39.15968302914445,2009.365448546839]},"properties":{"0385B1DC7935B3D02CE8":0,"name":"Məktəb","extrude":true}},
{"type":"Feature","id":"071E2523ED35B3D0E890","geometry":{"type":"Point","coordinates":[46.15554590711923,39.15969500781436,2014.518730287158]},"properties":{"0BE0CC5EC735B3D0E8A1":0,"name":"Həsənov Humay","extrude":true}},
{"type":"Feature","id":"089DD3A6D435B3D17B12","geometry":{"type":"Point","coordinates":[46.15579255907026,39.15972797202228,2011.402100805195]},"properties":{"0E9FF8BC1935B3D17B27":0,"name":"Qədirov Əsəd","extrude":true}},
{"type":"Feature","id":"0B9D572D3F35B3D22341","geometry":{"type":"Point","coordinates":[46.15576818817468,39.15973988223173,2012.092796451904]},"properties":{"0BBB1D5FED35B3D22358":0,"name":"Seyid Abdulla","extrude":true}},
{"type":"Feature","id":"08AC169DDA35B3D2A9A5","geometry":{"type":"Point","coordinates":[46.15586065577292,39.15972927342978,2010.188974186495]},"properties":{"02E3B11C7535B3D2A9B9":0,"name":"Bünyadov Xəlil","extrude":true}},
{"type":"Feature","id":"01FD92309E35B3D3D197","geometry":{"type":"Point","coordinates":[46.15589192148925,39.15970882745873,2008.978091620306]},"properties":{"02F67E5A9635B3D3D1A9":0,"name":"Məmmədov Gülməmməd","extrude":true}},
{"type":"Feature","id":"04976DDA0D35B3D46FC0","geometry":{"type":"Point","coordinates":[46.15577781181967,39.1597978595363,2013.672023347422]},"properties":{"04A6B1BE0A35B3D46FCE":0,"name":"Məscid","extrude":true}},
{"type":"Feature","id":"0D6AF67E7D35B3D59B64","geometry":{"type":"Point","coordinates":[46.15578331698013,39.15985573731369,2015.958826068491]},"properties":{"0626774CC435B3D59B7B":0,"name":"Şıxəliyev Şıxəli","extrude":true}},
{"type":"Feature","id":"056D5A950235B3D806AD","geometry":{"type":"Point","coordinates":[46.15590457065453,39.15974244366318,2014.225521295474]},"properties":{"0A8130833A35B3D806BA":0,"name":"Bünyadov İsa","extrude":true}},
{"type":"Feature","id":"0EBCC7F2D935B3D94BF9","geometry":{"type":"Point","coordinates":[46.15572348126239,39.15982993624152,2015.553413214881]},"properties":{"03C848E50935B3D94C06":0,"name":"Ağayev Süleyman","extrude":true}},
{"type":"Feature","id":"066D6D6CF635B3D9A571","geometry":{"type":"Point","coordinates":[46.1557513253253,39.15983848642374,2015.26856958806]},"properties":{"00E30FBBB635B3D9A583":0,"name":"Ağayev Fərman","extrude":true}},
{"type":"Feature","id":"0AC289437835B3DA1A80","geometry":{"type":"Point","coordinates":[46.15571724091729,39.15986238597384,2016.617787027924]},"properties":{"0ACEB683BF35B3DA1A8F":0,"name":"İbrahimov Zakir","extrude":true}},
{"type":"Feature","id":"0906BB786D35B3DADBF2","geometry":{"type":"Point","coordinates":[46.15581444589969,39.15988246868025,2015.581026384879]},"properties":{"09B1E9264B35B3DADC00":0,"name":"Vəliyev Fərrux","extrude":true}},
{"type":"Feature","id":"02DEF10F9735B3DB5AC9","geometry":{"type":"Point","coordinates":[46.15583743840283,39.15987368796225,2015.251972519972]},"properties":{"0A40405C9035B3DB5ADC":0,"name":"Vəliyev Musa","extrude":true}},
{"type":"Feature","id":"065A460B3B35B3DC08D4","geometry":{"type":"Point","coordinates":[46.15590300979287,39.15987743399265,2014.655558747022]},"properties":{"0224C1DF9B35B3DC08E8":0,"name":"Vəliyev Həmzə","extrude":true}},
{"type":"Feature","id":"013120BF7235B3DC7C56","geometry":{"type":"Point","coordinates":[46.15591310387568,39.15987363555934,2014.344353235005]},"properties":{"0A6302A25735B3DC7C6A":0,"name":"Vəliyev Səhləli","extrude":true}},
{"type":"Feature","id":"06DC35FC3635B3DCE111","geometry":{"type":"Point","coordinates":[46.15589144062325,39.15988156889129,2014.102027697612]},"properties":{"0A21EAE2CF35B3DCE12D":0,"name":"Vəliyev Vəli","extrude":true}},
{"type":"Feature","id":"0FFC5D1F1535B3DD64FA","geometry":{"type":"Point","coordinates":[46.15579996068363,39.15990312751949,2016.403573488189]},"properties":{"0CE9D0B85135B3DD6508":0,"name":"Vəliyev Saleh","extrude":true}},
{"type":"Feature","id":"0CECCC03A135B3DDFC0A","geometry":{"type":"Point","coordinates":[46.15582385717209,39.15989933584019,2015.922121067823]},"properties":{"0C426D1FE835B3DDFC19":0,"name":"Şıxəliyev Hüsü","extrude":true}},
{"type":"Feature","id":"063AC1735735B3DEA8C8","geometry":{"type":"Point","coordinates":[46.15584938151304,39.15989534002203,2015.326964095389]},"properties":{"0DED10838835B3DEA8D9":0,"name":"Vəliyev Şəmil","extrude":true}},
{"type":"Feature","id":"0B2954002A35B3E1AE3F","geometry":{"type":"Point","coordinates":[46.15568071168959,39.15979936550397,2015.481850486887]},"properties":{"096323CE5135B3E1AE4F":0,"name":"Məmmədov Şamil","extrude":true}},
{"type":"Feature","id":"0FF0F9EB1035B3E21DC8","geometry":{"type":"Point","coordinates":[46.15570818082892,39.15978817455004,2014.627831869001]},"properties":{"08AD2D975135B3E21DD7":0,"name":"Mahmudov Mürvət","extrude":true}},
{"type":"Feature","id":"0A506C7B1835B3E30767","geometry":{"type":"Point","coordinates":[46.15590811583493,39.15988717310317,2013.988859045478]},"properties":{"070627BE7B35B3E3077A":0,"name":"Səlimov Kamil","extrude":true}},
{"type":"Feature","id":"04826AB26D35B3E361E7","geometry":{"type":"Point","coordinates":[46.15591716643208,39.15988514783621,2013.759231404841]},"properties":{"0CD512D62035B3E361F4":0,"name":"Səlimov Məhəmməd","extrude":true}},
{"type":"Feature","id":"0827173FCF35B3E3EE18","geometry":{"type":"Point","coordinates":[46.15589939786016,39.15991793707662,2015.083130020798]},"properties":{"08704B0E9235B3E3EE28":0,"name":"Əfəndiyev Cavanşir","extrude":true}},
{"type":"Feature","id":"046D9A3C1F35B3E4552B","geometry":{"type":"Point","coordinates":[46.15591759556244,39.1599129574874,2014.580448328409]},"properties":{"07089BFDF135B3E4553F":0,"name":"Bünyadov Ənvər","extrude":true}},
{"type":"Feature","id":"086227742335B3E4DAB6","geometry":{"type":"Point","coordinates":[46.15588174628961,39.15994315309023,2016.157768437741]},"properties":{"02E4F3357B35B3E4DACA":0,"name":"İsmayılov Zahir","extrude":true}},
{"type":"Feature","id":"005D949BC935B3E7353B","geometry":{"type":"Point","coordinates":[46.1558615672948,39.15961934244776,2006.837997327175]},"properties":{"0C4148232835B3E7354D":0,"name":"İskəndərov Nüsrət","extrude":true}},
{"type":"Feature","id":"03B0EF8F9D35B3EA8C23","geometry":{"type":"Point","coordinates":[46.15592066396898,39.15973641466624,2009.306220240086]},"properties":{"0D4E605C2335B3EA8C31":0,"name":"Bünyadov Sail","extrude":true}},
{"type":"Feature","id":"079B078C0535B3EC31CE","geometry":{"type":"Point","coordinates":[46.15589813905565,39.15964843865464,2007.103805490415]},"properties":{"0E0AAF549035B3EC31E3":0,"name":"Bünyadov Ərşad","extrude":true}},
{"type":"Feature","id":"053829958735B3EE80A1","geometry":{"type":"Point","coordinates":[46.15595163155478,39.15970256481069,2007.824787606396]},"properties":{"010BA9D93C35B3EE80B1":0,"name":"Şəkərov Sabir","extrude":true}},
{"type":"Feature","id":"0D62CD1DFF35B3F05F44","geometry":{"type":"Point","coordinates":[46.1578356791944,39.16040767273488,2035.992302362187]},"properties":{"04DEDEC24E35B3F05F5A":0,"name":"Ərxəşən","extrude":true}},
{"type":"Feature","id":"0520DE094735B3F136A7","geometry":{"type":"Point","coordinates":[46.15795982049337,39.1600169007633,2025.431299098793]},"properties":{"06AFD7B22E35B3F136B5":0,"name":"Vərəqquyusu","extrude":true}},
{"type":"Feature","id":"0F6762FD5535B3F1F4FC","geometry":{"type":"Point","coordinates":[46.16048503511769,39.17225238105768,2483.112445963395]},"properties":{"0C015BF96A35B3F1F50C":0,"name":"Çirişliqaya","extrude":true}},
{"type":"Feature","id":"09AE7AE87735B3F2A2D2","geometry":{"type":"Point","coordinates":[46.16676356001632,39.17343836712357,2723.023310678158]},"properties":{"07B48AE2D735B3F2A2E0":0,"name":"Təndirli","extrude":true}},
{"type":"Feature","id":"043183FCE335B3F34F81","geometry":{"type":"Point","coordinates":[46.16369427435249,39.1722257864286,2612.773640666922]},"properties":{"084D04185435B3F34F94":0,"name":"Aftafadurmaz","extrude":true}},
{"type":"Feature","id":"01BCB5546C35B3F3BCD5","geometry":{"type":"Point","coordinates":[46.14812962537217,39.17430105368108,2654.339755752772]},"properties":{"043B90740735B3F3BCE4":0,"name":"Böyük yal","extrude":true}},
{"type":"Feature","id":"0A8C67A56C35B3F40509","geometry":{"type":"Point","coordinates":[46.14504535021686,39.17683466384482,2651.459848262821]},"properties":{"0144C2D05435B3F40516":0,"name":"Əliağac piri","extrude":true}},
{"type":"Feature","id":"035D48806935B3F4B88B","geometry":{"type":"Point","coordinates":[46.14663334961082,39.1758399563233,2625.901512332949]},"properties":{"07DC70055A35B3F4B899":0,"name":"Burun","extrude":true}},
{"type":"Feature","id":"08C08A71DB35B3F5A668","geometry":{"type":"Point","coordinates":[46.14551401994554,39.18453011372,2957.893428076835]},"properties":{"0A0BBD2F0935B3F5A676":0,"name":"Çanqıllıyurd","extrude":true}},
{"type":"Feature","id":"0E39E4233D35B3F61F72","geometry":{"type":"Point","coordinates":[46.14372802490234,39.18634194031782,2940.338642389704]},"properties":{"0AC902F1D735B3F61F85":0,"name":"Şişqaya","extrude":true}},
{"type":"Feature","id":"0E48F3960935B3F6821A","geometry":{"type":"Point","coordinates":[46.13495828649757,39.1845495234483,2804.844393853346]},"properties":{"0D47C1304C35B3F68228":0,"name":"Anabat","extrude":true}},
{"type":"Feature","id":"03E0022BE935B3F74635","geometry":{"type":"Point","coordinates":[46.1370605139552,39.18912622006183,2741.687580804758]},"properties":{"07475A962E35B3F74647":0,"name":"Dəvəboynu","extrude":true}},
{"type":"Feature","id":"094C12483935B3F7BCF7","geometry":{"type":"Point","coordinates":[46.13882331580782,39.1905054173764,2688.02417008796]},"properties":{"0D475D681935B3F7BD04":0,"name":"Sofuyurd","extrude":true}},
{"type":"Feature","id":"0766E7437E35B3F83D5F","geometry":{"type":"Point","coordinates":[46.14021889746381,39.19263788558277,2588.623744024382]},"properties":{"0B6B58855935B3F83D6F":0,"name":"Ulubulaq","extrude":true}},
{"type":"Feature","id":"0A455FA33435B3F88253","geometry":{"type":"Point","coordinates":[46.14130351876128,39.19383901956331,2551.591943166484]},"properties":{"0B2DE69A2A35B3F88263":0,"name":"Uludüz","extrude":true}},
{"type":"Feature","id":"05CD7DE90435B3F8EC32","geometry":{"type":"Point","coordinates":[46.14778064365601,39.18867574619265,2752.436032083893]},"properties":{"0D3D6299B235B3F8EC41":0,"name":"Gözəlqaya çeşməsi","extrude":true}},
{"type":"Feature","id":"0CF7EA660E35B3F96A72","geometry":{"type":"Point","coordinates":[46.14956876809745,39.18823648400578,2711.152337473622]},"properties":{"0B1F94AD9935B3F96A84":0,"name":"Qarlıyurd","extrude":true}},
{"type":"Feature","id":"0D443191BC35B3FA6830","geometry":{"type":"Point","coordinates":[46.15678118677281,39.16021437866485,2013.761662804898]},"properties":{"0173ABA20935B3FA6843":0,"name":"Bəbir çeşməsi","extrude":true}},
{"type":"Feature","id":"039F54C03C35B3FAEF9F","geometry":{"type":"Point","coordinates":[46.15607717618364,39.16088985003891,2040.725797238522]},"properties":{"0961402C3F35B3FAEFAE":0,"name":"Başağıl çeşməsi","extrude":true}},
{"type":"Feature","id":"074EAB908B35B3FCBAB9","geometry":{"type":"Point","coordinates":[46.15581838749172,39.16069671080297,2038.406658372604]},"properties":{"0D8241075435B3FCBACD":0,"name":"Həmid çeşməsi","extrude":true}},
{"type":"Feature","id":"0B2B7DCE9335B3FE6246","geometry":{"type":"Point","coordinates":[46.15960424935381,39.16231054337202,2173.476613529722]},"properties":{"0954A0A43535B3FE6259":0,"name":"Qədim Çiriş kəndi","extrude":true}},
{"type":"Feature","id":"0AFF51E41F35B3FFC5D8","geometry":{"type":"Point","coordinates":[46.16788761683102,39.17694189529843,2766.704634347645]},"properties":{"0419A4A88A35B3FFC5E6":0,"name":"Vana yaylağı","extrude":true}},
{"type":"Feature","id":"0B99E7A37935B4011659","geometry":{"type":"Point","coordinates":[46.16212714823514,39.162402059174,2148.13873704851]},"properties":{"0883B9904335B4011668":0,"name":"Kaha dərəsi","extrude":true}},
{"type":"Feature","id":"07E830646335B4050678","geometry":{"type":"Point","coordinates":[46.15592289865225,39.15980150282951,2011.16265676371]},"properties":{"0EB672C0E935B4050688":0,"name":"İskəndərov Məhəmməd","extrude":true}},
{"type":"Feature","id":"05D31CDF2035B4057FB8","geometry":{"type":"Point","coordinates":[46.15594156735329,39.15980900395788,2011.045608315269]},"properties":{"0FB31B549A35B4057FC9":0,"name":"İskəndərov Surxay","extrude":true}},
{"type":"Feature","id":"0D3501736B35B4088B2B","geometry":{"type":"Point","coordinates":[46.15591296259586,39.15993666827006,2015.354707340892]},"properties":{"00BC71D2A135B4088B3A":0,"name":"Ağayev Məhəmməd","extrude":true}},
{"type":"Feature","id":"0BCA34509935B408EC43","geometry":{"type":"Point","coordinates":[46.15593410520396,39.15994542017769,2015.189302250592]},"properties":{"05B351AB3635B408EC53":0,"name":"Ağayev Aqil","extrude":true}}
]}
