{"type":"FeatureCollection", "features":[
{"type":"Feature","id":"0D7281483935E7D2B354","geometry":{"type":"Point","coordinates":[45.83760841234344,40.26853119666934,2133.114678322484]},"properties":{"name":"Orta məktəb"}},
{"type":"Feature","id":"0D9A74913B35E7D82752","geometry":{"type":"Point","coordinates":[45.83811854499737,40.2671933135947,2119.848953487538]},"properties":{"name":"CANƏHMƏD"}},
{"type":"Feature","id":"018B249F2535E7D8F560","geometry":{"type":"Point","coordinates":[45.8434582728467,40.27344138892274,2160.836669439588]},"properties":{"name":"Bayramov Əsmətel"}},
{"type":"Feature","id":"0872F0A86835E7DA14B5","geometry":{"type":"Point","coordinates":[45.84301281451995,40.27293774963817,2158.166191336637]},"properties":{"name":"Nəsirov Nüsrət"}},
{"type":"Feature","id":"0D4B8BF9B535E7DA93F8","geometry":{"type":"Point","coordinates":[45.84202490989113,40.2714883765084,2150.381153983531]},"properties":{"name":"Məmmədov Allahverdi"}},
{"type":"Feature","id":"0C0EB8361835E7DB2DED","geometry":{"type":"Point","coordinates":[45.84195276374701,40.27118143606751,2147.881047369939]},"properties":{"name":"Həsənov Abbas"}},
{"type":"Feature","id":"007933670D35E7DBCB56","geometry":{"type":"Point","coordinates":[45.84123645048838,40.2718128928288,2156.223615451726]},"properties":{"name":"Nəsirov Aydın"}},
{"type":"Feature","id":"053032597E35E7DC3CE1","geometry":{"type":"Point","coordinates":[45.84106716749434,40.27179981058557,2156.902283921851]},"properties":{"name":"Nəsirov Nurəddin"}},
{"type":"Feature","id":"0AC021E49F35E7DCC912","geometry":{"type":"Point","coordinates":[45.8408758421413,40.27092481123277,2148.181943934487]},"properties":{"name":"Cəlilov Yadigar"}},
{"type":"Feature","id":"0A6151C06E35E7DE158A","geometry":{"type":"Point","coordinates":[45.84037591271442,40.27076159856869,2147.781144400672]},"properties":{"name":"Alıyev Nəbi"}},
{"type":"Feature","id":"078A8CE12335E7DECB81","geometry":{"type":"Point","coordinates":[45.84129285740788,40.27045778809623,2142.650842326352]},"properties":{"name":"Cəlilov Məzahim"}},
{"type":"Feature","id":"02EC4416B935E7DF0D56","geometry":{"type":"Point","coordinates":[45.84114760392706,40.2702350696283,2140.732154862011]},"properties":{"name":"Əliyev Gülməmməd"}},
{"type":"Feature","id":"0F007C905335E7DF6965","geometry":{"type":"Point","coordinates":[45.84098860623143,40.2700379394863,2138.888914180062]},"properties":{"name":"Qasımov Sabir"}},
{"type":"Feature","id":"0D2BD457E535E7DFB656","geometry":{"type":"Point","coordinates":[45.84030503111445,40.2698733691743,2137.112147263325]},"properties":{"name":"Paşayev İbad "}},
{"type":"Feature","id":"01FAE23FBF35E7E0CB31","geometry":{"type":"Point","coordinates":[45.84063177740845,40.26966969059242,2135.086313541329]},"properties":{"name":"Bayramov Yəhya"}},
{"type":"Feature","id":"0290D5BF0635E7E18B1F","geometry":{"type":"Point","coordinates":[45.84072134232878,40.26961795000643,2135.058482130693]},"properties":{"name":"Bayramov Akif"}},
{"type":"Feature","id":"0754EDF2F535E7E24B2E","geometry":{"type":"Point","coordinates":[45.83992397744438,40.2698041723862,2136.560434100767]},"properties":{"name":"Əliyev Oqtay"}},
{"type":"Feature","id":"04495F2EEC35E7E2B060","geometry":{"type":"Point","coordinates":[45.8405965955412,40.26918820327379,2132.845531836587]},"properties":{"name":"Nəsirov Məhəbbət"}},
{"type":"Feature","id":"0509A45C7035E7E32F61","geometry":{"type":"Point","coordinates":[45.84069261330178,40.26890548499028,2134.172418064058]},"properties":{"name":"Nəsirov Firqət"}},
{"type":"Feature","id":"0EA5E66C4335E7E39E1A","geometry":{"type":"Point","coordinates":[45.84160522338266,40.26911689634542,2140.254525943435]},"properties":{"name":"Məhərrəmov Müzəffər"}},
{"type":"Feature","id":"07F4DC55FE35E7E4E5D2","geometry":{"type":"Point","coordinates":[45.83971905398164,40.2681263920668,2127.000651335192]},"properties":{"name":"Balayev Muraz"}},
{"type":"Feature","id":"0DB9720C9435E7E58263","geometry":{"type":"Point","coordinates":[45.83954030166021,40.26775170527879,2127.652655519221]},"properties":{"name":"Alıyev İdris"}},
{"type":"Feature","id":"082C0FE4B335E7E6B4A1","geometry":{"type":"Point","coordinates":[45.8394551146506,40.270314661669,2145.753213262959]},"properties":{"name":"Həsənova Rəfiqə"}},
{"type":"Feature","id":"0771D409C335E7E78715","geometry":{"type":"Point","coordinates":[45.83949364426085,40.27004695638337,2141.435894422816]},"properties":{"name":"Abbasov Şahbaz"}},
{"type":"Feature","id":"0108E3118235E7E7EBF6","geometry":{"type":"Point","coordinates":[45.83900525320497,40.26999400990689,2143.116752290523]},"properties":{"name":"Həsənov Əlasdan"}},
{"type":"Feature","id":"089D9AB9A935E7E88705","geometry":{"type":"Point","coordinates":[45.83857367099255,40.2694605983263,2137.967506991943]},"properties":{"name":"Əliyev Bayram"}},
{"type":"Feature","id":"04671F51A035E7E8E276","geometry":{"type":"Point","coordinates":[45.83969665374573,40.26936296745362,2131.687538990366]},"properties":{"name":"Verdiyev Əleysan"}},
{"type":"Feature","id":"0AC617FCD335E7E9B5CB","geometry":{"type":"Point","coordinates":[45.839090282066,40.26919047720113,2132.155535754731]},"properties":{"name":"Verdiyev Tofiq"}},
{"type":"Feature","id":"0FD89124F135E7EA08C3","geometry":{"type":"Point","coordinates":[45.83911830157276,40.26910477534449,2131.130357788767]},"properties":{"name":"Verdiyev Rəşid"}},
{"type":"Feature","id":"07B3B1F4CB35E7EA7F97","geometry":{"type":"Point","coordinates":[45.83913231858857,40.26881403163271,2128.453837176452]},"properties":{"name":"Cavadov Cabir"}},
{"type":"Feature","id":"0C9A5E222835E7EBEDC3","geometry":{"type":"Point","coordinates":[45.83886574567115,40.26852610019998,2127.215489213022]},"properties":{"name":"Əliyev Cavanşir"}},
{"type":"Feature","id":"09F31EE59835E7EC9D9A","geometry":{"type":"Point","coordinates":[45.83832267483339,40.26903790660091,2133.748273348803]},"properties":{"name":"Paşayev Əmrah"}},
{"type":"Feature","id":"0906A3FD1B35E7ECE475","geometry":{"type":"Point","coordinates":[45.83766972667682,40.26890523640845,2136.213359574553]},"properties":{"name":"Əliyev Cəmil"}},
{"type":"Feature","id":"0B4FBA5DFD35E7ED3686","geometry":{"type":"Point","coordinates":[45.83781969174586,40.26948008430318,2141.920565637951]},"properties":{"name":"Cavadov Valeh"}},
{"type":"Feature","id":"0A33DD772035E7ED92FF","geometry":{"type":"Point","coordinates":[45.83710062079826,40.26901645730711,2138.835614366256]},"properties":{"name":"Abbasov Tağı"}},
{"type":"Feature","id":"0964C9671535E7EDD9A8","geometry":{"type":"Point","coordinates":[45.83666289285277,40.26900427175082,2140.563065938159]},"properties":{"name":"Abbasov Abbasqulu"}},
{"type":"Feature","id":"0738A5D57035E7EE28AD","geometry":{"type":"Point","coordinates":[45.83708446328727,40.2686633371279,2135.81607530903]},"properties":{"name":"Abbasov Bahadur (Nağı)"}},
{"type":"Feature","id":"092DCB88CB35E7EEBDCE","geometry":{"type":"Point","coordinates":[45.83657538337279,40.26835080678708,2133.959418526065]},"properties":{"name":"Orucov Yəhya"}},
{"type":"Feature","id":"060BE71B9035E7EF5A8D","geometry":{"type":"Point","coordinates":[45.83557398092864,40.26844511768632,2138.948190930035]},"properties":{"name":"Qənbərov Mikayıl"}},
{"type":"Feature","id":"0ED30F829E35E7F0431E","geometry":{"type":"Point","coordinates":[45.83441125931145,40.2687384675393,2147.526544871574]},"properties":{"name":"Abbasov Xudat"}},
{"type":"Feature","id":"04826EA4A035E7F09E07","geometry":{"type":"Point","coordinates":[45.83544218071326,40.26881372817692,2143.254102318519]},"properties":{"name":"Qənbərov İsmayıl"}},
{"type":"Feature","id":"0265F413A035E7F10522","geometry":{"type":"Point","coordinates":[45.83512651976038,40.26877947459167,2144.936614623187]},"properties":{"name":"Qənbərov Cəbrayıl"}},
{"type":"Feature","id":"0D2F5357A935E7F183BD","geometry":{"type":"Point","coordinates":[45.83472699252943,40.26874010482267,2146.55803215381]},"properties":{"name":"Qənbərov Zahid"}},
{"type":"Feature","id":"0B2E0DC0C235E7F24539","geometry":{"type":"Point","coordinates":[45.83551045648228,40.26736701826435,2129.107950605487]},"properties":{"name":"Əkbərova Şükufə "}},
{"type":"Feature","id":"07C4C2DEC235E7F340F8","geometry":{"type":"Point","coordinates":[45.83812845962228,40.26799198204698,2125.717233412235]},"properties":{"name":"Balayev Fənci"}},
{"type":"Feature","id":"03AE1C86A735E7F54789","geometry":{"type":"Point","coordinates":[45.83773636740134,40.26812906071692,2128.833182794908]},"properties":{"name":"Orta məktəb"}},
{"type":"Feature","id":"0272520BD035E7F6FDA3","geometry":{"type":"Point","coordinates":[45.83865698093877,40.2668547617937,2119.792294156813]},"properties":{"name":"Quliyev İbrahim"}},
{"type":"Feature","id":"02B4FCE37335E7F8D20C","geometry":{"type":"Point","coordinates":[45.83868831225836,40.26671082138589,2120.022954591221]},"properties":{"name":"Həsənov Yusif"}},
{"type":"Feature","id":"0D481C24E335E7F970F5","geometry":{"type":"Point","coordinates":[45.83923987051519,40.26646109258049,2125.725341531775]},"properties":{"name":"Quliyev Nəriman"}},
{"type":"Feature","id":"071AA00A3A35E7FB28EE","geometry":{"type":"Point","coordinates":[45.83974355060693,40.26644399594822,2132.432366255651]},"properties":{"name":"Quliyev Nəsib"}},
{"type":"Feature","id":"022523A1B235E7FE2D50","geometry":{"type":"Point","coordinates":[45.83880805070756,40.26435721751287,2130.411135568955]},"properties":{"name":"Hamam"}},
{"type":"Feature","id":"0F6E0CFE4A35E7FF0992","geometry":{"type":"Point","coordinates":[45.83945288986219,40.26477613255324,2136.446199259257]},"properties":{"name":"Namazov Şükür"}},
{"type":"Feature","id":"0BFF4F747F35E7FFDB1E","geometry":{"type":"Point","coordinates":[45.83795475810454,40.26508853156471,2118.821386797216]},"properties":{"name":"İsgəndərov Qərib"}},
{"type":"Feature","id":"06027A985835E800489C","geometry":{"type":"Point","coordinates":[45.83805079556495,40.26480572270835,2121.624216248243]},"properties":{"name":"İsgəndərova Qıymat "}},
{"type":"Feature","id":"030FD58E1A35E800DF90","geometry":{"type":"Point","coordinates":[45.83800059699093,40.26527936232861,2118.06681262427]},"properties":{"name":"Namazov Əbdüləzim"}},
{"type":"Feature","id":"049A584A7235E801890F","geometry":{"type":"Point","coordinates":[45.83813854342507,40.26548709210199,2117.814167284812]},"properties":{"name":"Namazov Bayraməli"}},
{"type":"Feature","id":"0F506AE67A35E80227FF","geometry":{"type":"Point","coordinates":[45.83883571136417,40.26531431869932,2125.70474537574]},"properties":{"name":"Namazov Məhərrəm"}},
{"type":"Feature","id":"036E6ED0D935E802C805","geometry":{"type":"Point","coordinates":[45.83845216416643,40.26546145901534,2120.472718941218]},"properties":{"name":"Namazov Eldar"}},
{"type":"Feature","id":"009633E2BE35E803138C","geometry":{"type":"Point","coordinates":[45.83834829809436,40.26569032610367,2118.439710807234]},"properties":{"name":"Muxtarov Abdulla"}},
{"type":"Feature","id":"0F750616A135E80B508E","geometry":{"type":"Point","coordinates":[45.83916884449219,40.26611002736689,2125.70105955885]},"properties":{"name":"Seyidov Seyidağa"}},
{"type":"Feature","id":"0BA2E323EC35E80BC448","geometry":{"type":"Point","coordinates":[45.83836050734191,40.26617428471304,2117.119646274637]},"properties":{"name":"Rəsulov Nəbi"}},
{"type":"Feature","id":"0474DE4C6835E80C4051","geometry":{"type":"Point","coordinates":[45.83857204331391,40.26606425222323,2119.405177225381]},"properties":{"name":"Rəsulov Tariyel"}},
{"type":"Feature","id":"0D125197A335E80CCD68","geometry":{"type":"Point","coordinates":[45.83855231104347,40.26584499397385,2119.842054161006]},"properties":{"name":"Rəsulov Məsum"}},
{"type":"Feature","id":"02243834A635E80DB1E1","geometry":{"type":"Point","coordinates":[45.83668231824712,40.26454010683479,2115.154856794029]},"properties":{"name":"İdarə binası"}},
{"type":"Feature","id":"0552FA7DBD35E80F3814","geometry":{"type":"Point","coordinates":[45.83731289278085,40.26545119329165,2113.269199908459]},"properties":{"name":" Rəhimov Turab"}},
{"type":"Feature","id":"06FC98ACB235E8101D35","geometry":{"type":"Point","coordinates":[45.83654589938212,40.26504498360368,2110.797321388475]},"properties":{"name":"Sayadov Cumalı"}},
{"type":"Feature","id":"030A01C6C035E810660F","geometry":{"type":"Point","coordinates":[45.83674678311629,40.26518750118793,2111.597415096209]},"properties":{"name":"İsgəndərov Yediyar"}},
{"type":"Feature","id":"0B4D3AD1FD35E811B809","geometry":{"type":"Point","coordinates":[45.83587065375107,40.2651047266049,2108.400571875584]},"properties":{"name":"Hüseynov Salman"}},
{"type":"Feature","id":"0AF545996B35E8125674","geometry":{"type":"Point","coordinates":[45.83607400301897,40.26529413193862,2109.400282693171]},"properties":{"name":"Hüseynov Lətif"}},
{"type":"Feature","id":"0DDE5EF3EF35E8130A7E","geometry":{"type":"Point","coordinates":[45.83488093590841,40.26491805499609,2104.684318820235]},"properties":{"name":"Ələkbərov Mansır"}},
{"type":"Feature","id":"0AB9DED2FE35E8139C26","geometry":{"type":"Point","coordinates":[45.83547800276051,40.26525657551284,2107.563089191755]},"properties":{"name":"Balayev Rüstəm"}},
{"type":"Feature","id":"0215CAB0D835E814E7CE","geometry":{"type":"Point","coordinates":[45.83416962337385,40.2657221912274,2107.508586759881]},"properties":{"name":"Sayadov Mehman"}},
{"type":"Feature","id":"094159BE5535E8157B07","geometry":{"type":"Point","coordinates":[45.83729095568747,40.26718982736161,2120.848688849274]},"properties":{"name":"Hüseynov Əli"}},
{"type":"Feature","id":"0C7C603A8F35E8163F0E","geometry":{"type":"Point","coordinates":[45.83759737385265,40.26671884488321,2117.778466357723]},"properties":{"name":"Əliyev Yaqub"}},
{"type":"Feature","id":"0960898C9035E816CEEE","geometry":{"type":"Point","coordinates":[45.83725582764627,40.26686374593839,2118.425314195023]},"properties":{"name":"Quliyev İsaq"}},
{"type":"Feature","id":"0456AB4BEE35E8179183","geometry":{"type":"Point","coordinates":[45.83700242311891,40.26756562174487,2124.513661374087]},"properties":{"name":"Yusibov Bayraməli"}},
{"type":"Feature","id":"06FBE086C635E81817D2","geometry":{"type":"Point","coordinates":[45.8364560674539,40.26779300447222,2127.70970691692]},"properties":{"name":"İbrahimov Qədir"}},
{"type":"Feature","id":"0CAF34CC9B35E81AA3FF","geometry":{"type":"Point","coordinates":[45.8353759167978,40.26670435474985,2121.186773016133]},"properties":{"name":"Rüstəmov Əlastan"}},
{"type":"Feature","id":"0125C877D635E81B9BEB","geometry":{"type":"Point","coordinates":[45.83686017982521,40.26630114383551,2115.368575621317]},"properties":{"name":"Balayev Temir"}},
{"type":"Feature","id":"0F1156CBF335E81C8EA8","geometry":{"type":"Point","coordinates":[45.83608925580689,40.26656562841311,2117.895162571445]},"properties":{"name":"Məmmədov Xasay"}},
{"type":"Feature","id":"0D2794608F35E81D04DD","geometry":{"type":"Point","coordinates":[45.83616316412203,40.26689723093139,2121.063483942478]},"properties":{"name":"Orucov Mürsəl"}},
{"type":"Feature","id":"0B14F6EEC335E81D815C","geometry":{"type":"Point","coordinates":[45.83690801370479,40.26685642479902,2118.725805605684]},"properties":{"name":"Ələkbərov Həsən"}},
{"type":"Feature","id":"0B1A3AF8F735E8203827","geometry":{"type":"Point","coordinates":[45.83273565629671,40.26470624787815,2096.886148466965]},"properties":{"name":"Mal ferması"}},
{"type":"Feature","id":"028958D83C35E822DF8D","geometry":{"type":"Point","coordinates":[45.83633181535939,40.26664450527819,2118.35493890309]},"properties":{"name":"Balayev Nəsirəddin"}},
{"type":"Feature","id":"0B173DB10735E825DDB3","geometry":{"type":"Point","coordinates":[45.82717584672177,40.26541957743578,2094.462954528388]},"properties":{"name":"Əliyev Mərdan"}},
{"type":"Feature","id":"0B622D1A3535E8270034","geometry":{"type":"Point","coordinates":[45.8329899623423,40.26664447796875,2116.479989100805]},"properties":{"name":"Əliyev Məcnun"}},
{"type":"Feature","id":"070C58597135E8278989","geometry":{"type":"Point","coordinates":[45.83233150876042,40.26703884641974,2120.624546493656]},"properties":{"name":"Abbasov Müsəllim"}},
{"type":"Feature","id":"078B6D978035E827F3B2","geometry":{"type":"Point","coordinates":[45.83193550740619,40.26604615987481,2106.94478958441]},"properties":{"name":"Əliyev İslam"}},
{"type":"Feature","id":"0E3CA540A735E8295C92","geometry":{"type":"Point","coordinates":[45.8327167169055,40.26685175375817,2118.926876287986]},"properties":{"name":"Abbasov Qərib"}},
{"type":"Feature","id":"0E1C761F0435E82A4418","geometry":{"type":"Point","coordinates":[45.8312918372643,40.26574821762636,2104.251467880586]},"properties":{"name":"Ələkbərov Füzuli"}},
{"type":"Feature","id":"08F144940435E82A9D67","geometry":{"type":"Point","coordinates":[45.83080804625887,40.26562629573802,2102.695488311032]},"properties":{"name":"Namazov Fərhad"}},
{"type":"Feature","id":"00FC500E1A35E82AEDE0","geometry":{"type":"Point","coordinates":[45.83034025110256,40.26551620710721,2101.284684355438]},"properties":{"name":"Məhərrəmov Səftər"}},
{"type":"Feature","id":"0BF026274835E82B8336","geometry":{"type":"Point","coordinates":[45.82965244338022,40.26528624053748,2097.90958884435]},"properties":{"name":"Hüseynov Süleyman"}},
{"type":"Feature","id":"0879603D4A35E82BEDF6","geometry":{"type":"Point","coordinates":[45.8284544035732,40.26585704874644,2099.908486643709]},"properties":{"name":"Həsənov Pənah"}},
{"type":"Feature","id":"0A5C49D1AA35E82C9FF3","geometry":{"type":"Point","coordinates":[45.82892734820881,40.2656575204566,2099.777648648294]},"properties":{"name":"Nəsirov Fəxrəddin"}},
{"type":"Feature","id":"045D7B82D935E82CDFAA","geometry":{"type":"Point","coordinates":[45.82811585523579,40.26598693750191,2100.184111419994]},"properties":{"name":"Əliyev Rasim"}},
{"type":"Feature","id":"01D25C444A35E82E84C5","geometry":{"type":"Point","coordinates":[45.8425451225696,40.26509906547321,2151.04912259498]},"properties":{"name":"Kənd qoyun ferması"}},
{"type":"Feature","id":"04C6F759D935E82FAB0D","geometry":{"type":"Point","coordinates":[45.83814496571674,40.26736969622186,2120.994916299586]},"properties":{"name":"Kənd iaşə evi"}},
{"type":"Feature","id":"08CD082FAD35E82FF57B","geometry":{"type":"Point","coordinates":[45.83787170968407,40.26727762657851,2121.040605757696]},"properties":{"name":"Mağaza"}},
{"type":"Feature","id":"0CCA978F6F35E830F19C","geometry":{"type":"Point","coordinates":[45.83469409497098,40.26825631410249,2143.773122649612]},"properties":{"name":"Dik təpəsi"}},
{"type":"Feature","id":"0167CA2E0035E831D9C5","geometry":{"type":"Point","coordinates":[45.83511266402309,40.26819142472825,2141.432887557938]},"properties":{"name":"Köhnə qəbristanlıq (Dağıdılıb)"}},
{"type":"Feature","id":"0726430A0035E8328B71","geometry":{"type":"Point","coordinates":[45.83572538024347,40.26397745121767,2116.178478068163]},"properties":{"name":"Xırman təpəsi"}},
{"type":"Feature","id":"09E54FFE2D35E832D731","geometry":{"type":"Point","coordinates":[45.83688879393252,40.26350869757516,2127.745994609043]},"properties":{"name":"Qəbristanlıq (Dağıdılıb)"}},
{"type":"Feature","id":"0B78DBF64335E8339A1A","geometry":{"type":"Point","coordinates":[45.82984007154054,40.26644566057698,2114.063959357623]},"properties":{"name":"Göyçək daşlıq"}},
{"type":"Feature","id":"049501D6EC35E8341BD2","geometry":{"type":"Point","coordinates":[45.82305516773744,40.27230508115694,2143.301730265086]},"properties":{"name":"İncə su"}},
{"type":"Feature","id":"0583D820C335E834A049","geometry":{"type":"Point","coordinates":[45.8307847111502,40.28119336867438,2286.34201479333]},"properties":{"name":"Zağanın dərəsi"}},
{"type":"Feature","id":"00A224EFCD35E8364107","geometry":{"type":"Point","coordinates":[45.83039901265938,40.29087769123974,2439.292700108134]},"properties":{"name":"Köhnə ocaq təpəsi"}},
{"type":"Feature","id":"07EED9734935E8372AE7","geometry":{"type":"Point","coordinates":[45.8211957942706,40.26354064960731,2079.930172603607]},"properties":{"name":"Yumru təpə"}},
{"type":"Feature","id":"077BF2D3E135E8377351","geometry":{"type":"Point","coordinates":[45.82285957370632,40.26797468728289,2121.781459360509]},"properties":{"name":"Uzun təpə"}},
{"type":"Feature","id":"03D7A7F52835E837D3A6","geometry":{"type":"Point","coordinates":[45.81688230244472,40.26615080076313,2136.140091984456]},"properties":{"name":"Ocaq təpəsi"}},
{"type":"Feature","id":"074A64EEFB35E8389FB4","geometry":{"type":"Point","coordinates":[45.82631502953967,40.26408095698308,2086.055041879205]},"properties":{"name":"Sarı xram"}},
{"type":"Feature","id":"08108A8E8735E83A383F","geometry":{"type":"Point","coordinates":[45.81863929075871,40.26241320173633,2067.804719312981]},"properties":{"name":"Avasalı qobusu"}},
{"type":"Feature","id":"06CBD7E26A35E83ACD5F","geometry":{"type":"Point","coordinates":[45.81942048110728,40.2654416785952,2090.500271860982]},"properties":{"name":"Ocaq təpəsinin qobusu"}},
{"type":"Feature","id":"0AA5DD605535E83B8FB4","geometry":{"type":"Point","coordinates":[45.83888511519243,40.29564903194483,2547.453927359635]},"properties":{"name":"Sarı yol"}},
{"type":"Feature","id":"05304975C135E83C0BA0","geometry":{"type":"Point","coordinates":[45.84130785656411,40.27657642060235,2198.303149416967]},"properties":{"name":"Nazik su"}},
{"type":"Feature","id":"0F4000A00D35E83CC86F","geometry":{"type":"Point","coordinates":[45.84810066135677,40.28301612645907,2275.886672529847]},"properties":{"name":"Tığ təpəsi"}},
{"type":"Feature","id":"074168F91535E83E1173","geometry":{"type":"Point","coordinates":[45.85575287371608,40.28437670857409,2388.984456716484]},"properties":{"name":"Böyük səngərli"}},
{"type":"Feature","id":"0588364F7E35E83E6E38","geometry":{"type":"Point","coordinates":[45.84300954783083,40.28630951298697,2331.447643593552]},"properties":{"name":"Bala Səngərli"}},
{"type":"Feature","id":"03A728910635E83F10D3","geometry":{"type":"Point","coordinates":[45.84492196351377,40.30017623590597,2534.679989917809]},"properties":{"name":"Çənli yaylağı"}},
{"type":"Feature","id":"000A5EAAC735E83FFC81","geometry":{"type":"Point","coordinates":[45.8458914078716,40.27909677278744,2236.735094211112]},"properties":{"name":"Kalvayıqulu bulağı"}},
{"type":"Feature","id":"0EBCC2F06735E840E725","geometry":{"type":"Point","coordinates":[45.86105141853498,40.28959391585062,2415.676084183916]},"properties":{"name":"Güllü bulaq"}},
{"type":"Feature","id":"0BB4C3D6B535E8426A62","geometry":{"type":"Point","coordinates":[45.87393470289443,40.30573160227126,2860.144416697749]},"properties":{"name":"Buğda dağı"}},
{"type":"Feature","id":"08F3F3F2E935E84318FB","geometry":{"type":"Point","coordinates":[45.86127815442759,40.3093420314787,2355.952812683727]},"properties":{"name":"Çataq"}},
{"type":"Feature","id":"0CF4B20AC735E843F3F6","geometry":{"type":"Point","coordinates":[45.83850635801191,40.2704817297049,2145.72482236454]},"properties":{"name":"Əhmədov İslam"}},
{"type":"Feature","id":"02755A0DD835E8444B10","geometry":{"type":"Point","coordinates":[45.83656055769315,40.26972509447624,2149.780431184486]},"properties":{"name":"Cabbarov Ənvər"}},
{"type":"Feature","id":"024CF17E9D35E8450295","geometry":{"type":"Point","coordinates":[45.83492623313312,40.26950873141423,2150.853894030024]},"properties":{"name":"Əliyev Miri"}},
{"type":"Feature","id":"0A1D28699735E845757D","geometry":{"type":"Point","coordinates":[45.83540087452999,40.2693445366392,2148.190304601304]},"properties":{"name":"Əliyev Seyidcəfər"}},
{"type":"Feature","id":"0BEC0D261D35E845D537","geometry":{"type":"Point","coordinates":[45.83588087923896,40.26951848042693,2148.773808544777]},"properties":{"name":"Əliyev Cəlil"}},
{"type":"Feature","id":"072EA0F4F635E8461C7B","geometry":{"type":"Point","coordinates":[45.83619618587576,40.26961985529742,2149.348743681387]},"properties":{"name":"Əliyev Həşim"}},
{"type":"Feature","id":"0475D391D435E84686B8","geometry":{"type":"Point","coordinates":[45.83457468009482,40.27033467603887,2162.599973901524]},"properties":{"name":"Yataq"}},
{"type":"Feature","id":"062103C79335E8470F13","geometry":{"type":"Point","coordinates":[45.83252151615064,40.26918414708897,2156.389168384101]},"properties":{"name":"Qaraiman yolu"}},
{"type":"Feature","id":"072963DFA735E847B800","geometry":{"type":"Point","coordinates":[45.83992054106362,40.27279865260063,2177.399328680567]},"properties":{"name":"Yal yolu"}},
{"type":"Feature","id":"0083788D6C35E84917E0","geometry":{"type":"Point","coordinates":[45.84899575866415,40.28694857360378,2297.74303914603]},"properties":{"name":"Təzə yol"}},
{"type":"Feature","id":"016B4D293335E849F241","geometry":{"type":"Point","coordinates":[45.85370130580122,40.28639924736682,2295.181057039406]},"properties":{"name":"Güllü bulağa çıxan yol"}},
{"type":"Feature","id":"08C0FB514835E84B568B","geometry":{"type":"Point","coordinates":[45.84312633345984,40.2691419267429,2165.728960166075]},"properties":{"name":"Quş təpəsi"}},
{"type":"Feature","id":"0DFB3EA36E35E84CC54E","geometry":{"type":"Point","coordinates":[45.88196097649731,40.29244002634107,2896.207798036333]},"properties":{"name":"Marallı"}},
{"type":"Feature","id":"07793B893135E84DC155","geometry":{"type":"Point","coordinates":[45.87524926401069,40.29536287594603,2801.187602312368]},"properties":{"name":"Tatın yalı "}},
{"type":"Feature","id":"0FE3DDE7E335E84EAAEB","geometry":{"type":"Point","coordinates":[45.86205083902862,40.29571351499177,2603.221257996438]},"properties":{"name":"Qıcılıq"}},
{"type":"Feature","id":"02B531B87B35E84F54D6","geometry":{"type":"Point","coordinates":[45.85913064310503,40.29726983163049,2594.217165281292]},"properties":{"name":"Astanın arxacı"}},
{"type":"Feature","id":"0A06EEAC9335E858E0BE","geometry":{"type":"Point","coordinates":[45.86266007009737,40.30005172897191,2611.461927331484]},"properties":{"name":"Bala quzuqulaqlıq"}},
{"type":"Feature","id":"03A0A7E45235E8597574","geometry":{"type":"Point","coordinates":[45.86787653864565,40.29987350411938,2617.100987759998]},"properties":{"name":"Böyük quzuqulaqlıq"}},
{"type":"Feature","id":"06777D364035E85BF4A5","geometry":{"type":"Point","coordinates":[45.84264310507783,40.30249602861419,2572.162516629683]},"properties":{"name":"Qarağul təpəsi"}},
{"type":"Feature","id":"04F9A3EDF535E85CCA07","geometry":{"type":"Point","coordinates":[45.83597253242315,40.29633644713019,2525.278423962749]},"properties":{"name":"Həviləkən"}},
{"type":"Feature","id":"08EB57BB6F35E85DA5A0","geometry":{"type":"Point","coordinates":[45.84914225821181,40.27318030338641,2218.640403185455]},"properties":{"name":"Cinni qaya"}},
{"type":"Feature","id":"0EC3D309AD35E85E310F","geometry":{"type":"Point","coordinates":[45.85135681355398,40.26754458318833,2178.321822682221]},"properties":{"name":"Qarabulaq təpəsi"}},
{"type":"Feature","id":"08A1CD9AD135E85FB974","geometry":{"type":"Point","coordinates":[45.84568066732856,40.2709805341816,2215.926307545317]},"properties":{"name":"Arxacın təpəsi"}},
{"type":"Feature","id":"048A7EF10B35E860FE94","geometry":{"type":"Point","coordinates":[45.85368256114496,40.30815072209916,2611.918406154493]},"properties":{"name":"Qara arxac"}},
{"type":"Feature","id":"0F1DE35F1235E8637FA2","geometry":{"type":"Point","coordinates":[45.85274081476274,40.3092576334088,2555.947690793149]},"properties":{"name":"Qırmızı Güney"}},
{"type":"Feature","id":"057ABB4C2235E8643E9B","geometry":{"type":"Point","coordinates":[45.85723741163199,40.30963165500639,2544.713026746616]},"properties":{"name":"Mürsəldüşən"}},
{"type":"Feature","id":"071F96A7DD35E8693193","geometry":{"type":"Point","coordinates":[45.85476935382864,40.30980690169432,2555.627731547185]},"properties":{"name":"Quzey"}},
{"type":"Feature","id":"02CD93F25435E86AE6A2","geometry":{"type":"Point","coordinates":[45.82750979794368,40.26103756077941,2087.816859566894]},"properties":{"name":"Böyük Məzrə yolu"}},
{"type":"Feature","id":"0E91A6FB5D35E86BE39A","geometry":{"type":"Point","coordinates":[45.83367401593283,40.26274995170528,2116.986079664366]},"properties":{"name":"Ağyoğuşa gedən yol"}},
{"type":"Feature","id":"020003859935E86C5F99","geometry":{"type":"Point","coordinates":[45.83052557611505,40.26084807372429,2104.435662089009]},"properties":{"name":"Xırman"}},
{"type":"Feature","id":"05995E922035E86D3302","geometry":{"type":"Point","coordinates":[45.83393308139017,40.26243245190762,2113.60513426244]},"properties":{"name":"Qaraj"}},
{"type":"Feature","id":"0BAB7C56C435E86E348D","geometry":{"type":"Point","coordinates":[45.8308951331466,40.26198268803872,2102.424066943192]},"properties":{"name":"Silos quyuları"}},
{"type":"Feature","id":"0E5583EDC535E86EEDBD","geometry":{"type":"Point","coordinates":[45.83422480456123,40.26306319795697,2118.261763823359]},"properties":{"name":"Elektrik yarımstansiyası"}},
{"type":"Feature","id":"081AF2F60435E87075D3","geometry":{"type":"Point","coordinates":[45.83272518876883,40.26180543824059,2113.854919945333]},"properties":{"name":"Kənd anbarı"}},
{"type":"Feature","id":"0D236208B135E87275E0","geometry":{"type":"Point","coordinates":[45.83522396327662,40.30824081099549,2803.993319181021]},"properties":{"name":"Qaşqabulağa çıxan yol"}},
{"type":"Feature","id":"01858B1A3435E873FB99","geometry":{"type":"Point","coordinates":[45.84483275784076,40.26689251137856,2176.012513231916]},"properties":{"name":"Qəflə yolu"}},
{"type":"Feature","id":"0E2A25483E35E876DBB4","geometry":{"type":"Point","coordinates":[45.84260566307074,40.27067933638575,2144.303228857318]},"properties":{"name":"Qarasu (Canəhməd) çayı"}},
{"type":"Feature","id":"02139B882135E8789CBA","geometry":{"type":"Point","coordinates":[45.84440542394315,40.26568760571193,2160.253008446093]},"properties":{"name":"Ağ su"}},
{"type":"Feature","id":"0BAA9A4D6635E879A21D","geometry":{"type":"Point","coordinates":[45.84439953876547,40.27074374608997,2174.135751279179]},"properties":{"name":"Göyərçin qayası"}},
{"type":"Feature","id":"03ABBB15B435E87ADAC1","geometry":{"type":"Point","coordinates":[45.83041659527873,40.26802376282135,2150.421274006262]},"properties":{"name":"Durnalı"}},
{"type":"Feature","id":"08A832B86635E87B7A65","geometry":{"type":"Point","coordinates":[45.82079182619173,40.27144608306138,2133.26948304916]},"properties":{"name":"Süni meşəlik (Posadka)"}},
{"type":"Feature","id":"000254059E35E87CA4BB","geometry":{"type":"Point","coordinates":[45.80425949935022,40.24629784795426,2020.587762521876]},"properties":{"name":"Qona"}},
{"type":"Feature","id":"020428C2AE35E87DA891","geometry":{"type":"Point","coordinates":[45.80425768840998,40.24556025506384,2019.866178547977]},"properties":{"name":"Qumlu oyuq"}},
{"type":"Feature","id":"04D1ABBDA535E87FD8B7","geometry":{"type":"Point","coordinates":[45.86126674126996,40.29774740183786,2639.892251869283]},"properties":{"name":"Çayanlı"}},
{"type":"Feature","id":"02D0C79D1D35E880E1B6","geometry":{"type":"Point","coordinates":[45.85531631232747,40.30828260085226,2477.559838106397]},"properties":{"name":"Lilparlı bulaq"}},
{"type":"Feature","id":"0FEE857BEF35E8824D32","geometry":{"type":"Point","coordinates":[45.83300609365918,40.26740629319903,2128.099317047324]},"properties":{"name":"Kor bulaq"}},
{"type":"Feature","id":"021F56510E35E883BB80","geometry":{"type":"Point","coordinates":[45.83132679282051,40.26861078269736,2145.342519116628]},"properties":{"name":"Durnalı bulağı"}},
{"type":"Feature","id":"020EF3946F35E884E9C5","geometry":{"type":"Point","coordinates":[45.83880724109041,40.30419357975085,2614.989841606606]},"properties":{"name":"Sarı bulaq (Firidun düşənin bulağı)"}},
{"type":"Feature","id":"0B21D609C235E88610BA","geometry":{"type":"Point","coordinates":[45.83033743295908,40.27964334930835,2270.893167271122]},"properties":{"name":"Zağanın bulağı"}},
{"type":"Feature","id":"0FA3E0CA0935E886BE83","geometry":{"type":"Point","coordinates":[45.84040575817514,40.26683925689589,2142.280034647133]},"properties":{"name":"Daş bulaq "}},
{"type":"Feature","id":"0B94FEA42735E887DDC0","geometry":{"type":"Point","coordinates":[45.84095177180238,40.28513150620229,2323.654187752707]},"properties":{"name":"Nənoy bulağı"}},
{"type":"Feature","id":"0DFE78CB3935E888EA2A","geometry":{"type":"Point","coordinates":[45.84394807225277,40.2780414903145,2323.466321438166]},"properties":{"name":"Abbasölənin bulağı"}},
{"type":"Feature","id":"0FC18FBA2635E889DC25","geometry":{"type":"Point","coordinates":[45.86689567413046,40.2985711841209,2681.206830141233]},"properties":{"name":"Dik qaya"}},
{"type":"Feature","id":"01FCFB419635E88B0C19","geometry":{"type":"Point","coordinates":[45.86985827664385,40.29760684441775,2632.342408433283]},"properties":{"name":"Xoruz bulağı"}},
{"type":"Feature","id":"04D541628D35E88C66C2","geometry":{"type":"Point","coordinates":[45.8490391370044,40.26780036899618,2180.40410157981]},"properties":{"name":"Bəzirxana"}},
{"type":"Feature","id":"0287A742C335E88D71D8","geometry":{"type":"Point","coordinates":[45.83491017325725,40.26440921341286,2106.676550292726]},"properties":{"name":"Körpü"}},
{"type":"Feature","id":"0BB4AFB69935E88DED79","geometry":{"type":"Point","coordinates":[45.838228654502,40.26688308232401,2118.074844928559]},"properties":{"name":"Körpü"}},
{"type":"Feature","id":"084CFBA90535E890092B","geometry":{"type":"Point","coordinates":[45.83706533251043,40.2699033255589,2151.102078862838]},"properties":{"name":"Möysümün bulağı"}},
{"type":"Feature","id":"0FC9625BBA35E892BD06","geometry":{"type":"Point","coordinates":[45.8376258687191,40.27038975026572,2157.301142507137]},"properties":{"name":"Əliyev Vahid"}},
{"type":"Feature","id":"0AC0226B0F35E89419CD","geometry":{"type":"Point","coordinates":[45.85138592884037,40.28788350235276,2324.641981737698]},"properties":{"name":"Kərəntiqırılan"}},
{"type":"Feature","id":"082DF2F02E35E894D6CA","geometry":{"type":"Point","coordinates":[45.85354328234276,40.2882675718545,2319.09811480925]},"properties":{"name":"Şorağanlı"}},
{"type":"Feature","id":"0ABBE9053435E895D763","geometry":{"type":"Point","coordinates":[45.86201311105815,40.29358261751698,2545.808559882554]},"properties":{"name":"Dam qaya"}},
{"type":"Feature","id":"0B4D2EE4B035E8974B31","geometry":{"type":"Point","coordinates":[45.83688387026096,40.2909745670826,2428.120973832507]},"properties":{"name":"Camışbatan"}},
{"type":"Feature","id":"0C66F6D2ED35E89CB29A","geometry":{"type":"Point","coordinates":[45.86053940482972,40.28767430985339,2383.162700650547]},"properties":{"name":"Çoban yolu"}},
{"type":"Feature","id":"08D5B57CEB35E89DDF59","geometry":{"type":"Point","coordinates":[45.85605722245688,40.30839425639589,2477.728045112975]},"properties":{"name":"Güləyən arvadın arxacı"}},
{"type":"Feature","id":"076D067C2435E89F67BC","geometry":{"type":"Point","coordinates":[45.85421544527983,40.30748267560315,2484.313639925243]},"properties":{"name":"Quşbazdının biçənəyi"}},
{"type":"Feature","id":"0C2D6DE00835E8A138C5","geometry":{"type":"Point","coordinates":[45.80216658231016,40.26108083996784,2036.514190477001]},"properties":{"name":"Qaraqoyunlu əkin yeri"}},
{"type":"Feature","id":"06BCC412F535E8A25D69","geometry":{"type":"Point","coordinates":[45.82197073113883,40.27163608476908,2135.803154791884]},"properties":{"name":"Əliquluəkən"}},
{"type":"Feature","id":"04E9F34B0735E8A39038","geometry":{"type":"Point","coordinates":[45.81416147712287,40.26870058937079,2085.085276174817]},"properties":{"name":"Kalafalar"}},
{"type":"Feature","id":"06E69C307735E8A51ECA","geometry":{"type":"Point","coordinates":[45.81850440871414,40.27616410537878,2161.009051258908]},"properties":{"name":"Həsənəkən"}},
{"type":"Feature","id":"0B5E5D42F535E8A5EAB6","geometry":{"type":"Point","coordinates":[45.82227381221819,40.27250282390528,2143.388536640166]},"properties":{"name":"Qədirəkən"}},
{"type":"Feature","id":"0114E4396E35E8A743B0","geometry":{"type":"Point","coordinates":[45.83230611631571,40.26354127137192,2096.953235586942]},"properties":{"name":"Tütün yeri"}},
{"type":"Feature","id":"0261709DF035E8A8ECD6","geometry":{"type":"Point","coordinates":[45.82863595977219,40.25969512005869,2093.21019020284]},"properties":{"name":"Babayeri"}},
{"type":"Feature","id":"0AC7EB45B735E8A975AE","geometry":{"type":"Point","coordinates":[45.82671515802124,40.25981074093807,2087.265090875142]},"properties":{"name":"Selov yeri"}},
{"type":"Feature","id":"0560C8A1D035E8AC18AD","geometry":{"type":"Point","coordinates":[45.82896673417516,40.27741342736373,2238.504130822701]},"properties":{"name":"Məşədi Əli əkən"}},
{"type":"Feature","id":"02A8C16DAB35E8ADDC9C","geometry":{"type":"Point","coordinates":[45.84411116019492,40.27632113546521,2188.441134283875]},"properties":{"name":"Abbasölən"}},
{"type":"Feature","id":"0DB7BCB96A35E8AE811F","geometry":{"type":"Point","coordinates":[45.84275717329642,40.28315357149184,2253.442069607733]},"properties":{"name":"Molla yeri"}},
{"type":"Feature","id":"012381DD4135E8AF8910","geometry":{"type":"Point","coordinates":[45.84432155441635,40.27472785682381,2158.702684041025]},"properties":{"name":"Temirəkən"}},
{"type":"Feature","id":"03CA4BB40D35E8B17834","geometry":{"type":"Point","coordinates":[45.845678201773,40.27520642486292,2170.048273121479]},"properties":{"name":"İsbiəkən"}},
{"type":"Feature","id":"07AB6CEB7B35E8B1F08F","geometry":{"type":"Point","coordinates":[45.84570615944198,40.27824513403391,2199.662245065083]},"properties":{"name":"Ağıllar (Kalvayıquluəkən)"}},
{"type":"Feature","id":"0C274F86CC35E8B2DBFD","geometry":{"type":"Point","coordinates":[45.85027167106661,40.28659381830138,2299.544761661552]},"properties":{"name":"Qurbanəkən"}},
{"type":"Feature","id":"022E60100835E8B465E3","geometry":{"type":"Point","coordinates":[45.84003606622471,40.2870211874154,2331.693468470297]},"properties":{"name":"Məşədikazımın dəmyəsi"}},
{"type":"Feature","id":"0F44ADEB4C35E8B54CBD","geometry":{"type":"Point","coordinates":[45.8518608120714,40.28665637631747,2292.753769457781]},"properties":{"name":"Hüseynəkən"}},
{"type":"Feature","id":"08F71973E135E8B6AFF1","geometry":{"type":"Point","coordinates":[45.8583008508003,40.28674637622525,2352.003269782748]},"properties":{"name":"Xırdalar"}},
{"type":"Feature","id":"0B1D90DB8435E8B80383","geometry":{"type":"Point","coordinates":[45.8640266459721,40.29015325300051,2441.124238437991]},"properties":{"name":"Tikanlıq"}},
{"type":"Feature","id":"0C7381D4FA35E8B92E4E","geometry":{"type":"Point","coordinates":[45.86323096346731,40.28587269136455,2369.940366178646]},"properties":{"name":"Taxta yeri (Dağ komunun yeri)"}},
{"type":"Feature","id":"0CBCDF590F35E8BA7725","geometry":{"type":"Point","coordinates":[45.85368949368536,40.27920590977139,2266.742693220272]},"properties":{"name":"Haça dəmyə"}},
{"type":"Feature","id":"0D1DF9415E35E8BB3EF5","geometry":{"type":"Point","coordinates":[45.83372369939465,40.26908372510577,2153.289779584319]},"properties":{"name":"İmanəkən"}},
{"type":"Feature","id":"094B388A3535E8BCA997","geometry":{"type":"Point","coordinates":[45.85837921476411,40.28544165298429,2372.46498272585]},"properties":{"name":"Qaraqırcıl dərəsi"}},
{"type":"Feature","id":"02DA521F4835E8C086E4","geometry":{"type":"Point","coordinates":[45.85666669456337,40.30886575632493,2468.479126878226]},"properties":{"name":"Namazvurulan qaya"}},
{"type":"Feature","id":"03C17474FD35E8C43852","geometry":{"type":"Point","coordinates":[45.85720212744624,40.28876139595547,2363.530437282052]},"properties":{"name":"Qartalqayası"}},
{"type":"Feature","id":"0D60B23DB535E8C5CA69","geometry":{"type":"Point","coordinates":[45.83881863078528,40.29012075112124,2392.174833358595]},"properties":{"name":"Abduləzimin arxacı"}},
{"type":"Feature","id":"006A35708335E8CB3DEF","geometry":{"type":"Point","coordinates":[45.86381821414871,40.28530975809183,2339.444217047858]},"properties":{"name":"Bayramqulunun suyu"}},
{"type":"Feature","id":"0D336988FA36445200ED","geometry":{"type":"Point","coordinates":[45.83833377788179,40.26508900760674,2122.078108678073]},"properties":{"name":"Namazova Samaya"}},
{"type":"Feature","id":"028AB2A5C2364452C119","geometry":{"type":"Point","coordinates":[45.8400343882481,40.26445489252979,2139.946860395228]},"properties":{"name":"Qoyun ferması"}},
{"type":"Feature","id":"062AAE82623644531F77","geometry":{"type":"Point","coordinates":[45.84105018090393,40.26503608950202,2147.513525822753]},"properties":{"name":"Qoyun ferması"}}
]}
