{"type":"FeatureCollection", "features":[
{"type":"Feature","id":"0B24B906CA358785EBFF","geometry":{"type":"Point","coordinates":[46.36755379540747,39.27713806278025,1056.569243680618]},"properties":{"01E1E719C3358785EC10":0,"name":"Çobanlı","extrude":true}},
{"type":"Feature","id":"0F079376BE35B0219978","geometry":{"type":"Point","coordinates":[46.36680462881134,39.27395835959603,988.509114758369]},"properties":{"name":"Çay Bağı"}},
{"type":"Feature","id":"05A98A5FF435B0224177","geometry":{"type":"Point","coordinates":[46.37067972270832,39.27390202001708,995.5156012297527]},"properties":{"name":"Səfər Parası"}},
{"type":"Feature","id":"055BDD94E835B0230591","geometry":{"type":"Point","coordinates":[46.36303304020017,39.276256385019,1003.29183524851]},"properties":{"name":"Şıxı Yeri"}},
{"type":"Feature","id":"0A14C9B87135B024D1E8","geometry":{"type":"Point","coordinates":[46.36936942080305,39.27684107643333,1040.179638069824]},"properties":{"name":"Qoz Dibi"}},
{"type":"Feature","id":"084184787535B025B747","geometry":{"type":"Point","coordinates":[46.37102299451134,39.278546387844,1079.768960103306]},"properties":{"name":"Çuxurbağ"}},
{"type":"Feature","id":"0CBDC8F3A235B026FB94","geometry":{"type":"Point","coordinates":[46.36885602111804,39.27784317627464,1068.810929245365]},"properties":{"name":"Arxaltı"}},
{"type":"Feature","id":"0B3DD0761935B0284EBB","geometry":{"type":"Point","coordinates":[46.3678948949323,39.27888096179317,1115.157540892099]},"properties":{"name":"Duzdux dərə"}},
{"type":"Feature","id":"0CDA90FE1035B029760D","geometry":{"type":"Point","coordinates":[46.36750591989626,39.28451542238572,1183.534106226479]},"properties":{"name":"Taxıs"}},
{"type":"Feature","id":"053F7FE83935B02C061D","geometry":{"type":"Point","coordinates":[46.37303197355413,39.27769540259265,1123.643284797015]},"properties":{"name":"Kar Qaya"}},
{"type":"Feature","id":"0D9CE9402B35B02C9479","geometry":{"type":"Point","coordinates":[46.37083739065595,39.2757545411839,1109.059523934834]},"properties":{"name":"Qızlar Çiməni"}},
{"type":"Feature","id":"042F4E979335B02D15FF","geometry":{"type":"Point","coordinates":[46.37172586125751,39.28174205955919,1113.466436905703]},"properties":{"name":"Cərgələr"}},
{"type":"Feature","id":"001B40978535B37DFA1F","geometry":{"type":"Point","coordinates":[46.36697801467778,39.27541430362074,1023.822981155124]},"properties":{"name":"İbrahimova Dilbər"}},
{"type":"Feature","id":"02A156896035B37EAAE4","geometry":{"type":"Point","coordinates":[46.36720943246849,39.2755507281282,1028.458935636774]},"properties":{"name":"Məmmədov Əmrah"}},
{"type":"Feature","id":"0A339D137535B37F05FE","geometry":{"type":"Point","coordinates":[46.36678697308799,39.27603557675613,1042.048878196977]},"properties":{"name":"Quluyev Əziz"}},
{"type":"Feature","id":"031AE4EAE535B37FD9D2","geometry":{"type":"Point","coordinates":[46.36820991752441,39.27637154466318,1046.434482809903]},"properties":{"name":"Qurbanova Sayad "}},
{"type":"Feature","id":"0A62368AF335B38108AB","geometry":{"type":"Point","coordinates":[46.36800381739025,39.27604888002413,1040.11507012035]},"properties":{"name":"Qurbanova Sənəm"}},
{"type":"Feature","id":"0045D74BEA35B381F361","geometry":{"type":"Point","coordinates":[46.3686387776828,39.27609330664193,1033.944194689305]},"properties":{"name":"Zeynalova Qanifest"}},
{"type":"Feature","id":"0EF9C1DF3035B3824465","geometry":{"type":"Point","coordinates":[46.36843387811533,39.27564553626772,1026.823113079611]},"properties":{"name":"Aşurov Hüsü"}},
{"type":"Feature","id":"0C5F269C6E35B383AC9D","geometry":{"type":"Point","coordinates":[46.36824650313729,39.27566280320162,1028.378545139209]},"properties":{"name":"Abdullayev Nüsrət"}},
{"type":"Feature","id":"088AC3708935B3840AE9","geometry":{"type":"Point","coordinates":[46.36835913729719,39.27502625971762,1013.341507976089]},"properties":{"name":"Fərzəliyev Şahsuvar"}},
{"type":"Feature","id":"0243A3405435B384B19E","geometry":{"type":"Point","coordinates":[46.36813656556229,39.27507714586623,1014.854337314919]},"properties":{"name":"Həsənova Gülxanım"}}
]}
