{"type":"FeatureCollection", "features":[
{"type":"Feature","id":"31BBE19E5C3404C0465F","geometry":{"type":"Point","coordinates":[45.92256128450641,39.4339202933059,0]},"properties":{"name":"Comərdli","visibility":false}},
{"type":"Feature","id":"1CEA959DCF63404C0465F","geometry":{"type":"Point","coordinates":[45.92121845235545,39.43408514864998,0]},"properties":{"name":"Baxşəliyev Məcid"}},
{"type":"Feature","id":"1D0AC0963EE3404C0465F","geometry":{"type":"Point","coordinates":[45.92275069860095,39.43403083898176,0]},"properties":{"name":"Fərzəliyev Oruc"}},
{"type":"Feature","id":"1E49825F61F3404C0465F","geometry":{"type":"Point","coordinates":[45.92249644816814,39.43379675007674,0]},"properties":{"name":"Məmişov Əvəz"}},
{"type":"Feature","id":"1FD64AE59193404C0465F","geometry":{"type":"Point","coordinates":[45.92230360611044,39.43406262796589,0]},"properties":{"name":"Mustafayev Bəhrəm"}},
{"type":"Feature","id":"202D71852433404C0465F","geometry":{"type":"Point","coordinates":[45.9223441632305,39.43453547335456,0]},"properties":{"name":"Şirəliyev Mütəllim"}},
{"type":"Feature","id":"21D23DFA1BA3404C0465F","geometry":{"type":"Point","coordinates":[45.92201389879166,39.43440011315074,0]},"properties":{"name":"Abbasov Əbdül"}},
{"type":"Feature","id":"22608C89DCF3404C0465F","geometry":{"type":"Point","coordinates":[45.9217590048129,39.43422543840915,0]},"properties":{"name":"Məmişov Nəsrəddin"}},
{"type":"Feature","id":"2373A9349643404C0465F","geometry":{"type":"Point","coordinates":[45.92159036992754,39.43390552665007,0]},"properties":{"name":"Baxşəliyev Əli"}},
{"type":"Feature","id":"24C4B5F2F343404C0465F","geometry":{"type":"Point","coordinates":[45.92139551316794,39.43431958226613,0]},"properties":{"name":"Muxtarov Xeyrullah"}},
{"type":"Feature","id":"250944323603404C0465F","geometry":{"type":"Point","coordinates":[45.9219685506485,39.43468115127786,0]},"properties":{"name":"Əliyev Muxtar"}},
{"type":"Feature","id":"263C70623053404C0465F","geometry":{"type":"Point","coordinates":[45.92252370209356,39.43502378976881,0]},"properties":{"name":"Kərimov Əli"}},
{"type":"Feature","id":"27D70DD20B93404C0465F","geometry":{"type":"Point","coordinates":[45.92258036543798,39.43532050183325,0]},"properties":{"name":"Məktəb"}},
{"type":"Feature","id":"289496BAF8E3404C0465F","geometry":{"type":"Point","coordinates":[45.92310961415572,39.43557462552766,0]},"properties":{"name":"Tövlə-1"}},
{"type":"Feature","id":"292BF26DAFD3404C0465F","geometry":{"type":"Point","coordinates":[45.92358936637088,39.43594571989892,0]},"properties":{"name":"Tövlə-2"}},
{"type":"Feature","id":"2A03CB587943404C0465F","geometry":{"type":"Point","coordinates":[45.92431386941779,39.43610375507578,0]},"properties":{"name":"Tövlə-3"}},
{"type":"Feature","id":"2C9CF63AC913404C0465F","geometry":{"type":"Point","coordinates":[45.92166522556495,39.43492103891921,0]},"properties":{"name":"İbrahimov Həmdullah"}},
{"type":"Feature","id":"2DAB23D85833404C0465F","geometry":{"type":"Point","coordinates":[45.92105383144722,39.43453277133411,0]},"properties":{"name":"Baxşəliyev Sultan"}},
{"type":"Feature","id":"2E93FD5D51A3404C0465F","geometry":{"type":"Point","coordinates":[45.92060516363367,39.43423337046122,0]},"properties":{"name":"Hüseynov Möhübbət"}},
{"type":"Feature","id":"07547304863404C044BA","geometry":{"type":"Point","coordinates":[45.92044022032498,39.43373197839922,0]},"properties":{"name":"Rüstəmov Cəmil"}},
{"type":"Feature","id":"2FB3B9C5ADD3404C0465F","geometry":{"type":"Point","coordinates":[45.92031929753445,39.43433273941476,0]},"properties":{"name":"Maqsudov Telman"}},
{"type":"Feature","id":"30E50D4DF943404C0465F","geometry":{"type":"Point","coordinates":[45.92065745037217,39.43477035704908,0]},"properties":{"name":"Məmişov Ayaz"}},
{"type":"Feature","id":"31928819E7C3404C0465F","geometry":{"type":"Point","coordinates":[45.92097987027765,39.4348539100575,0]},"properties":{"name":"Fərəcov Məhəmməd"}},
{"type":"Feature","id":"322448E6B053404C0465F","geometry":{"type":"Point","coordinates":[45.92153530443108,39.43503044034067,0]},"properties":{"name":"Ağamalıyev Bayram"}},
{"type":"Feature","id":"0E1FA522163404C04660","geometry":{"type":"Point","coordinates":[45.92206093425245,39.43525919612202,0]},"properties":{"name":"İsmayılov İsrafil"}},
{"type":"Feature","id":"17EFA26FA13404C04660","geometry":{"type":"Point","coordinates":[45.92133130866712,39.43526449505354,0]},"properties":{"name":"Məmişova Gülövşə"}},
{"type":"Feature","id":"2C845272A53404C04660","geometry":{"type":"Point","coordinates":[45.92122497443461,39.43541021824807,0]},"properties":{"name":"Klub"}},
{"type":"Feature","id":"392E5615783404C04660","geometry":{"type":"Point","coordinates":[45.92090056185355,39.43539910851441,0]},"properties":{"name":"Dükan"}},
{"type":"Feature","id":"46397200623404C04660","geometry":{"type":"Point","coordinates":[45.92068119654794,39.43505059184073,0]},"properties":{"name":"Əliyev Əbdüləli"}},
{"type":"Feature","id":"54F2A5FB333404C04660","geometry":{"type":"Point","coordinates":[45.92020439206401,39.43497099060605,0]},"properties":{"name":"İsmayıl Qasımov"}},
{"type":"Feature","id":"682CA37A9C3404C04660","geometry":{"type":"Point","coordinates":[45.92012949208301,39.43469749785591,0]},"properties":{"name":"Muxtarov Abbas"}},
{"type":"Feature","id":"7A11CEB4D13404C04660","geometry":{"type":"Point","coordinates":[45.92187067280386,39.4357165137431,0]},"properties":{"name":"Təpə"}},
{"type":"Feature","id":"851C56DA963404C04660","geometry":{"type":"Point","coordinates":[45.91960634588915,39.4347252195552,2.009840413484207]},"properties":{"name":"Muxtarov Salman","altitudeMode":"relativeToGround"}},
{"type":"Feature","id":"947FB5CABD3404C04660","geometry":{"type":"Point","coordinates":[45.91932293406698,39.43456873748379,0]},"properties":{"name":"Quliyev Mehdi"}},
{"type":"Feature","id":"AC25BB9C423404C04660","geometry":{"type":"Point","coordinates":[45.91900572112947,39.43450599712406,0]},"properties":{"name":"Mehdiyev Əhməd"}},
{"type":"Feature","id":"BA6EE6BB553404C04660","geometry":{"type":"Point","coordinates":[45.92056553307634,39.4353200734898,0]},"properties":{"name":"Abbasov Hüseyn"}},
{"type":"Feature","id":"CCC71A5B7F3404C04660","geometry":{"type":"Point","coordinates":[45.92001149011499,39.43521248546623,0]},"properties":{"name":"Məscid"}},
{"type":"Feature","id":"DA81EAE65C3404C04660","geometry":{"type":"Point","coordinates":[45.91973024982484,39.43533086623555,0]},"properties":{"name":"Niftəliyev Əliş"}},
{"type":"Feature","id":"EE9A0FD2863404C04660","geometry":{"type":"Point","coordinates":[45.91949334499546,39.43498712424961,0]},"properties":{"name":"Eylazov Məşi"}},
{"type":"Feature","id":"F513F6724E3404C04660","geometry":{"type":"Point","coordinates":[45.91904842998239,39.4351337533931,0]},"properties":{"name":"İsmayıl Quliyev"}},
{"type":"Feature","id":"10C526BCAFB3404C04660","geometry":{"type":"Point","coordinates":[45.91914666006454,39.43483726940335,0]},"properties":{"name":"Əliyev Əli"}},
{"type":"Feature","id":"1186F2A72C33404C04660","geometry":{"type":"Point","coordinates":[45.91932318725291,39.43534166424236,0]},"properties":{"name":"Səlimov Səlim"}},
{"type":"Feature","id":"12C1B303F9A3404C04660","geometry":{"type":"Point","coordinates":[45.91866771862381,39.43401217431963,0]},"properties":{"name":"Mehdiyev Kərəm"}},
{"type":"Feature","id":"13B78B374BC3404C04660","geometry":{"type":"Point","coordinates":[45.91864039271256,39.43378378382416,0]},"properties":{"name":"Cəbiyev Fərəc"}},
{"type":"Feature","id":"142FC50F3823404C04660","geometry":{"type":"Point","coordinates":[45.91865340898439,39.43353517091579,0]},"properties":{"name":"Hüseynov Hüsü"}},
{"type":"Feature","id":"157D9D9B3BC3404C04660","geometry":{"type":"Point","coordinates":[45.9186763219312,39.4332798101474,0]},"properties":{"name":"Abbasov Şəmil"}},
{"type":"Feature","id":"16A7EF5E0213404C04660","geometry":{"type":"Point","coordinates":[45.91913438081734,39.43350956423809,0]},"properties":{"name":"Rüstəmov Şükür"}},
{"type":"Feature","id":"17C4533ED963404C04660","geometry":{"type":"Point","coordinates":[45.92092374114829,39.43517867048558,0]},"properties":{"name":"1918-ci ilin avqustuna qədər Əlirza Əliyev. 1923-cü ildən.Sadıqov Hüseyn"}},
{"type":"Feature","id":"21402198F8E3404C04660","geometry":{"type":"Point","coordinates":[45.9055322195093,39.42769638839656,0]},"properties":{"name":"Səlim gədiyi"}},
{"type":"Feature","id":"22B55B8D4993404C04660","geometry":{"type":"Point","coordinates":[45.89195460212999,39.43461033055544,0]},"properties":{"name":"Baş yurd","altitudeMode":"absolute"}},
{"type":"Feature","id":"4E5C91A342B3404C04660","geometry":{"type":"Point","coordinates":[49.45361946122033,40.67377474210873,0]},"properties":{"name":"Düker"}},
{"type":"Feature","id":"11A62E303633404C04661","geometry":{"type":"Point","coordinates":[45.98668649840288,39.40708329766345,0]},"properties":{"name":"2600 m"}},
{"type":"Feature","id":"120C4188D053404C04661","geometry":{"type":"Point","coordinates":[45.94252727396145,39.39161801670605,0]},"properties":{"name":"2845 m"}},
{"type":"Feature","id":"133C6BF932A3404C04661","geometry":{"type":"Point","coordinates":[45.9467317911514,39.40284700307335,0]},"properties":{"name":"2500 m"}},
{"type":"Feature","id":"229779F872F3404C04661","geometry":{"type":"Point","coordinates":[45.84033510544528,39.45827881643014,0]},"properties":{"name":"Salvartı dağı"}},
{"type":"Feature","id":"249F30F2DB03404C04661","geometry":{"type":"Point","coordinates":[46.08579374700084,39.51886618373653,0]},"properties":{"name":"Ağdü kəndinin üst tərəfində əkin sahəsi"}},
{"type":"Feature","id":"25436D78A433404C04661","geometry":{"type":"Point","coordinates":[45.9172552931425,39.42895940179936,0]},"properties":{"name":"Çaldaş"}},
{"type":"Feature","id":"267F88FFCAE3404C04661","geometry":{"type":"Point","coordinates":[45.91842598388275,39.42624866706799,0]},"properties":{"name":"Ağıl daşı"}},
{"type":"Feature","id":"2706C98BB023404C04661","geometry":{"type":"Point","coordinates":[45.91962770895302,39.42885433308373,0]},"properties":{"name":"Mahmud bulağı"}},
{"type":"Feature","id":"28051A79BE93404C04661","geometry":{"type":"Point","coordinates":[45.92101913184007,39.43034620451825,0]},"properties":{"name":"Sarı bulaq"}},
{"type":"Feature","id":"296274EADAC3404C04661","geometry":{"type":"Point","coordinates":[45.92106482468733,39.42884050723904,0]},"properties":{"name":"İmmi nənə bulağı"}},
{"type":"Feature","id":"2A17F3FEA1D3404C04661","geometry":{"type":"Point","coordinates":[45.92356711664096,39.42734269975902,0]},"properties":{"name":"Behbudalı yurdu"}},
{"type":"Feature","id":"2BC49266CB23404C04661","geometry":{"type":"Point","coordinates":[45.92463380322279,39.42650193551319,0]},"properties":{"name":"Camışuçan yalı"}},
{"type":"Feature","id":"2C2965698693404C04661","geometry":{"type":"Point","coordinates":[45.92196605295619,39.42594346046418,0]},"properties":{"name":"Lənət daşı"}},
{"type":"Feature","id":"2D355FF2E303404C04661","geometry":{"type":"Point","coordinates":[45.92070083270676,39.42308675647353,0]},"properties":{"name":"Daş təpə"}},
{"type":"Feature","id":"2EC0895B8F53404C04661","geometry":{"type":"Point","coordinates":[45.92311759573003,39.42327540860006,0]},"properties":{"name":"Məhərrəm dərəsi"}},
{"type":"Feature","id":"2F4627DCA473404C04661","geometry":{"type":"Point","coordinates":[45.91369016255689,39.42512159458023,0]},"properties":{"name":"İlanlı güney"}},
{"type":"Feature","id":"303304445A23404C04661","geometry":{"type":"Point","coordinates":[45.91593054988287,39.42157683997297,0]},"properties":{"name":"Sərpin çalası"}},
{"type":"Feature","id":"31457D9D6103404C04661","geometry":{"type":"Point","coordinates":[45.91312030567835,39.41919990407067,0]},"properties":{"name":"Quru dərə"}},
{"type":"Feature","id":"32C6A5EF7633404C04661","geometry":{"type":"Point","coordinates":[45.91777177064658,39.41979837789631,0]},"properties":{"name":"Alapaxta dərəsi"}},
{"type":"Feature","id":"330EB7AFC513404C04661","geometry":{"type":"Point","coordinates":[45.90668926059212,39.42126920524969,0]},"properties":{"name":"Qoyun dağılan dağı"}},
{"type":"Feature","id":"3488EDC1E723404C04661","geometry":{"type":"Point","coordinates":[45.91196197582987,39.42310323678578,0]},"properties":{"name":"Fərzalı yatağı"}},
{"type":"Feature","id":"357357579D63404C04661","geometry":{"type":"Point","coordinates":[45.90982843710404,39.42269067436558,0]},"properties":{"name":"Qoyun dağılan bulağı"}},
{"type":"Feature","id":"364A0D4D46E3404C04661","geometry":{"type":"Point","coordinates":[45.90270832785733,39.42160310237203,0]},"properties":{"name":"Mərdanlı güneyi"}},
{"type":"Feature","id":"372F466A98D3404C04661","geometry":{"type":"Point","coordinates":[45.90329678759794,39.42511139407716,0]},"properties":{"name":"Arxac"}},
{"type":"Feature","id":"385B1EE2EC63404C04661","geometry":{"type":"Point","coordinates":[45.89425352809192,39.42566678967934,0]},"properties":{"name":"Bədəlxan dağı"}},
{"type":"Feature","id":"394BA2AE0E53404C04661","geometry":{"type":"Point","coordinates":[45.87866708653885,39.43810432436057,0]},"properties":{"name":"Qaraxan gölü"}},
{"type":"Feature","id":"3A5009E7D603404C04661","geometry":{"type":"Point","coordinates":[45.88752367921329,39.4347574216011,0]},"properties":{"name":"Qoşnalı qayası"}},
{"type":"Feature","id":"3B1DF72C4283404C04661","geometry":{"type":"Point","coordinates":[45.88298184750455,39.4481748714567,0]},"properties":{"name":"Çətəndaş"}},
{"type":"Feature","id":"3C91DFE3FB73404C04661","geometry":{"type":"Point","coordinates":[45.87736340090489,39.44521099330053,0]},"properties":{"name":"Meydanlar"}},
{"type":"Feature","id":"3DFA3F129D03404C04661","geometry":{"type":"Point","coordinates":[45.87413510659818,39.43817289721159,0]},"properties":{"name":"Qarakilsə ferması"}},
{"type":"Feature","id":"3E329D552413404C04661","geometry":{"type":"Point","coordinates":[45.87587124573103,39.44029937587889,0]},"properties":{"name":"Binə"}},
{"type":"Feature","id":"3F613A3188F3404C04661","geometry":{"type":"Point","coordinates":[45.90081903143385,39.43754824286122,0]},"properties":{"name":"Dik yurd"}},
{"type":"Feature","id":"405A16610333404C04661","geometry":{"type":"Point","coordinates":[45.89692710169313,39.44152041283107,0]},"properties":{"name":"Zəyrək yeri"}},
{"type":"Feature","id":"41B8AD409CD3404C04661","geometry":{"type":"Point","coordinates":[45.89526069201618,39.43806476143054,0]},"properties":{"name":"Dərviş görməz"}},
{"type":"Feature","id":"4261BC43D923404C04661","geometry":{"type":"Point","coordinates":[45.89907171310123,39.43617861336961,0]},"properties":{"name":"Palantökən"}},
{"type":"Feature","id":"434C6A1FB5A3404C04661","geometry":{"type":"Point","coordinates":[45.89493320586773,39.43054614588708,0]},"properties":{"name":"Arxaşan"}},
{"type":"Feature","id":"449898E10CE3404C04661","geometry":{"type":"Point","coordinates":[45.92226547855958,39.43615121257702,0]},"properties":{"name":"Pişik oynağı"}},
{"type":"Feature","id":"45DA68B4B3E3404C04661","geometry":{"type":"Point","coordinates":[45.9223791450519,39.43654540845039,0]},"properties":{"name":"Xınalı qaya"}},
{"type":"Feature","id":"4666F83DCFC3404C04661","geometry":{"type":"Point","coordinates":[45.93093066207201,39.44238129761331,0]},"properties":{"name":"Daş təpə"}},
{"type":"Feature","id":"4772FD4C5D83404C04661","geometry":{"type":"Point","coordinates":[45.93338656072741,39.44002110069485,0]},"properties":{"name":"Vənni dərə"}},
{"type":"Feature","id":"488BF22CC083404C04661","geometry":{"type":"Point","coordinates":[45.93523017735229,39.43813437692289,0]},"properties":{"name":"Arılıq"}},
{"type":"Feature","id":"49F4E8A91A13404C04661","geometry":{"type":"Point","coordinates":[45.93549240799891,39.44199560289408,0]},"properties":{"name":"Qaraquş dərəsi"}},
{"type":"Feature","id":"4AA0591614E3404C04661","geometry":{"type":"Point","coordinates":[45.92668087618586,39.44887976818151,0]},"properties":{"name":"Əhməd yoxuşu"}},
{"type":"Feature","id":"4B3D5D751B23404C04661","geometry":{"type":"Point","coordinates":[45.9400250561529,39.43589365293202,0]},"properties":{"name":"Fezinin dəyirmanı"}},
{"type":"Feature","id":"4C15453D4CC3404C04661","geometry":{"type":"Point","coordinates":[45.94713215354604,39.43880885545512,0]},"properties":{"name":"Gablar"}},
{"type":"Feature","id":"4DFFD1BE2643404C04661","geometry":{"type":"Point","coordinates":[45.94753170543457,39.43765154223541,0]},"properties":{"name":"Taxta körpü"}},
{"type":"Feature","id":"4E351D38F1E3404C04661","geometry":{"type":"Point","coordinates":[45.9460400007844,39.43714611384889,0]},"properties":{"name":"Zabazadur xarabalığı"}},
{"type":"Feature","id":"4FC3E9794263404C04661","geometry":{"type":"Point","coordinates":[45.93728806948193,39.43405155981144,0]},"properties":{"name":"Cəfərqulu dərəsi"}},
{"type":"Feature","id":"501DD01C8603404C04661","geometry":{"type":"Point","coordinates":[45.93947653566335,39.43045598080811,0]},"properties":{"name":"Pişpişənlik"}},
{"type":"Feature","id":"54343146E1E3404C04661","geometry":{"type":"Point","coordinates":[45.88292815053262,39.4416740979853,0]},"properties":{"name":"Sənək bulağı"}},
{"type":"Feature","id":"5589034F6303404C04661","geometry":{"type":"Point","coordinates":[45.88112214305972,39.43520599084214,0]},"properties":{"name":"Sarı yataq"}},
{"type":"Feature","id":"56B44DA454F3404C04661","geometry":{"type":"Point","coordinates":[45.84592762517244,39.46099727188732,0]},"properties":{"name":"Salvartı bulağı"}},
{"type":"Feature","id":"57D5898C0473404C04661","geometry":{"type":"Point","coordinates":[45.90022131691078,39.43004562082723,0]},"properties":{"name":"Qaranquş qayası"}},
{"type":"Feature","id":"0D02C71EF43404CFE928","geometry":{"type":"Point","coordinates":[45.92197486838252,39.43502006406128,1964.511675135092]},"properties":{"073A84E5723404CFEAAD":0,"name":"Kərimov Məmmədhəsən","extrude":true}},
{"type":"Feature","id":"0DE01DB30F340516FCAF","geometry":{"type":"Point","coordinates":[45.91952181326359,39.42999910670594,2026.110905422805]},"properties":{"name":"Comərdli"}}
]}
