{"type":"FeatureCollection", "features":[
{"type":"Feature","id":"0112DC00F035B8AEAFBF","geometry":{"type":"Point","coordinates":[46.50881909797482,39.24510825231525,1098.416440697488]},"properties":{"073D86C8E235B8AEAFE4":0,"name":"Cıbıllı","extrude":true}},
{"type":"Feature","id":"01D830F35035B92E0DE8","geometry":{"type":"Point","coordinates":[46.50867619413887,39.24400177295465,1099.81429155517]},"properties":{"name":"Bəhmən Bayramov"}},
{"type":"Feature","id":"0929305BE535B930A6A7","geometry":{"type":"Point","coordinates":[46.51040171394157,39.24392615217094,1112.539644407182]},"properties":{"name":"Ənvər İsmayılov"}},
{"type":"Feature","id":"08A484283435B9357DD6","geometry":{"type":"Point","coordinates":[46.50874819419017,39.24357857429331,1097.036935549121]},"properties":{"name":"Xudabağış Rəhimov"}},
{"type":"Feature","id":"0996E3DF9135B939F440","geometry":{"type":"Point","coordinates":[46.50977137193264,39.2435533601442,1107.529318734265]},"properties":{"name":"Sahib Məmmədov"}},
{"type":"Feature","id":"072E08826935B93EC4BB","geometry":{"type":"Point","coordinates":[46.51064557870173,39.24441111954154,1119.851024476993]},"properties":{"name":"Rəşid Xanməmmədov"}},
{"type":"Feature","id":"0E629888D635B9407495","geometry":{"type":"Point","coordinates":[46.5104840673126,39.24458272292937,1118.090764281823]},"properties":{"name":"Babış Əhmədov"}},
{"type":"Feature","id":"095E89953F35B941650A","geometry":{"type":"Point","coordinates":[46.51033739112576,39.24480673026891,1117.100971695721]},"properties":{"name":"Əhməd Əhmədov"}},
{"type":"Feature","id":"0FDF4D5D0235B942CAA1","geometry":{"type":"Point","coordinates":[46.51000103626809,39.24469384113008,1110.337234535219]},"properties":{"name":"İsmixan İsmayılov"}},
{"type":"Feature","id":"07A5689FFC35B943AFD8","geometry":{"type":"Point","coordinates":[46.51106347347882,39.24479660919979,1131.438542642454]},"properties":{"name":"Çiçək İmanova"}},
{"type":"Feature","id":"00540C5C6D35B945F74E","geometry":{"type":"Point","coordinates":[46.51142521365355,39.24496398347783,1140.452036477093]},"properties":{"name":"Məhəmməd Əhmədov"}},
{"type":"Feature","id":"051A1C1FBE35B9488222","geometry":{"type":"Point","coordinates":[46.50959648114385,39.2447936443116,1106.027894037602]},"properties":{"name":"Pirim İsmayılov"}},
{"type":"Feature","id":"018EF366C735B94CCFE1","geometry":{"type":"Point","coordinates":[46.50914016168461,39.2447871145605,1102.288806296494]},"properties":{"name":"Fərrux Bayramov"}},
{"type":"Feature","id":"08C68AD26E35B94EC130","geometry":{"type":"Point","coordinates":[46.50923285491076,39.24497024684451,1105.527941855541]},"properties":{"name":"Əvəz Məmmədov"}},
{"type":"Feature","id":"099AAB1D1835B957123A","geometry":{"type":"Point","coordinates":[46.50944832655576,39.24288051226881,1081.537752497068]},"properties":{"name":"İstixana"}},
{"type":"Feature","id":"024C898DC335B95B314F","geometry":{"type":"Point","coordinates":[46.50974828949106,39.24378755248526,1099.579084917547]},"properties":{"name":"Yasın Bayramov"}},
{"type":"Feature","id":"0D9EDADB8135B95CBF0E","geometry":{"type":"Point","coordinates":[46.51046607647493,39.24428067323772,1115.994526099258]},"properties":{"name":"Xankalam Məmmədov"}},
{"type":"Feature","id":"02B26648A635B95FCDAB","geometry":{"type":"Point","coordinates":[46.50965064526081,39.2441062465444,1101.305734337124]},"properties":{"name":"Afərim Bayramova"}},
{"type":"Feature","id":"04A2A1F79E35B9618584","geometry":{"type":"Point","coordinates":[46.5093571149281,39.24465907419548,1102.245324955996]},"properties":{"name":"Nov- Bulaq"}},
{"type":"Feature","id":"080024C0D735B9642AE7","geometry":{"type":"Point","coordinates":[46.50894735759388,39.24465478186956,1098.991298469806]},"properties":{"name":"Ziliş Bayramov"}},
{"type":"Feature","id":"03DB460E4635B971A26B","geometry":{"type":"Point","coordinates":[46.50927737681749,39.24446396808291,1099.722895868293]},"properties":{"name":"İslam Rəhimov"}},
{"type":"Feature","id":"0F5F1945B435B974FA80","geometry":{"type":"Point","coordinates":[46.50902278442732,39.24385103024662,1090.372664825683]},"properties":{"name":"Kərəm Rəhimov"}},
{"type":"Feature","id":"0B222B07C435B977311E","geometry":{"type":"Point","coordinates":[46.50877834129976,39.2445656412506,1095.488870754867]},"properties":{"name":"Hümbət Əhmədov"}},
{"type":"Feature","id":"0CE7AC1E3635B979010B","geometry":{"type":"Point","coordinates":[46.50848366653915,39.24467842167281,1093.318137442277]},"properties":{"name":"Mağaza"}},
{"type":"Feature","id":"0F83E648AA35B979CB0B","geometry":{"type":"Point","coordinates":[46.50835813384958,39.24481261029666,1093.40101600364]},"properties":{"name":"Tapdıq Quluyev"}},
{"type":"Feature","id":"07A9C0B45535B97DD3BE","geometry":{"type":"Point","coordinates":[46.50811801594352,39.2455052172588,1095.896377654501]},"properties":{"name":"Əli Quluyev"}},
{"type":"Feature","id":"0EF692727D35B980FDF1","geometry":{"type":"Point","coordinates":[46.50846152860548,39.24448398278292,1091.484074803916]},"properties":{"name":"Bəhlul İsmayılov"}},
{"type":"Feature","id":"07BB5518EA35B982E3BC","geometry":{"type":"Point","coordinates":[46.50821344934842,39.24405455030487,1084.725129691302]},"properties":{"name":"Sarı Quluyev"}},
{"type":"Feature","id":"09519F5E2A35B9841F15","geometry":{"type":"Point","coordinates":[46.50805953198824,39.24462759211131,1089.10629439062]},"properties":{"name":"Məhəmməd Quluyev"}},
{"type":"Feature","id":"0B669FDB7035B9850B84","geometry":{"type":"Point","coordinates":[46.50799845674197,39.24449383915331,1087.698447386865]},"properties":{"name":"Əlif Quluyev"}},
{"type":"Feature","id":"0819ECD48535B986076F","geometry":{"type":"Point","coordinates":[46.50839171392128,39.24435049215521,1089.348214522319]},"properties":{"name":"Qurban Alıyev"}},
{"type":"Feature","id":"09002160AD35B9871155","geometry":{"type":"Point","coordinates":[46.50823713407776,39.24438138584988,1088.486520498959]},"properties":{"name":"Əmir Alıyev"}},
{"type":"Feature","id":"014EA686F235B987FFD6","geometry":{"type":"Point","coordinates":[46.50790059282475,39.24432817769272,1084.919385616167]},"properties":{"name":"Məhiş Alıyev"}},
{"type":"Feature","id":"002A37B51F35B989E773","geometry":{"type":"Point","coordinates":[46.5073959996364,39.24409250676476,1078.866454209269]},"properties":{"name":"Fikrət Məmmədov"}},
{"type":"Feature","id":"0A0C88757335B98AA41D","geometry":{"type":"Point","coordinates":[46.50742580750246,39.24402133447485,1078.866441239772]},"properties":{"name":"Həsənxan Məmmədov"}},
{"type":"Feature","id":"0EB451ECAD35B98CD7BC","geometry":{"type":"Point","coordinates":[46.50750927211608,39.24399033688859,1077.91093443016]},"properties":{"name":"Hacı Məmmədov"}},
{"type":"Feature","id":"000DFD395F35B9A24D9D","geometry":{"type":"Point","coordinates":[46.51040580755238,39.24488139780294,1118.637087377933]},"properties":{"name":"Köhnə Qəbristanlıq"}},
{"type":"Feature","id":"0AACCC687035B9A3A960","geometry":{"type":"Point","coordinates":[46.50806570421248,39.24771391792263,1129.675798720799]},"properties":{"name":"Yeni qəbristanlıq (Dağıdılıb)"}},
{"type":"Feature","id":"0B1741675A35B9A9097C","geometry":{"type":"Point","coordinates":[46.52409817514209,39.25556877994205,1152.099623752656]},"properties":{"name":"Qədim Almalıq Kəndi"}},
{"type":"Feature","id":"0906303D8135B9AC3AD8","geometry":{"type":"Point","coordinates":[46.5077776086651,39.24239998720342,1063.370933011377]},"properties":{"name":"Alban kilsəsi-Pir"}},
{"type":"Feature","id":"036B24397535B9B1171B","geometry":{"type":"Point","coordinates":[46.50594386820276,39.24376464373674,1057.027204700071]},"properties":{"name":"Motal Yeri"}},
{"type":"Feature","id":"04FA3A1FE835B9B38AF6","geometry":{"type":"Point","coordinates":[46.50786487255063,39.24286525172558,1064.683397768434]},"properties":{"name":"Cəvizlik"}},
{"type":"Feature","id":"0156CD0EE235B9B4FEF0","geometry":{"type":"Point","coordinates":[46.51167702101262,39.24153675434066,1127.686892731616]},"properties":{"name":"Nazaralı Bağı"}},
{"type":"Feature","id":"0E27581CFF35B9B63481","geometry":{"type":"Point","coordinates":[46.50727758231008,39.24188571276065,1068.482606168016]},"properties":{"name":"Ximic"}},
{"type":"Feature","id":"052F6A544235B9B82186","geometry":{"type":"Point","coordinates":[46.51176947874619,39.24411550679319,1150.047620956381]},"properties":{"name":"Bəyməmməd yeri"}},
{"type":"Feature","id":"0D7AF39A3B35B9B97D9E","geometry":{"type":"Point","coordinates":[46.50914539985627,39.24625030649454,1122.591376687413]},"properties":{"name":"Daşlı zəmi"}},
{"type":"Feature","id":"04AB9736F235B9BBB25A","geometry":{"type":"Point","coordinates":[46.5132978835374,39.2477285027231,1240.70922378409]},"properties":{"name":"Öküz yatağı"}},
{"type":"Feature","id":"09E2D66AEA35B9BD5FDB","geometry":{"type":"Point","coordinates":[46.51498907026595,39.24404662437723,1254.459364285011]},"properties":{"name":"İmmi qaçan yalı"}},
{"type":"Feature","id":"0F777ABF8B35B9BE42F8","geometry":{"type":"Point","coordinates":[46.51655673511569,39.24410301013895,1258.038445433573]},"properties":{"name":"Kömür yeri"}},
{"type":"Feature","id":"0B5018EA1E35B9BF21BB","geometry":{"type":"Point","coordinates":[46.51394868386775,39.24427782134195,1229.241424563925]},"properties":{"name":"Fındıqlıq"}},
{"type":"Feature","id":"00F21EBADD35B9C06DBF","geometry":{"type":"Point","coordinates":[46.51245979687453,39.24569053336077,1170.390335911352]},"properties":{"name":"Dəhnə-bulaq"}},
{"type":"Feature","id":"02199279A035B9C191F0","geometry":{"type":"Point","coordinates":[46.51400788570991,39.24661225896523,1219.34621614769]},"properties":{"name":"Bayram Çeşməsi"}},
{"type":"Feature","id":"0B0C2C63B635B9C33A2C","geometry":{"type":"Point","coordinates":[46.51580976137724,39.24739487637277,1280.363952807744]},"properties":{"name":"Bulaq"}},
{"type":"Feature","id":"07A762CE1F35B9C582C1","geometry":{"type":"Point","coordinates":[46.50853550902395,39.24503689359665,1096.935502991272]},"properties":{"name":"Bulaq"}},
{"type":"Feature","id":"0859E332BF35B9C8BD05","geometry":{"type":"Point","coordinates":[46.51645443170165,39.24269027126618,1258.420401705013]},"properties":{"name":"Hüseyin Bulağı"}},
{"type":"Feature","id":"0F6960D4FF35B9CC3D10","geometry":{"type":"Point","coordinates":[46.51807789634455,39.24890073537785,1329.873322501414]},"properties":{"name":"Nazaralının meşə arası"}},
{"type":"Feature","id":"094A14FB9735B9CD6399","geometry":{"type":"Point","coordinates":[46.51122406850794,39.2493424695416,1176.676757619558]},"properties":{"name":"Qaranlıq dərə"}},
{"type":"Feature","id":"086A78C6AE35B9CF07FD","geometry":{"type":"Point","coordinates":[46.50953122580372,39.25382187347275,1254.062202653944]},"properties":{"name":"Düzdər"}},
{"type":"Feature","id":"037010944F35B9CFB5F1","geometry":{"type":"Point","coordinates":[46.50960014328642,39.25089236647284,1199.497040318073]},"properties":{"name":"Kahalar"}},
{"type":"Feature","id":"09E2558CE535B9D0F237","geometry":{"type":"Point","coordinates":[46.51267391836948,39.25133446379157,1215.41418347034]},"properties":{"name":"Gülməmmədölən bulağı"}},
{"type":"Feature","id":"06F624181135B9D26C81","geometry":{"type":"Point","coordinates":[46.50969381486352,39.25842544453287,1296.565341197632]},"properties":{"name":"Böyük yer"}},
{"type":"Feature","id":"0BEFE2FC6D35B9D317FA","geometry":{"type":"Point","coordinates":[46.50809545833609,39.2585222282455,1301.043151972137]},"properties":{"name":"Payız yurdları"}},
{"type":"Feature","id":"09A3A7F1AA35B9D4200F","geometry":{"type":"Point","coordinates":[46.5075905032975,39.25950890542212,1319.10333918862]},"properties":{"name":"Samolyot düşən yer"}},
{"type":"Feature","id":"0A9750B41F35B9D5570F","geometry":{"type":"Point","coordinates":[46.50877767978979,39.26124280041019,1337.861088315182]},"properties":{"name":"Qalaq Daş"}},
{"type":"Feature","id":"0F3E48877235B9D6F256","geometry":{"type":"Point","coordinates":[46.50546419110848,39.26359998368231,1302.427927431309]},"properties":{"name":"Kırmın dərəsi"}},
{"type":"Feature","id":"0AE2B5EDD835B9D9676E","geometry":{"type":"Point","coordinates":[46.50300253678792,39.25777254679172,1254.35641013276]},"properties":{"name":"Hətəm daşı"}},
{"type":"Feature","id":"033E98616B35B9DB58F2","geometry":{"type":"Point","coordinates":[46.50591489325149,39.25773529060479,1259.629711360428]},"properties":{"name":"Çömçə bulaq"}},
{"type":"Feature","id":"0D017060CB35B9DD90BB","geometry":{"type":"Point","coordinates":[46.50423753321822,39.26359819286618,1300.788789031667]},"properties":{"name":"Bulaq"}},
{"type":"Feature","id":"0F8E090DA435B9DED05A","geometry":{"type":"Point","coordinates":[46.51206441086431,39.25643590791564,1274.928224869294]},"properties":{"name":"Baş bulaq"}},
{"type":"Feature","id":"0627BFAB2835B9E0087E","geometry":{"type":"Point","coordinates":[46.51830957432553,39.26130952341967,1457.295973918166]},"properties":{"name":"Kəmərə"}},
{"type":"Feature","id":"08DD6CBF0935B9E0F1EC","geometry":{"type":"Point","coordinates":[46.51621316425469,39.25492175310715,1233.32706787597]},"properties":{"name":"Həcər bulağı"}},
{"type":"Feature","id":"01BF4102E035B9E2A569","geometry":{"type":"Point","coordinates":[46.52044016400571,39.25382628846268,1194.511335593302]},"properties":{"name":"Durba bulaq(ulasın dibi)"}},
{"type":"Feature","id":"0110C9372F35B9E40E3D","geometry":{"type":"Point","coordinates":[46.52501046956343,39.25491058784447,1147.47067616033]},"properties":{"name":"İsti bulaq"}},
{"type":"Feature","id":"007729057835B9E997FA","geometry":{"type":"Point","coordinates":[46.54160646237716,39.2545828634109,1049.547296276397]},"properties":{"name":"Hacıqurbanlı yurdu"}},
{"type":"Feature","id":"09A547D9CB35B9EC3554","geometry":{"type":"Point","coordinates":[46.52343841010992,39.25309347473045,1176.601917417179]},"properties":{"name":"Hüseyin yeri"}},
{"type":"Feature","id":"0814B2310A35B9F87DB0","geometry":{"type":"Point","coordinates":[46.50449800105092,39.24568914332571,1049.72839434714]},"properties":{"name":"Səfəralı bağı"}},
{"type":"Feature","id":"02F07D882035B9FAA3B6","geometry":{"type":"Point","coordinates":[46.5055176701113,39.24569551048275,1067.613527453673]},"properties":{"name":"Səfəralının kalafaları"}},
{"type":"Feature","id":"0C444BA1E835BA0131E7","geometry":{"type":"Point","coordinates":[46.5167636334219,39.24263480518372,1258.216971345329]},"properties":{"name":"Hüseyin yeri"}},
{"type":"Feature","id":"0677B0102E35BA024115","geometry":{"type":"Point","coordinates":[46.51383860703467,39.2406750031997,1188.626890785505]},"properties":{"name":"Marfuzlu yurdları"}},
{"type":"Feature","id":"041ACD040535BA034F56","geometry":{"type":"Point","coordinates":[46.51318582545321,39.24106143583301,1167.807450993944]},"properties":{"name":"Muradxan yeri"}},
{"type":"Feature","id":"08B0876F5235BA0696A2","geometry":{"type":"Point","coordinates":[46.51066987437643,39.2404428154835,1132.280212873691]},"properties":{"name":"Əsədullahın yeri"}},
{"type":"Feature","id":"0B46D24D4635BA081226","geometry":{"type":"Point","coordinates":[46.51376624097141,39.23864126178765,1180.702088599586]},"properties":{"name":"Qurdlu bulaq"}},
{"type":"Feature","id":"0D4B8557F235BA08B889","geometry":{"type":"Point","coordinates":[46.51154258705869,39.23795608317087,1133.407347698737]},"properties":{"name":"Xuduşun yeri"}},
{"type":"Feature","id":"0A2AE67A1635BA09EC5D","geometry":{"type":"Point","coordinates":[46.50984716222566,39.23851034770495,1093.368349712392]},"properties":{"name":"Qaşıq bulaq"}},
{"type":"Feature","id":"0167C21F5B35BA0A97C6","geometry":{"type":"Point","coordinates":[46.51120121104334,39.23651423982793,1137.259788607398]},"properties":{"name":"Eynal yeri"}},
{"type":"Feature","id":"0803CABB0335BA0B5E95","geometry":{"type":"Point","coordinates":[46.51129955601718,39.23291025931918,1178.562675364877]},"properties":{"name":"Armudların boğazı"}},
{"type":"Feature","id":"0724E1E4F635BA0D4462","geometry":{"type":"Point","coordinates":[46.52374472198369,39.2452356674162,1300.198137806333]},"properties":{"name":"Dəli su"}},
{"type":"Feature","id":"0CB2961D2535BA0EE0B3","geometry":{"type":"Point","coordinates":[46.52281729016468,39.24532573378772,1294.493736430508]},"properties":{"name":"Əbilcə biçənəyi"}},
{"type":"Feature","id":"0A9CD4EFEA35BA10D538","geometry":{"type":"Point","coordinates":[46.52015530793468,39.25500532517648,1182.532853324723]},"properties":{"name":"Almalıq  qəbristanlığı"}},
{"type":"Feature","id":"046EBD0A3035BA124E41","geometry":{"type":"Point","coordinates":[46.52573014631513,39.2545201559143,1147.389556865619]},"properties":{"name":"Şirin armudun yeri"}},
{"type":"Feature","id":"0455107ABC35BA1449B9","geometry":{"type":"Point","coordinates":[46.51545747034416,39.2565920031344,1195.800184664098]},"properties":{"name":"Çuxur zəmi"}},
{"type":"Feature","id":"02333E6C1035BA155B4D","geometry":{"type":"Point","coordinates":[46.52223335130302,39.25591759403055,1200.960017209682]},"properties":{"name":"Fındıqlıq"}},
{"type":"Feature","id":"01D5E344F835BA165C49","geometry":{"type":"Point","coordinates":[46.52194371023788,39.25474550823569,1172.054307747816]},"properties":{"name":"Nadirin yeri"}},
{"type":"Feature","id":"0567A60A2D35BA1E8471","geometry":{"type":"Point","coordinates":[46.50671695609586,39.27226762805346,1604.578231604836]},"properties":{"name":"C-300 Raket bazası"}}
]}
