{"type":"FeatureCollection", "features":[
{"type":"Feature","id":"0AF07736D035AE4FB39C","geometry":{"type":"Point","coordinates":[46.12865176550773,39.22563878445746,1639.353866765053]},"properties":{"0281BD1EC635AE4FB3C0":0,"name":"Mahmudlu-Çaykənd","extrude":true}},
{"type":"Feature","id":"0B0335802C35AE51B13D","geometry":{"type":"Point","coordinates":[46.10926094564115,39.2362886072009,1785.56169324399]},"properties":{"02354A7F5935AE51B162":0,"name":"Keypəşin","extrude":true}},
{"type":"Feature","id":"07BED9109D35AE529041","geometry":{"type":"Point","coordinates":[46.11218232956558,39.23454811545454,1760.720408402301]},"properties":{"060E90B99735AE52906C":0,"name":"Mahmudov Cəbrayıl","extrude":true}},
{"type":"Feature","id":"005AB3450B35AE541456","geometry":{"type":"Point","coordinates":[46.10967050680172,39.23618831723207,1777.025772174875]},"properties":{"0970E5BF4A35AE54147B":0,"name":"Əsədov Xudabaxış","extrude":true}},
{"type":"Feature","id":"04120D38CB35AE548A63","geometry":{"type":"Point","coordinates":[46.10950835433361,39.23641639051336,1773.430304295223]},"properties":{"0ECD84750A35AE548A90":0,"name":"Əsədov Məhəmməd","extrude":true}},
{"type":"Feature","id":"04E655948635AE54DA05","geometry":{"type":"Point","coordinates":[46.10947723641888,39.23646836281446,1772.801536708466]},"properties":{"0AAF3C0F6C35AE54DA2F":0,"name":"Əsədov Hümmət","extrude":true}},
{"type":"Feature","id":"0C9BE80F6C35AE55689F","geometry":{"type":"Point","coordinates":[46.10933442716671,39.2366124299184,1772.026454343737]},"properties":{"02CB0B4EA435AE5568CD":0,"name":"Əsədov Xasay","extrude":true}},
{"type":"Feature","id":"0CDF1EDF5135AE55C60F","geometry":{"type":"Point","coordinates":[46.10936861691106,39.23673732282188,1767.047622696697]},"properties":{"01A20F06FF35AE55C632":0,"name":"Əsədov Təhməz","extrude":true}},
{"type":"Feature","id":"010F2968ED35AE562CE0","geometry":{"type":"Point","coordinates":[46.10913288601853,39.23671149883943,1773.462669110751]},"properties":{"04A6CB7E7A35AE562D08":0,"name":"Əsədov İsrafil","extrude":true}},
{"type":"Feature","id":"0F296FAEB235AE56CA83","geometry":{"type":"Point","coordinates":[46.10998899669552,39.23637925588937,1762.329520475194]},"properties":{"02700EC93A35AE56CAA6":0,"name":"Niftalıyev Şahsuvar","extrude":true}},
{"type":"Feature","id":"078BA407F235AE5739DC","geometry":{"type":"Point","coordinates":[46.10992379523079,39.23653120349861,1761.31074796786]},"properties":{"03F55020E635AE573A00":0,"name":"Baxşəliyev Famil","extrude":true}},
{"type":"Feature","id":"050BA4BC2835AE5784EE","geometry":{"type":"Point","coordinates":[46.10980015076102,39.23678659660487,1758.294515024576]},"properties":{"0DB8D6837A35AE57850F":0,"name":"Mahmudov İsmayıl","extrude":true}},
{"type":"Feature","id":"06C22FEC7835AE57EE9E","geometry":{"type":"Point","coordinates":[46.1089378219752,39.23740834244893,1762.306702643556]},"properties":{"0A9646C4D635AE57EEC5":0,"name":"Mahmudov Mövəcət","extrude":true}},
{"type":"Feature","id":"0ED4A8010335AE587502","geometry":{"type":"Point","coordinates":[46.10895717324383,39.23723460729991,1763.578879181845]},"properties":{"09E050768D35AE587521":0,"name":"Niftəliyev Vaqif","extrude":true}},
{"type":"Feature","id":"0B7AC3B1CE35AE59085D","geometry":{"type":"Point","coordinates":[46.10878016185337,39.23718519439518,1767.337437671016]},"properties":{"0AE312C0A235AE590882":0,"name":"Kərimov Şirin","extrude":true}},
{"type":"Feature","id":"0A8FA54C0035AE59566F","geometry":{"type":"Point","coordinates":[46.10867372160453,39.23707741061153,1770.600496319421]},"properties":{"0FCB990E4035AE595696":0,"name":"Qarayev Tofiq","extrude":true}},
{"type":"Feature","id":"041BC6190035AE5A01C0","geometry":{"type":"Point","coordinates":[46.108618560335,39.23730366524045,1769.184313405197]},"properties":{"0C6C8C17ED35AE5A01E2":0,"name":"Qafarov Kamil","extrude":true}},
{"type":"Feature","id":"08AB3645F135AE5ACAF3","geometry":{"type":"Point","coordinates":[46.10818281669741,39.23850307503336,1771.354079985266]},"properties":{"075227A3E135AE5ACB19":0,"name":"Səmədov İsa","extrude":true}},
{"type":"Feature","id":"028A2EBBCD35AE5B4ECF","geometry":{"type":"Point","coordinates":[46.10844462864561,39.23772968845699,1766.796945590092]},"properties":{"0C2D5E9B4035AE5B4EF2":0,"name":"Mahmudov Yaqub","extrude":true}},
{"type":"Feature","id":"038F3DF3AB35AE5B9F8F","geometry":{"type":"Point","coordinates":[46.10852309322108,39.23767104233421,1765.808389444885]},"properties":{"0E583EDF7A35AE5B9FB8":0,"name":"Mahmudov Mikayıl","extrude":true}},
{"type":"Feature","id":"0282A5FE8035AE5C15AA","geometry":{"type":"Point","coordinates":[46.10963204601941,39.2378299486297,1757.46264561325]},"properties":{"0A44DD4FCE35AE5C15CC":0,"name":"Niftalıyev Süleyman","extrude":true}},
{"type":"Feature","id":"05EEF9D9C735AE5C6AD6","geometry":{"type":"Point","coordinates":[46.10941341311371,39.23801588794866,1758.611343019872]},"properties":{"035C9D349435AE5C6AFB":0,"name":"Niftalıyev Ənvər","extrude":true}},
{"type":"Feature","id":"0521F9718A35AE5CBD97","geometry":{"type":"Point","coordinates":[46.10935767627609,39.23808940271779,1758.875956222537]},"properties":{"0636DBDACF35AE5CBDC0":0,"name":"Niftalıyev Fəti","extrude":true}},
{"type":"Feature","id":"0DECCC562235AE5D918A","geometry":{"type":"Point","coordinates":[46.10988072711619,39.23794860805426,1762.057482430995]},"properties":{"092F71D0C135AE5D91B8":0,"name":"Xanlarov Bərxudar","extrude":true}},
{"type":"Feature","id":"086C7E44A935AE5E3669","geometry":{"type":"Point","coordinates":[46.1096906347699,39.23823551860141,1761.336544582191]},"properties":{"013FC7858035AE5E368C":0,"name":"Niftalıyev Xansuvar","extrude":true}},
{"type":"Feature","id":"07798820B735AE5FC1DB","geometry":{"type":"Point","coordinates":[46.11077689488845,39.23799990883941,1783.508435725318]},"properties":{"08E8CB39B835AE5FC206":0,"name":"Kərimov Kərim","extrude":true}},
{"type":"Feature","id":"0229A8450835AE6028CD","geometry":{"type":"Point","coordinates":[46.11047640129232,39.23847304709073,1784.463813817488]},"properties":{"0873F5C48B35AE6028F7":0,"name":"Paşayev Vəliş","extrude":true}},
{"type":"Feature","id":"0E9E73E80D35AE614EED","geometry":{"type":"Point","coordinates":[46.11013662101897,39.23961323745719,1787.697528757924]},"properties":{"089AD8B32035AE614F16":0,"name":"Hətəmov Murtuz","extrude":true}},
{"type":"Feature","id":"0EFA065AFB35AE61B302","geometry":{"type":"Point","coordinates":[46.11011839088678,39.23892621264991,1779.529697092837]},"properties":{"05CF1F4DAB35AE61B32C":0,"name":"Paşayev Xeybər","extrude":true}},
{"type":"Feature","id":"0DB763673335AE621ED7","geometry":{"type":"Point","coordinates":[46.11043887684504,39.23907754653755,1789.528234100364]},"properties":{"085C4E4A6435AE621EFB":0,"name":"Xanlarov Hüsü","extrude":true}},
{"type":"Feature","id":"066E88FD3035AE6293EB","geometry":{"type":"Point","coordinates":[46.10956560508113,39.23945795395382,1776.746998275253]},"properties":{"0BCE97C04D35AE62941A":0,"name":"Kərimov Əbülfəz","extrude":true}},
{"type":"Feature","id":"0F82D0986235AE6447AA","geometry":{"type":"Point","coordinates":[46.10992104524306,39.23836981032674,1767.699930943837]},"properties":{"04E322B5A835AE6447CF":0,"name":"Xanlarov Məhyəddin","extrude":true}},
{"type":"Feature","id":"0B8DE0DBD735AE64CFF4","geometry":{"type":"Point","coordinates":[46.10972098960845,39.23867805096329,1767.809912139908]},"properties":{"0BBCD01C6435AE64D01C":0,"name":"Xanlarov Nurəli","extrude":true}},
{"type":"Feature","id":"03CBA9FD5E35AE654014","geometry":{"type":"Point","coordinates":[46.10958203146239,39.23879645514495,1767.123744092373]},"properties":{"038F00DB9C35AE65403D":0,"name":"Xanlarov Nəsib","extrude":true}},
{"type":"Feature","id":"0AD3CB6FBF35AE658CD9","geometry":{"type":"Point","coordinates":[46.10942655717199,39.23894905697931,1767.785944586736]},"properties":{"02090CFF1D35AE658D06":0,"name":"Xanlarov Xanlar","extrude":true}},
{"type":"Feature","id":"04E05A0F0635AE66084F","geometry":{"type":"Point","coordinates":[46.1093838745165,39.23858849656351,1766.335492775606]},"properties":{"0412981DFD35AE660870":0,"name":"Xanlarov Eynul","extrude":true}},
{"type":"Feature","id":"083541714E35AE66F0E6","geometry":{"type":"Point","coordinates":[46.10941526059161,39.23851039569713,1761.726175456999]},"properties":{"055CAE7CF335AE66F10A":0,"name":"Ağayev Bəhlul","extrude":true}},
{"type":"Feature","id":"0224E029F935AE68131C","geometry":{"type":"Point","coordinates":[46.10933258897305,39.23865145792568,1763.255627395491]},"properties":{"070779A17E35AE68133F":0,"name":"Xanlarov Bakir","extrude":true}},
{"type":"Feature","id":"0C5C82665235AE68FE71","geometry":{"type":"Point","coordinates":[46.10910987095544,39.23840810858717,1758.713254543716]},"properties":{"0D3238C40135AE68FE94":0,"name":"Mahmudov Hamlet","extrude":true}},
{"type":"Feature","id":"072C2C4C9F35AE69CAB5","geometry":{"type":"Point","coordinates":[46.10932018252223,39.23908992069495,1768.297743705028]},"properties":{"0CA358667A35AE69CAD8":0,"name":"Paşayev Həbib","extrude":true}},
{"type":"Feature","id":"0BD61851A835AE6AE990","geometry":{"type":"Point","coordinates":[46.10902091501087,39.23898836711241,1773.167196555725]},"properties":{"0C74C52B6435AE6AE9B4":0,"name":"Paşayev Nazim","extrude":true}},
{"type":"Feature","id":"0CAE5332C435AE6BB029","geometry":{"type":"Point","coordinates":[46.10909498050211,39.23902486377054,1765.453937364588]},"properties":{"093FB37F5035AE6BB04A":0,"name":"Paşayev Bəhlul","extrude":true}},
{"type":"Feature","id":"07E8DC844935AE6E4ADB","geometry":{"type":"Point","coordinates":[46.10961541729792,39.23974286656217,1776.292667046954]},"properties":{"02BF89F38C35AE6E4AFE":0,"name":"Babayev Rüstəm","extrude":true}},
{"type":"Feature","id":"07BB3153BE35AE6FB0DA","geometry":{"type":"Point","coordinates":[46.10909123796102,39.23959336893613,1769.075523573666]},"properties":{"03C2770FAE35AE6FB0FB":0,"name":"Tağıyev Cəmil","extrude":true}},
{"type":"Feature","id":"0B7DBD520135AE6FFCB5","geometry":{"type":"Point","coordinates":[46.10897155496777,39.2394541806408,1770.204396000022]},"properties":{"0BB1073FB135AE6FFCDD":0,"name":"Tağıyev Fəxrəddin","extrude":true}},
{"type":"Feature","id":"0D0584346C35AE706F70","geometry":{"type":"Point","coordinates":[46.1092653172381,39.23924412981171,1768.850251568959]},"properties":{"016F0BFC1A35AE706F93":0,"name":"Tağıyev Tapdıq","extrude":true}},
{"type":"Feature","id":"0D4C18361335AE70D514","geometry":{"type":"Point","coordinates":[46.10872327413221,39.23945107132629,1766.668536142802]},"properties":{"0A050CC7FC35AE70D53B":0,"name":"Qafarov Savalan","extrude":true}},
{"type":"Feature","id":"0F8BE4B32035AE725734","geometry":{"type":"Point","coordinates":[46.10859501769241,39.23964940524618,1767.335155056605]},"properties":{"025372990B35AE725746":0,"name":"Mahmudov Mürvət","extrude":true}},
{"type":"Feature","id":"0BAC191DB435AE72C444","geometry":{"type":"Point","coordinates":[46.10868403660132,39.23964368378433,1767.295320740508]},"properties":{"00BAE5EA1F35AE72C452":0,"name":"Niftalıyev Lətif","extrude":true}},
{"type":"Feature","id":"0AA218172835AE737A0F","geometry":{"type":"Point","coordinates":[46.10862044167006,39.23981865691118,1768.069631254681]},"properties":{"073F751DAB35AE737A1D":0,"name":"Baxşəliyev Muxtar","extrude":true}},
{"type":"Feature","id":"03B7B7602335AE7412F3","geometry":{"type":"Point","coordinates":[46.10895701765639,39.23974844573659,1768.329638350843]},"properties":{"0591FF257A35AE741305":0,"name":"Baxşəliyev Qüdrət","extrude":true}},
{"type":"Feature","id":"0DF3ED5CAC35AE748D6E","geometry":{"type":"Point","coordinates":[46.10910102647915,39.23983746376418,1770.931477522525]},"properties":{"06268A0BBC35AE748D7D":0,"name":"Paşayev Məhəmməd","extrude":true}},
{"type":"Feature","id":"0C497701F435AE759CC1","geometry":{"type":"Point","coordinates":[46.10882514306071,39.24012430693558,1770.5261576099]},"properties":{"03D3561FFC35AE759CD1":0,"name":"Xanlarov Seyfəddin","extrude":true}},
{"type":"Feature","id":"07AB2E72CE35AE76877D","geometry":{"type":"Point","coordinates":[46.10897339066622,39.23998919016262,1770.610620540688]},"properties":{"039F89DDE835AE768797":0,"name":"Fərəcova Nabat","extrude":true}},
{"type":"Feature","id":"02A2FE792035AE7A2FD6","geometry":{"type":"Point","coordinates":[46.10869773131313,39.24106313173335,1777.231475039893]},"properties":{"0B9E8AFA8035AE7A2FE5":0,"name":"Niftaliyev Məzahir","extrude":true}},
{"type":"Feature","id":"09D251574435AE7B680C","geometry":{"type":"Point","coordinates":[46.10911327354751,39.24123550649882,1785.20053629473]},"properties":{"0C8E15926A35AE7B681D":0,"name":"Hətəmov Məhəmməd","extrude":true}},
{"type":"Feature","id":"060C54D0BC35AE7BC54A","geometry":{"type":"Point","coordinates":[46.10921095150164,39.24107635162779,1785.709900705519]},"properties":{"08C5B5EAE935AE7BC566":0,"name":"Abbasov Zakir","extrude":true}},
{"type":"Feature","id":"05F04F78A335AE7C5489","geometry":{"type":"Point","coordinates":[46.10930646465442,39.2408603295224,1784.812664303204]},"properties":{"0E14092BD835AE7C549D":0,"name":"Həsənov Ələmqulu","extrude":true}},
{"type":"Feature","id":"02E88836EC35AE7D06F0","geometry":{"type":"Point","coordinates":[46.10943844915714,39.24074563470765,1785.844012410939]},"properties":{"0DA6DFFC2B35AE7D06FE":0,"name":"Xanlarov Əziz","extrude":true}},
{"type":"Feature","id":"0543E1F16435AE7DDC94","geometry":{"type":"Point","coordinates":[46.10923742787225,39.24055032669775,1779.582240801123]},"properties":{"012472D5BD35AE7DDCAB":0,"name":"Niftalıyev Qəbil","extrude":true}},
{"type":"Feature","id":"0CF0F2A2FC35AE7E4EB8","geometry":{"type":"Point","coordinates":[46.10930051143069,39.24043618767458,1779.070358067208]},"properties":{"019780D1C735AE7E4EC9":0,"name":"Baxşəliyev Əvəz","extrude":true}},
{"type":"Feature","id":"0D9F43564735AE7EAE1C","geometry":{"type":"Point","coordinates":[46.10943398206837,39.24019429854437,1778.76963032397]},"properties":{"0ABB63051135AE7EAE2A":0,"name":"Əmirov Abbas","extrude":true}},
{"type":"Feature","id":"029D72F73E35AE7F4636","geometry":{"type":"Point","coordinates":[46.10948165350867,39.24006154534299,1777.9852980501]},"properties":{"04A19C7BDD35AE7F4645":0,"name":"Əmirov Cəmaləddin","extrude":true}},
{"type":"Feature","id":"09F0FEE69535AE7FB049","geometry":{"type":"Point","coordinates":[46.10954154713558,39.23988356262882,1776.888990293724]},"properties":{"059021EF0F35AE7FB05D":0,"name":"Paşayev Qaraş","extrude":true}},
{"type":"Feature","id":"048C9BF2B835AE8015FB","geometry":{"type":"Point","coordinates":[46.10940218552698,39.24001951318143,1776.517755580251]},"properties":{"05EDA4353F35AE801611":0,"name":"Əmirov Nəsrəddin","extrude":true}},
{"type":"Feature","id":"073AF4BCCC35AE809B55","geometry":{"type":"Point","coordinates":[46.10911380842177,39.24024840688845,1774.653371027188]},"properties":{"0E0A6B9E7835AE809B6C":0,"name":"Tağıyev Səlim","extrude":true}},
{"type":"Feature","id":"0B6F5E7F4435AE810F3C","geometry":{"type":"Point","coordinates":[46.10952728855661,39.23993658135365,1777.281046120621]},"properties":{"0E7540189A35AE810F55":0,"name":"Paşayev Ələşrəf","extrude":true}},
{"type":"Feature","id":"000678E85B35AE818B99","geometry":{"type":"Point","coordinates":[46.10965755712316,39.23966536383893,1776.413442546456]},"properties":{"0D048BEABF35AE818BAB":0,"name":"Babayev Hüsaməddin","extrude":true}},
{"type":"Feature","id":"02C491694335AE822D67","geometry":{"type":"Point","coordinates":[46.11018251810126,39.23946688954647,1786.967275135365]},"properties":{"08D3427BC135AE822D7C":0,"name":"Hətəmov Mətləb","extrude":true}},
{"type":"Feature","id":"0B3299668835AE82B2C0","geometry":{"type":"Point","coordinates":[46.11027794147535,39.23862495647742,1778.940789950733]},"properties":{"0D04EB9B4F35AE82B2D3":0,"name":"Paşayev Əmir","extrude":true}},
{"type":"Feature","id":"0399E15C0935AE833DC4","geometry":{"type":"Point","coordinates":[46.11001456063829,39.23827334764415,1768.468587726563]},"properties":{"0C5A3E35E735AE833DD6":0,"name":"Xanlarov Rafiq","extrude":true}},
{"type":"Feature","id":"034A5AB6AC35AE83D8AA","geometry":{"type":"Point","coordinates":[46.11012469540906,39.2381340806777,1768.492131086095]},"properties":{"0FE5DFCCC935AE83D8BC":0,"name":"Baxşəliyev Qəhrəman","extrude":true}},
{"type":"Feature","id":"00BBEE4A3535AE84A126","geometry":{"type":"Point","coordinates":[46.10977598558793,39.23817116731417,1762.566905327591]},"properties":{"0101DF6AD435AE84A142":0,"name":"Niftalıyev Ədil","extrude":true}},
{"type":"Feature","id":"045F4D274A35AE854473","geometry":{"type":"Point","coordinates":[46.10944292611126,39.23841285561615,1760.764143219499]},"properties":{"0A8371AB0735AE85448D":0,"name":"Ağayev Mübariz","extrude":true}},
{"type":"Feature","id":"028A61076435AE8618BA","geometry":{"type":"Point","coordinates":[46.10895758665914,39.23733369931119,1762.61412834803]},"properties":{"0D4B2077ED35AE8618D0":0,"name":"Mahmudov Dadaş","extrude":true}},
{"type":"Feature","id":"0CC03D8D5E35AE8723FD","geometry":{"type":"Point","coordinates":[46.10851760406437,39.23762664395369,1766.635327263161]},"properties":{"0E2E5C09D435AE87240B":0,"name":"Mahmudov Əlövsət","extrude":true}},
{"type":"Feature","id":"0147B2E4D435AE87E5D3","geometry":{"type":"Point","coordinates":[46.10888601162117,39.2403560634411,1772.120445795838]},"properties":{"07319FB83335AE87E5EA":0,"name":"Mağaza","extrude":true}},
{"type":"Feature","id":"02B278916B35AE885D90","geometry":{"type":"Point","coordinates":[46.10807857521338,39.24284346672101,1784.357086652249]},"properties":{"00465F878735AE885DA4":0,"name":"Məktəb","extrude":true}},
{"type":"Feature","id":"0DE16C6F2235AEE8AC64","geometry":{"type":"Point","coordinates":[46.10632311305503,39.23746226902762,1832.573710064495]},"properties":{"08F9EF6F5335AEE8AC79":0,"name":"Gilaslı dərə","extrude":true}},
{"type":"Feature","id":"0479881B9B35AEE901E4","geometry":{"type":"Point","coordinates":[46.10472988565103,39.24018647966558,1933.85522185037]},"properties":{"0CB6041BBC35AEE901F7":0,"name":"Toğulluq","extrude":true}},
{"type":"Feature","id":"0FD83046E535AEE955D0","geometry":{"type":"Point","coordinates":[46.1059376170357,39.23921362915269,1877.72608792843]},"properties":{"074B4D178535AEE955DF":0,"name":"Qumlugəz","extrude":true}},
{"type":"Feature","id":"077FBA266835AEE9C9F9","geometry":{"type":"Point","coordinates":[46.10434217004996,39.23849805025547,1909.335535386524]},"properties":{"02808612AE35AEE9CA0A":0,"name":"Dərəqarnı","extrude":true}},
{"type":"Feature","id":"027868752935AEEA8D4E","geometry":{"type":"Point","coordinates":[46.10375916314122,39.23834764378753,1905.119148731774]},"properties":{"0F9DB9EA8435AEEA8D5E":0,"name":"Qəcəlzəmi","extrude":true}},
{"type":"Feature","id":"0C9F5CE71935AEEADA24","geometry":{"type":"Point","coordinates":[46.10365557444836,39.23786844943782,1933.176368414967]},"properties":{"07DF097A3435AEEADA47":0,"name":"Əvranoynağı","extrude":true}},
{"type":"Feature","id":"07D481A7A935AEEB7B6D","geometry":{"type":"Point","coordinates":[46.10204760261576,39.23553451278367,2059.991282028926]},"properties":{"072884E97635AEEB7B82":0,"name":"İmamqulu yalı","extrude":true}},
{"type":"Feature","id":"0EEBD24B1B35AEEBE29F","geometry":{"type":"Point","coordinates":[46.10118522385827,39.23391213140589,2026.267924451936]},"properties":{"01B9F051D135AEEBE2B4":0,"name":"Qovaxlar","extrude":true}},
{"type":"Feature","id":"071EE17DBA35AEED6127","geometry":{"type":"Point","coordinates":[46.0921389787548,39.23614276423292,2298.006039365176]},"properties":{"042D7F7DF235AEED613B":0,"name":"Məmmədölən","extrude":true}},
{"type":"Feature","id":"0652B8C91235AEEEB309","geometry":{"type":"Point","coordinates":[46.0985009929972,39.23999577588571,2053.222136135689]},"properties":{"00C74A849D35AEEEB324":0,"name":"Nəbiyurdu","extrude":true}},
{"type":"Feature","id":"09815CEADB35AEEEF99E","geometry":{"type":"Point","coordinates":[46.09483901930614,39.24248010674828,2250.723329630219]},"properties":{"044B27E81535AEEEF9B6":0,"name":"Toxmaq","extrude":true}},
{"type":"Feature","id":"0C953E931535AEEF981A","geometry":{"type":"Point","coordinates":[46.09008476868594,39.24141317291618,2342.874550681548]},"properties":{"0F5D91074535AEEF982D":0,"name":"Təkpalıd","extrude":true}},
{"type":"Feature","id":"0BA545325135AEF002D6","geometry":{"type":"Point","coordinates":[46.08866157108115,39.24073409535097,2378.831016017723]},"properties":{"090817471835AEF002ED":0,"name":"Kalbılar","extrude":true}},
{"type":"Feature","id":"0259398C1235AEF07C04","geometry":{"type":"Point","coordinates":[46.08278984570595,39.23756191401902,2576.095383412022]},"properties":{"02D7A58FC635AEF07C1F":0,"name":"Yalyurd","extrude":true}},
{"type":"Feature","id":"009BDA2A6435AEF1599B","geometry":{"type":"Point","coordinates":[46.11047572055951,39.23711614021045,1757.974357781593]},"properties":{"086DF351FE35AEF159AE":0,"name":"Qəbristanlıq (Dağıdılıb)","extrude":true}},
{"type":"Feature","id":"0A1433322935AEF20F06","geometry":{"type":"Point","coordinates":[46.10689564166594,39.24354346504653,1795.655757846265]},"properties":{"0EC8E8836535AEF20F1A":0,"name":"Qəbristanlıq (Dağıdılıb)","extrude":true}},
{"type":"Feature","id":"0CD1CC5DED35AEF33AD0","geometry":{"type":"Point","coordinates":[46.10378061216245,39.2390748333551,1913.184752321388]},"properties":{"04A97751BD35AEF33AEB":0,"name":"Qədim türk qəbristanlığı","extrude":true}},
{"type":"Feature","id":"0E9F403D9A35AEF463F1","geometry":{"type":"Point","coordinates":[46.0986130310776,39.2284838979105,2051.428060599696]},"properties":{"0F6F2DD71135AEF46401":0,"name":"Qədim qəbristanlıq (Dağıdılıb)","extrude":true}},
{"type":"Feature","id":"0C63DF11D935AEF64DAE","geometry":{"type":"Point","coordinates":[46.09985865474673,39.22894854707603,1987.773064009158]},"properties":{"0DD1440DC335AEF64DC6":0,"name":"Dəyirman yeri","extrude":true}},
{"type":"Feature","id":"0FFE786319361A5A87A0","geometry":{"type":"Point","coordinates":[46.14018135079697,39.2278122495925,1590.314831802522]},"properties":{"09CB170EE9361A5A87E3":0,"name":"Gığı sovxozu","extrude":true}},
{"type":"Feature","id":"093C539E32361A5F2C3B","geometry":{"type":"Point","coordinates":[46.12598861954154,39.22497836235141,1654.952266711608]},"properties":{"05EC07B2B8361A5F2C7B":0,"name":"Ağçux","extrude":true}},
{"type":"Feature","id":"0D2C758800361A5F8666","geometry":{"type":"Point","coordinates":[46.12652897717398,39.22489498948854,1651.627153110704]},"properties":{"02381C99FC361A5F86A0":0,"name":"Sarıqaya","extrude":true}},
{"type":"Feature","id":"0FEB853974361A5FF182","geometry":{"type":"Point","coordinates":[46.12657103135707,39.22543562230807,1641.267592207258]},"properties":{"01900EC7C6361A5FF1BF":0,"name":"Quliyev Qardaşxan","extrude":true}},
{"type":"Feature","id":"0A1C02B60A361A607B7B","geometry":{"type":"Point","coordinates":[46.12750795679143,39.22543171136933,1644.075931611942]},"properties":{"077DC6CAC7361A607BB2":0,"name":"Bayramov Vilayət","extrude":true}},
{"type":"Feature","id":"0052101676361A612ECD","geometry":{"type":"Point","coordinates":[46.12750209194792,39.2254961071112,1641.990874289727]},"properties":{"0B4E29143B361A612F03":0,"name":"Bayramov Şamxal","extrude":true}},
{"type":"Feature","id":"04F96F91AD361A627DAB","geometry":{"type":"Point","coordinates":[46.12781888425749,39.22573118568654,1636.179734513526]},"properties":{"012E40F349361A627DED":0,"name":"Bayramov Allahyar","extrude":true}}
]}
