{"type":"FeatureCollection", "features":[
{"type":"Feature","id":"0309275FBF351B106D3B","geometry":{"type":"Point","coordinates":[46.20935384224965,38.98893716852576,1234.497183272956]},"properties":{"name":"Maralzəmi"}},
{"type":"Feature","id":"03A03B383A356AC0337D","geometry":{"type":"Point","coordinates":[46.20770531677418,38.98991493631507,1207.807122238622]},"properties":{"0717E5ED7A356AC0339A":0,"name":"Toyuq ferması","extrude":true}},
{"type":"Feature","id":"0B02316D0B356AC108DA","geometry":{"type":"Point","coordinates":[46.20775202933196,38.98875426688762,1203.218835660283]},"properties":{"06EDD96B7B356AC108EC":0,"name":"Kərimov Xankişi","extrude":true}},
{"type":"Feature","id":"0C98D6944A356AC1C8DE","geometry":{"type":"Point","coordinates":[46.20764179649557,38.98856990738463,1199.129660395582]},"properties":{"02B43563B5356AC1C8E9":0,"name":"Məktəb","extrude":true}},
{"type":"Feature","id":"0F0960C600356AC2DBF2","geometry":{"type":"Point","coordinates":[46.20814005367125,38.98889172642328,1213.80993822082]},"properties":{"0493EB50BA356AC2DC04":0,"name":"Rəhimov Əmrah","extrude":true}},
{"type":"Feature","id":"07BD75FDBF356AC384E8","geometry":{"type":"Point","coordinates":[46.2082669370502,38.98813239546521,1209.723792238931]},"properties":{"0443B56D36356AC384F7":0,"name":"Quliyev Şərif","extrude":true}},
{"type":"Feature","id":"0442F4A4D9356AC416A4","geometry":{"type":"Point","coordinates":[46.20865194896746,38.98833325614267,1217.331954754622]},"properties":{"03AD6FAF0D356AC416B6":0,"name":"Babayev Davud","extrude":true}},
{"type":"Feature","id":"043BE897DD356AC48C4B","geometry":{"type":"Point","coordinates":[46.20859853509744,38.9882053980557,1216.122793246845]},"properties":{"069EC91A5B356AC48C67":0,"name":"Bağırov Ağaməli","extrude":true}},
{"type":"Feature","id":"0895B8160F356AC68EF1","geometry":{"type":"Point","coordinates":[46.20864751378802,38.9889565427369,1225.088565991638]},"properties":{"03C51007EA356AC68F0B":0,"name":"Tövlə","extrude":true}},
{"type":"Feature","id":"079091AE4D356AC70C05","geometry":{"type":"Point","coordinates":[46.20859883133553,38.98930952104493,1227.35213413131]},"properties":{"066406916F356AC70C1B":0,"name":"Taya","extrude":true}},
{"type":"Feature","id":"0F98C29EAD356AC76CEA","geometry":{"type":"Point","coordinates":[46.20877667843466,38.98983879904446,1234.27520109393]},"properties":{"0DB268BDC2356AC76D0D":0,"name":"Tövlələr","extrude":true}},
{"type":"Feature","id":"076EF8E79D356AC88A7E","geometry":{"type":"Point","coordinates":[46.20820012539475,38.98941536290262,1218.517597066475]},"properties":{"0A5DBA21A3356AC88A90":0,"name":"Silos quyuluları","extrude":true}},
{"type":"Feature","id":"0332D83ACB356AC9B965","geometry":{"type":"Point","coordinates":[46.20741320060914,38.99196640825353,1230.355635500718]},"properties":{"044192FD3F356AC9B97C":0,"name":"Nasosxana","extrude":true}},
{"type":"Feature","id":"01671A60A4356ACAC75A","geometry":{"type":"Point","coordinates":[46.20695127704843,38.99212301969552,1216.290620036958]},"properties":{"05871125E4356ACAC766":0,"name":"Əmirlərin diki","extrude":true}},
{"type":"Feature","id":"045FADCEAC356ACB8229","geometry":{"type":"Point","coordinates":[46.2068890021556,38.99537450407438,1229.562181405632]},"properties":{"0C697CEC71356ACB823B":0,"name":"Qəbristanlıq (Dağıdılıb)","extrude":true}},
{"type":"Feature","id":"07C37E93BD356ACD0ACA","geometry":{"type":"Point","coordinates":[46.20758667881767,38.99659079854663,1246.025201698833]},"properties":{"06D6ACB68C356ACD0ADB":0,"name":"Aretlər","extrude":true}},
{"type":"Feature","id":"04F176E9A9356ACE1CFA","geometry":{"type":"Point","coordinates":[46.20743226521699,38.9955989121605,1241.103293344592]},"properties":{"0BD492C99D356ACE1D07":0,"name":"Zoğallı dərə","extrude":true}},
{"type":"Feature","id":"094E2284F2356ACEAE71","geometry":{"type":"Point","coordinates":[46.20923753012004,38.9948379534536,1292.355761959709]},"properties":{"0CCCA5B98F356ACEAE81":0,"name":"Misgərlər","extrude":true}},
{"type":"Feature","id":"04ED9E3B88356ACFAA1A","geometry":{"type":"Point","coordinates":[46.20768267444642,38.99076533915149,1219.157713675668]},"properties":{"00E0BD9DB8356ACFAA2D":0,"name":"Səfərin bağı","extrude":true}},
{"type":"Feature","id":"0E7A8DCE06356AD016D7","geometry":{"type":"Point","coordinates":[46.20876494320902,38.99052040858232,1239.058441243723]},"properties":{"0579B3E0F4356AD016EF":0,"name":"Çeşmə dərəsi","extrude":true}},
{"type":"Feature","id":"02E10AF167356AD0A2B3","geometry":{"type":"Point","coordinates":[46.20617482972487,38.99023728579057,1177.38334870553]},"properties":{"06CD180A95356AD0A2CF":0,"name":"Dəyirman yanı","extrude":true}},
{"type":"Feature","id":"01D2D67663356AD18472","geometry":{"type":"Point","coordinates":[46.20506500866625,38.99534713705602,1199.590735112747]},"properties":{"057F1A29B7356AD1848D":0,"name":"Dəhnə","extrude":true}},
{"type":"Feature","id":"042945744C356AD1ECE3","geometry":{"type":"Point","coordinates":[46.20589279714814,38.99529925415615,1207.246123138657]},"properties":{"0B25DF17E5356AD1ECF8":0,"name":"Mis qalığı","extrude":true}},
{"type":"Feature","id":"055AD0FEA5356AD388FC","geometry":{"type":"Point","coordinates":[46.20618344581847,38.99948242818222,1220.333851608597]},"properties":{"0014797CA0356AD38910":0,"name":"Uzun zəmi","extrude":true}},
{"type":"Feature","id":"0662B0DFFA356AD50915","geometry":{"type":"Point","coordinates":[46.20761047520122,39.00109981082506,1242.295193626663]},"properties":{"06B2F33486356AD50927":0,"name":"Mülüşü suyu","extrude":true}},
{"type":"Feature","id":"0002DF8D2C356AD5C595","geometry":{"type":"Point","coordinates":[46.20791108917828,39.00727358552965,1259.540962913587]},"properties":{"0E0B55753C356AD5C5A6":0,"name":"Taxta körpü","extrude":true}},
{"type":"Feature","id":"085E4531CD356AD7AB32","geometry":{"type":"Point","coordinates":[46.20346024029706,39.00850817587302,1354.077356712542]},"properties":{"0E43E502E8356AD7AB4D":0,"name":"Qul çayı","extrude":true}},
{"type":"Feature","id":"09CC5AA474356AD8A9B8","geometry":{"type":"Point","coordinates":[46.20740772072268,39.00644370810093,1273.471588677956]},"properties":{"03237F0951356AD8A9CB":0,"name":"Dəhnə","extrude":true}},
{"type":"Feature","id":"0FA28B1FD5356AD941F4","geometry":{"type":"Point","coordinates":[46.21508100175861,39.00045138138721,1485.20807119657]},"properties":{"02D2B53C87356AD94208":0,"name":"Mülüşü meşəsi","extrude":true}},
{"type":"Feature","id":"08113BDC3B356AD9B545","geometry":{"type":"Point","coordinates":[46.21719727599639,39.00087367042831,1547.448036178824]},"properties":{"02D8E5327C356AD9B563":0,"name":"Cəhənnəm dərəsi","extrude":true}},
{"type":"Feature","id":"00B9194A44356ADAF474","geometry":{"type":"Point","coordinates":[46.20618531330515,39.00399734103125,1317.255322174112]},"properties":{"07B7C9C468356ADAF48E":0,"name":"Gurum","extrude":true}},
{"type":"Feature","id":"0B12582EF6356ADBF4DD","geometry":{"type":"Point","coordinates":[46.19923823707485,39.01725525819548,1579.883753666174]},"properties":{"03FC42F285356ADBF4EF":0,"name":"Bineher","extrude":true}},
{"type":"Feature","id":"0D82CE9CFE356ADD343D","geometry":{"type":"Point","coordinates":[46.20487283208637,38.99567184069811,1208.833101087972]},"properties":{"032905CDA7356ADD3451":0,"name":"Tahirin çeşməsi","extrude":true}},
{"type":"Feature","id":"08257F7997356ADDD864","geometry":{"type":"Point","coordinates":[46.2048899690272,38.99515813813074,1202.993876295702]},"properties":{"044473CB65356ADDD87A":0,"name":"Zeyvə","extrude":true}},
{"type":"Feature","id":"0E69779C2D356ADE92F0","geometry":{"type":"Point","coordinates":[46.20503320938266,38.99584444701298,1204.343724511726]},"properties":{"0F62FFBCBF356ADE930C":0,"name":"Tahir şamı","extrude":true}},
{"type":"Feature","id":"0D79424D3F356AE00C76","geometry":{"type":"Point","coordinates":[46.20511275588415,38.98900903316315,1165.851581208175]},"properties":{"062F65BC3D356AE00C91":0,"name":"Lökün səhmanı","extrude":true}},
{"type":"Feature","id":"061E65F1A6356AE118A9","geometry":{"type":"Point","coordinates":[46.20446740784269,38.98695736493167,1169.069857081995]},"properties":{"06F1281C78356AE118BA":0,"name":"Gölək","extrude":true}},
{"type":"Feature","id":"07F5429806356AE1B081","geometry":{"type":"Point","coordinates":[46.20429781039113,38.98691080837462,1176.822100877839]},"properties":{"012B46874B356AE1B092":0,"name":"Qarasu","extrude":true}},
{"type":"Feature","id":"02B4D56B86356AE285E1","geometry":{"type":"Point","coordinates":[46.20472421368028,38.98675775792287,1163.608609268393]},"properties":{"08E6114A45356AE285F4":0,"name":"Balıq gölü","extrude":true}},
{"type":"Feature","id":"09FAF44B78356AE2E813","geometry":{"type":"Point","coordinates":[46.204574586703,38.98703857677376,1164.830485283727]},"properties":{"03D87C1D39356AE2E823":0,"name":"Qurbağa gölü","extrude":true}},
{"type":"Feature","id":"0A796D6F94356AE377E7","geometry":{"type":"Point","coordinates":[46.20540716094042,38.98652902739422,1152.299463952561]},"properties":{"086A87E730356AE377F9":0,"name":"Şəmilin yeri","extrude":true}},
{"type":"Feature","id":"0ABEE9A5A0356AE520D3","geometry":{"type":"Point","coordinates":[46.20660615579354,38.99008665464876,1183.432748323871]},"properties":{"0BE698E7B5356AE520E8":0,"name":"Xiyarlıq","extrude":true}},
{"type":"Feature","id":"044A227BCA356AE64948","geometry":{"type":"Point","coordinates":[46.20778656192567,38.98138508651562,1121.122544280324]},"properties":{"0669C5B42E356AE6495B":0,"name":"Xırman yeri","extrude":true}},
{"type":"Feature","id":"0E35C1CBFC356AE6F168","geometry":{"type":"Point","coordinates":[46.20821255824334,38.97996916829203,1116.030018703809]},"properties":{"0FA5CD5C04356AE6F17F":0,"name":"Püşgahın körpüsü","extrude":true}},
{"type":"Feature","id":"0AE063CEA8356AE76166","geometry":{"type":"Point","coordinates":[46.20926367793459,38.98031709072121,1110.249145992148]},"properties":{"0E162EC744356AE7617C":0,"name":"Xırman yeri","extrude":true}},
{"type":"Feature","id":"0F5CC35958356AE814FB","geometry":{"type":"Point","coordinates":[46.20824308743429,38.97842104756861,1126.830995667195]},"properties":{"0CB8DC3903356AE81512":0,"name":"Püşgah","extrude":true}},
{"type":"Feature","id":"02BE9DCF4E356AE8F1A6","geometry":{"type":"Point","coordinates":[46.20921129377518,38.98114197266498,1117.423697191846]},"properties":{"062E95C34D356AE8F1B8":0,"name":"Püşgah yolayrımı","extrude":true}},
{"type":"Feature","id":"0C905E5F04356AE985F9","geometry":{"type":"Point","coordinates":[46.21090972414114,38.98300116923062,1218.743502987861]},"properties":{"0E85641090356AE9860A":0,"name":"Xudayarlar dərəsi","extrude":true}},
{"type":"Feature","id":"00E401D2D9356AEB122F","geometry":{"type":"Point","coordinates":[46.2139651145911,38.98437497364785,1407.842638267896]},"properties":{"0CFDD35D64356AEB1249":0,"name":"Xudayar çeşməsi","extrude":true}},
{"type":"Feature","id":"0CDFFAD3E1356AEC473E","geometry":{"type":"Point","coordinates":[46.20858823540829,38.982468628378,1133.4600884053]},"properties":{"04701A311A356AEC4758":0,"name":"Şam","extrude":true}},
{"type":"Feature","id":"0916E498AD356AECC4C8","geometry":{"type":"Point","coordinates":[46.20843865259049,38.98263835532192,1133.442871330771]},"properties":{"0CA78C1119356AECC4DF":0,"name":"Səlimölən mağara","extrude":true}},
{"type":"Feature","id":"09100A6C2C356AEDD6A4","geometry":{"type":"Point","coordinates":[46.20840529999381,38.98315130490251,1140.544824531656]},"properties":{"0A015106EC356AEDD6B9":0,"name":"Dibcəvizlər","extrude":true}},
{"type":"Feature","id":"0F9D01DC83356AEF6893","geometry":{"type":"Point","coordinates":[46.20798197922214,38.98583843287228,1177.708414058399]},"properties":{"0800D79D64356AEF68A4":0,"name":"Dadaşın bağı","extrude":true}},
{"type":"Feature","id":"048AC07665356AEFFE02","geometry":{"type":"Point","coordinates":[46.20936449486933,38.98579027704724,1216.621009382294]},"properties":{"05C7D468AF356AEFFE1A":0,"name":"Seyid məhlə","extrude":true}},
{"type":"Feature","id":"083189EF40356AF08785","geometry":{"type":"Point","coordinates":[46.20907302872468,38.98618309405966,1210.405479326833]},"properties":{"07C16890C1356AF08799":0,"name":"Cəbi dərəsi","extrude":true}},
{"type":"Feature","id":"072702D989356AF124F6","geometry":{"type":"Point","coordinates":[46.20711193163328,38.9854539680733,1154.105427333588]},"properties":{"0565B27ADA356AF12507":0,"name":"Ara kəvşəni","extrude":true}},
{"type":"Feature","id":"0BDFC6220B356AF27B20","geometry":{"type":"Point","coordinates":[46.20722598745874,38.9882555945823,1188.418080155812]},"properties":{"0889A1D53D356AF27B33":0,"name":"Səfər yeri","extrude":true}},
{"type":"Feature","id":"05B50EB28E356AF36CE2","geometry":{"type":"Point","coordinates":[46.20607988941473,38.98657208774424,1157.203289562234]},"properties":{"0844739BBC356AF36CF4":0,"name":"Daş qora","extrude":true}},
{"type":"Feature","id":"0D1F09C537356AF74FB9","geometry":{"type":"Point","coordinates":[46.20690281336136,38.98698551144321,1170.969469996021]},"properties":{"073BDFACFC356AF74FD6":0,"name":"Qaranın yeri","extrude":true}},
{"type":"Feature","id":"02050A2424356AF7DB10","geometry":{"type":"Point","coordinates":[46.20651728699094,38.98605131410507,1156.264215253247]},"properties":{"02975EE226356AF7DB24":0,"name":"Müşərrəf yeri","extrude":true}},
{"type":"Feature","id":"0FF3880B12356AFA6692","geometry":{"type":"Point","coordinates":[46.20734476836383,38.98648306124569,1175.479895462473]},"properties":{"00FEBE48B1356AFA66A3":0,"name":"Əlinin yeri","extrude":true}},
{"type":"Feature","id":"07E1DC1350356AFADE60","geometry":{"type":"Point","coordinates":[46.20691175170695,38.98630654550354,1165.968252850869]},"properties":{"0C71B57690356AFADE79":0,"name":"Müzəffər yeri","extrude":true}},
{"type":"Feature","id":"06EB1A58CE356AFB6035","geometry":{"type":"Point","coordinates":[46.2071744782214,38.98764424830597,1186.145046218922]},"properties":{"0F1414E891356AFB6047":0,"name":"İslamın yeri","extrude":true}},
{"type":"Feature","id":"08A1EFF9B6356AFBD77E","geometry":{"type":"Point","coordinates":[46.20742965996766,38.98698290096742,1184.004474619176]},"properties":{"071C2E2781356AFBD798":0,"name":"Əriklik","extrude":true}},
{"type":"Feature","id":"09FAEACD59356AFC4599","geometry":{"type":"Point","coordinates":[46.20807304119988,38.98694198583355,1195.924428397663]},"properties":{"0C6F32C753356AFC45B0":0,"name":"Qulunun yeri","extrude":true}},
{"type":"Feature","id":"09E35E9B83356AFCB597","geometry":{"type":"Point","coordinates":[46.20649322233037,38.98711255880445,1168.685113192129]},"properties":{"0DCE49BEE5356AFCB5AA":0,"name":"Lök arxı","extrude":true}},
{"type":"Feature","id":"0B6B349E6F356AFD9629","geometry":{"type":"Point","coordinates":[46.20912415613773,38.98845287701361,1225.517585293855]},"properties":{"01A0401533356AFD963C":0,"name":"Süsənbər nənə","extrude":true}},
{"type":"Feature","id":"0309C7D30D356AFE1469","geometry":{"type":"Point","coordinates":[46.20958093814305,38.98883266868767,1237.309501770948]},"properties":{"0C496E72BA356AFE147A":0,"name":"Soltan dərəsi","extrude":true}},
{"type":"Feature","id":"06F023B7B3356AFE8BA1","geometry":{"type":"Point","coordinates":[46.20913006414143,38.98826760881393,1225.029882446178]},"properties":{"0D6291C94F356AFE8BAF":0,"name":"Bağırov Salman","extrude":true}},
{"type":"Feature","id":"00EB136EBF356AFF368C","geometry":{"type":"Point","coordinates":[46.20898795681219,38.98837938310478,1222.841302383496]},"properties":{"057C9C7877356AFF369B":0,"name":"Əli Məmmədov","extrude":true}},
{"type":"Feature","id":"049CB0D5A9356B000B77","geometry":{"type":"Point","coordinates":[46.20922254836033,38.98801865435984,1226.725200794642]},"properties":{"07C6A130AE356B000B81":0,"name":"Bağırov Səfərəli","extrude":true}},
{"type":"Feature","id":"050FE767E1356B00AA99","geometry":{"type":"Point","coordinates":[46.2091123079091,38.98785243289542,1224.634384267625]},"properties":{"047F48CBA5356B00AAAE":0,"name":"Kərimov Mahmud","extrude":true}},
{"type":"Feature","id":"07455AA023356B011D31","geometry":{"type":"Point","coordinates":[46.20886236718815,38.98794746550887,1220.224918831089]},"properties":{"009FF4A9EB356B011D49":0,"name":"Bağırov Valeh","extrude":true}},
{"type":"Feature","id":"0C6712BDAD356B0179C8","geometry":{"type":"Point","coordinates":[46.20878572685522,38.98766269650216,1217.807597457334]},"properties":{"0DB5D79804356B0179DB":0,"name":"Bağırov Əziz","extrude":true}},
{"type":"Feature","id":"0059C02642356B01D3D5","geometry":{"type":"Point","coordinates":[46.2085882318609,38.98775217608384,1214.670057108165]},"properties":{"0FBC93B1FB356B01D3E8":0,"name":"Əliyev Turab","extrude":true}},
{"type":"Feature","id":"04D1C1FBEC356B02BA95","geometry":{"type":"Point","coordinates":[46.20841336163142,38.98782788703348,1211.615090361773]},"properties":{"013CA61377356B02BAAB":0,"name":"Babayev Alyoşa","extrude":true}},
{"type":"Feature","id":"0A89EDDC1C356B04137C","geometry":{"type":"Point","coordinates":[46.20872162425567,38.98731650398561,1213.162445233118]},"properties":{"08F78BF87E356B041391":0,"name":"Əlişov Əliş","extrude":true}},
{"type":"Feature","id":"0641E2E4E8356B047E01","geometry":{"type":"Point","coordinates":[46.20855968605166,38.98725537012436,1209.489589397615]},"properties":{"07F70A44B9356B047E1C":0,"name":"Kərəmov Bədəl","extrude":true}},
{"type":"Feature","id":"0F5A18DB8E356B055382","geometry":{"type":"Point","coordinates":[46.20842236012766,38.98732235791651,1207.432687381104]},"properties":{"00F0E8390C356B05539A":0,"name":"Quliyev Səlim","extrude":true}},
{"type":"Feature","id":"07944AD172356B064B42","geometry":{"type":"Point","coordinates":[46.20814806849395,38.98754008653173,1204.055018263844]},"properties":{"0BCC751958356B064B58":0,"name":"Ağayev Dadaş","extrude":true}},
{"type":"Feature","id":"070E7DA553356B07CDB4","geometry":{"type":"Point","coordinates":[46.20905204334937,38.98666076905187,1213.552838504388]},"properties":{"0AB2AD8875356B07CDC6":0,"name":"Davudov Abbas","extrude":true}},
{"type":"Feature","id":"0E807E907B356B089CD1","geometry":{"type":"Point","coordinates":[46.20945953559714,38.98850995410348,1232.145526871728]},"properties":{"00B1317CDC356B089CE1":0,"name":"Klub","extrude":true}},
{"type":"Feature","id":"0E99CE9DC2356B08EC1F","geometry":{"type":"Point","coordinates":[46.20944692912853,38.98834933313778,1231.202444711046]},"properties":{"0111D91101356B08EC2D":0,"name":"Anbar","extrude":true}},
{"type":"Feature","id":"01F5E2F6CB356B094287","geometry":{"type":"Point","coordinates":[46.20940892794525,38.98820153245865,1230.506344173787]},"properties":{"0ED0F629BB356B09429F":0,"name":"Mağaza","extrude":true}},
{"type":"Feature","id":"0932B60A38356B0993D8","geometry":{"type":"Point","coordinates":[46.20948128638514,38.98812129947881,1231.872270049933]},"properties":{"098D16414D356B0993E8":0,"name":"İdarə","extrude":true}},
{"type":"Feature","id":"01577DBD3B356B0AC9EA","geometry":{"type":"Point","coordinates":[46.20938187771765,38.98782104555812,1229.923783471181]},"properties":{"04ADB31D4A356B0AC9FE":0,"name":"Babayev Qüdrət","extrude":true}},
{"type":"Feature","id":"05AA3C0A62356B0B3A2A","geometry":{"type":"Point","coordinates":[46.20931706095548,38.9876931814141,1228.333015236023]},"properties":{"021B8ED593356B0B3A3C":0,"name":"Kərəmov Kərəm","extrude":true}},
{"type":"Feature","id":"0C1883187B356B0BDF6C","geometry":{"type":"Point","coordinates":[46.20918800452638,38.98746628102138,1220.381983448679]},"properties":{"0C8EC7D6B3356B0BDF8A":0,"name":"Bağırov Əli","extrude":true}},
{"type":"Feature","id":"0059649255356B0C4B70","geometry":{"type":"Point","coordinates":[46.20923359380738,38.98730960203762,1223.381670652978]},"properties":{"0D82A3E8E4356B0C4B89":0,"name":"Babayev Mürsəl","extrude":true}},
{"type":"Feature","id":"0DCFB494A6356B0CB1ED","geometry":{"type":"Point","coordinates":[46.20940915003812,38.98720681550945,1225.560058206486]},"properties":{"071623DA1A356B0CB202":0,"name":"Səfərov Səfər","extrude":true}},
{"type":"Feature","id":"0F8E7E58C9356B0D34DD","geometry":{"type":"Point","coordinates":[46.20967580566698,38.98713623967232,1229.694407128686]},"properties":{"09E9190879356B0D34FA":0,"name":"Rəhimov Qəzənfər","extrude":true}},
{"type":"Feature","id":"029CCCCD49356B116404","geometry":{"type":"Point","coordinates":[46.20986029671935,38.98702281140089,1231.60698933269]},"properties":{"0A200D1551356B116416":0,"name":"Rəhimov Musa","extrude":true}},
{"type":"Feature","id":"0AC21A0FDB356B11C0EE","geometry":{"type":"Point","coordinates":[46.20969727461095,38.98688599649641,1227.921189373803]},"properties":{"07CB673BBE356B11C0FE":0,"name":"Rəhimov Manaf","extrude":true}},
{"type":"Feature","id":"09F766116C356B123654","geometry":{"type":"Point","coordinates":[46.2096765182823,38.98753796596719,1234.095193595443]},"properties":{"0951063C28356B123663":0,"name":"Haqverdiyev Bayramqulu","extrude":true}},
{"type":"Feature","id":"0106DC6062356B12FB7C","geometry":{"type":"Point","coordinates":[46.20947871440859,38.98739400345956,1228.708860442823]},"properties":{"00A30A0451356B12FB8F":0,"name":"Davudov Abdın","extrude":true}},
{"type":"Feature","id":"01DC8DB14C356B145E58","geometry":{"type":"Point","coordinates":[46.20975356898115,38.98782280577964,1237.660063661515]},"properties":{"024C7C0105356B145E6F":0,"name":"Əliyev Qurbanəli","extrude":true}},
{"type":"Feature","id":"0E4A3DCFD3356B1503BB","geometry":{"type":"Point","coordinates":[46.2099267950865,38.98807565984992,1240.909159641105]},"properties":{"004A12EBDB356B1503D2":0,"name":"Kərimov Əmirxan","extrude":true}},
{"type":"Feature","id":"0446F53223356B157D3A","geometry":{"type":"Point","coordinates":[46.20966957327146,38.98800671576193,1235.618611464363]},"properties":{"06DB539D65356B157D50":0,"name":"Kitabxana","extrude":true}},
{"type":"Feature","id":"0565B43616356B15E2CD","geometry":{"type":"Point","coordinates":[46.21032064199812,38.98816965881444,1251.107230253203]},"properties":{"03CC7D822E356B15E2E2":0,"name":"Əliyev Niyaz","extrude":true}},
{"type":"Feature","id":"0988BCDC78356B16C3A2","geometry":{"type":"Point","coordinates":[46.20959974923425,38.98825318349942,1235.270806502839]},"properties":{"02FA25BEDC356B16C3C0":0,"name":"Quliyev Bəşir","extrude":true}},
{"type":"Feature","id":"037FFD6D8A356B182FBC","geometry":{"type":"Point","coordinates":[46.20960171694561,38.98854466014254,1235.068877643892]},"properties":{"07B8DF8B34356B182FCD":0,"name":"Quliyev Camal","extrude":true}},
{"type":"Feature","id":"09FF13A2D8356B192216","geometry":{"type":"Point","coordinates":[46.20986821063187,38.98860145232435,1240.247666605333]},"properties":{"02E324DD8E356B192227":0,"name":"Atayev Hüseyn","extrude":true}},
{"type":"Feature","id":"0F3EC0193C356B199277","geometry":{"type":"Point","coordinates":[46.21033863779716,38.9889389051059,1254.053037970296]},"properties":{"0CB5CA00B4356B199287":0,"name":"Nəsirov Cəbi","extrude":true}},
{"type":"Feature","id":"04C05BCB7B356B1A5022","geometry":{"type":"Point","coordinates":[46.20911733135156,38.98776672495769,1224.73004406268]},"properties":{"0514A5238A356B1A5036":0,"name":"Çeşmə","extrude":true}},
{"type":"Feature","id":"0986BBD3A2356B1AD1A4","geometry":{"type":"Point","coordinates":[46.20921251724864,38.98962870026343,1242.392048293171]},"properties":{"0B2FE5803A356B1AD1B2":0,"name":"Ağ zəmi","extrude":true}},
{"type":"Feature","id":"0E8B5ABFAB356B1BB73A","geometry":{"type":"Point","coordinates":[46.21421503945715,38.9929106477657,1471.484754544182]},"properties":{"0BD1E43334356B1BB759":0,"name":"Tək ardıc","extrude":true}},
{"type":"Feature","id":"0C976E00E8356B1C70CC","geometry":{"type":"Point","coordinates":[46.21450186548856,38.99290195735107,1479.025112543401]},"properties":{"08A452847A356B1C70E7":0,"name":"Göytəpə","extrude":true}},
{"type":"Feature","id":"0B6CF7FCD6356B1D24F5","geometry":{"type":"Point","coordinates":[46.21156244690554,38.98848965847741,1296.326934216498]},"properties":{"03875E1E30356B1D2515":0,"name":"Mağara","extrude":true}},
{"type":"Feature","id":"0BE772473F356B1DBA53","geometry":{"type":"Point","coordinates":[46.21492149060926,38.99152531929706,1475.112030033406]},"properties":{"01C186B934356B1DBA64":0,"name":"Buruxlu güney","extrude":true}},
{"type":"Feature","id":"0D226B1387356B1E2B19","geometry":{"type":"Point","coordinates":[46.21539644389001,38.98975884328289,1444.289053060529]},"properties":{"06E5C916DA356B1E2B2C":0,"name":"Sarı yarğan","extrude":true}},
{"type":"Feature","id":"0A7DF9F68B356B1EAAE8","geometry":{"type":"Point","coordinates":[46.21401577782758,38.98885461917684,1370.732047734221]},"properties":{"0DC353F3B1356B1EAAF9":0,"name":"Turşehli dərə","extrude":true}},
{"type":"Feature","id":"0B2B164EBB356B1F7E23","geometry":{"type":"Point","coordinates":[46.21755103051603,38.99238993113929,1594.944110907797]},"properties":{"039ED4C76E356B1F7E3F":0,"name":"Bənd","extrude":true}},
{"type":"Feature","id":"00F060A04A356B208E1B","geometry":{"type":"Point","coordinates":[46.21367736157465,38.9852451719542,1409.224452974069]},"properties":{"0B4ECD3FFC356B208E37":0,"name":"Abdının kalavatı","extrude":true}},
{"type":"Feature","id":"0A7447A468356B23021D","geometry":{"type":"Point","coordinates":[46.22064974567697,38.98832520398312,1686.411653801701]},"properties":{"08F5A56E23356B230238":0,"name":"Qərbiazay çeşməsi","extrude":true}},
{"type":"Feature","id":"00D6915E06356B239108","geometry":{"type":"Point","coordinates":[46.21945292414871,38.98770845523417,1661.539370134636]},"properties":{"0169C66FC2356B239127":0,"name":"Qərbazay meşəsi","extrude":true}},
{"type":"Feature","id":"08AD95EB63356B245CB3","geometry":{"type":"Point","coordinates":[46.22097354677375,38.99011514947635,1732.872267465697]},"properties":{"0C16871AD7356B245CCB":0,"name":"Zəmiyeri","extrude":true}},
{"type":"Feature","id":"02A78E35FA356B255B3D","geometry":{"type":"Point","coordinates":[46.22575254828722,38.99116300258504,1909.285745951986]},"properties":{"00FD1D1AA2356B255B5D":0,"name":"Şəkərəli çeşməsi","extrude":true}},
{"type":"Feature","id":"060C974BCD356B2617BB","geometry":{"type":"Point","coordinates":[46.22725321074961,38.99080483711721,1989.533814155068]},"properties":{"0897FD80F6356B2617D4":0,"name":"Seyidəhməd çeşməsi (Pir)","extrude":true}},
{"type":"Feature","id":"000EC16727356B26F1CB","geometry":{"type":"Point","coordinates":[46.22549243350837,38.99045130534563,1910.673785884924]},"properties":{"05D2177D62356B26F1E9":0,"name":"Sağın yeri","extrude":true}},
{"type":"Feature","id":"0AB3870B70356B28997E","geometry":{"type":"Point","coordinates":[46.22414534812737,38.99702717003809,1808.07062946785]},"properties":{"075FE8E015356B28999D":0,"name":"Səbətkeçməz","extrude":true}},
{"type":"Feature","id":"001D6702C9356B2CFED5","geometry":{"type":"Point","coordinates":[46.2240065646585,38.98483597603199,1846.887462079603]},"properties":{"014E73525D356B2CFEF8":0,"name":"Palangurən","extrude":true}},
{"type":"Feature","id":"0CE7909632356B2DDE8D","geometry":{"type":"Point","coordinates":[46.22886207161553,38.99037538086211,2040.80131891523]},"properties":{"0C764C3541356B2DDEA9":0,"name":"Top","extrude":true}},
{"type":"Feature","id":"0429C13CB6356B2EC498","geometry":{"type":"Point","coordinates":[46.23756081082185,39.00213819708667,2177.402521563222]},"properties":{"04E1674ED1356B2EC4AE":0,"name":"Şuləngəz","extrude":true}},
{"type":"Feature","id":"0B3618FFDF356B309E49","geometry":{"type":"Point","coordinates":[46.24045482995347,39.00216594339245,2137.204383091495]},"properties":{"0FF9836B8A356B309E61":0,"name":"Aşağıkənd","extrude":true}},
{"type":"Feature","id":"0E2AE807AE356B32CB75","geometry":{"type":"Point","coordinates":[46.25400594429492,39.00833446162893,2015.634261416276]},"properties":{"0CCBC14D53356B32CB94":0,"name":"Kalavuran piri","extrude":true}},
{"type":"Feature","id":"07ADB7A8AD356B33C771","geometry":{"type":"Point","coordinates":[46.26579728550287,39.01074159105245,2158.607340302471]},"properties":{"0DA6ED36D8356B33C78C":0,"name":"Bildərə","extrude":true}},
{"type":"Feature","id":"0E72C1D728356B35D173","geometry":{"type":"Point","coordinates":[46.26252144517333,39.01612090818389,2071.446816814751]},"properties":{"0C4E1C2C5C356B35D18D":0,"name":"Xanzəmisi","extrude":true}},
{"type":"Feature","id":"0A286A7879356B364A4C","geometry":{"type":"Point","coordinates":[46.26050739158708,39.01262372753529,2040.409674545893]},"properties":{"008B246ACB356B364A65":0,"name":"Qarazəmi","extrude":true}},
{"type":"Feature","id":"004DB889B4356B36E8EA","geometry":{"type":"Point","coordinates":[46.26254741151764,39.01510352556043,2058.593146733549]},"properties":{"0DDA9E1A93356B36E903":0,"name":"Mollalı dərəsi","extrude":true}},
{"type":"Feature","id":"02CD039D54356B37BF11","geometry":{"type":"Point","coordinates":[46.26361840289299,39.01538935431854,2071.009099607686]},"properties":{"09B61CD9DA356B37BF29":0,"name":"Çuler","extrude":true}},
{"type":"Feature","id":"07030374DA356B39712C","geometry":{"type":"Point","coordinates":[46.2632831013524,39.01565154529512,2064.473054062266]},"properties":{"08ED6F2310356B397148":0,"name":"Bəy xırmanı","extrude":true}},
{"type":"Feature","id":"0933828C84356B3B21FA","geometry":{"type":"Point","coordinates":[46.26396108697269,39.01575882342468,2072.263813598826]},"properties":{"017362AD4C356B3B220F":0,"name":"Vanna","extrude":true}},
{"type":"Feature","id":"07C1C7B291356B3BDF53","geometry":{"type":"Point","coordinates":[46.26367741793533,39.01608045578181,2067.798896514074]},"properties":{"01C68249C9356B3BDF6B":0,"name":"Arağa dərə","extrude":true}},
{"type":"Feature","id":"0AC3A3F7C6356B3C6C9E","geometry":{"type":"Point","coordinates":[46.26513806766306,39.01733335969458,2093.007020257292]},"properties":{"065DBF0894356B3C6CB7":0,"name":"Duzlaq","extrude":true}},
{"type":"Feature","id":"09246F1B9E356B3CEE95","geometry":{"type":"Point","coordinates":[46.26256467721245,39.01828958355462,2105.631299234142]},"properties":{"05E6B46661356B3CEEAE":0,"name":"Mahmudun zəmisi","extrude":true}},
{"type":"Feature","id":"031B80F6EC356B3D94D1","geometry":{"type":"Point","coordinates":[46.26133081106098,39.018624302818,2131.787347257411]},"properties":{"00359260A9356B3D94E5":0,"name":"Səfər çeşməsi","extrude":true}},
{"type":"Feature","id":"0B1728309F356B3E42CC","geometry":{"type":"Point","coordinates":[46.26097111115338,39.01964926930892,2149.162718878326]},"properties":{"07C234AFA9356B3E42E2":0,"name":"Kənd qabağı","extrude":true}},
{"type":"Feature","id":"01920AED48356B3EE788","geometry":{"type":"Point","coordinates":[46.26207987841412,39.02011869466544,2135.029131253286]},"properties":{"06AC33B855356B3EE7A5":0,"name":"Xırman","extrude":true}},
{"type":"Feature","id":"0706E180D2356B3F46CA","geometry":{"type":"Point","coordinates":[46.26190032210936,39.02087746684765,2149.57255017967]},"properties":{"052ECADB14356B3F46DF":0,"name":"Beynən dərə","extrude":true}},
{"type":"Feature","id":"016EA111B5356B3FB90F","geometry":{"type":"Point","coordinates":[46.26213577267509,39.02034921290299,2139.394515545476]},"properties":{"0CC2878863356B3FB924":0,"name":"Xaçerin çeşməsi","extrude":true}},
{"type":"Feature","id":"057F549C80356B435032","geometry":{"type":"Point","coordinates":[46.26333712965818,39.02021800953215,2144.306355049203]},"properties":{"011D41802D356B435050":0,"name":"Yuxarı kənd","extrude":true}},
{"type":"Feature","id":"0A6C1F5A68356B450DA1","geometry":{"type":"Point","coordinates":[46.26321187785948,39.01969989449453,2129.659974850643]},"properties":{"0EEE8171BB356B450DB9":0,"name":"Məscid","extrude":true}},
{"type":"Feature","id":"019AFF35E1356B45C339","geometry":{"type":"Point","coordinates":[46.26409191189466,39.02155393420696,2203.454967915716]},"properties":{"06E27C44E4356B45C352":0,"name":"Kəməridaşı","extrude":true}},
{"type":"Feature","id":"0FFC75795C356B497766","geometry":{"type":"Point","coordinates":[46.26368338499018,39.01977866341615,2138.103756993589]},"properties":{"0F9C15C714356B49777E":0,"name":"Qurbanəlinin çeşməsi","extrude":true}},
{"type":"Feature","id":"0A59CC0C15356B4A03B7","geometry":{"type":"Point","coordinates":[46.26321473277403,39.01997772163192,2135.373479136664]},"properties":{"0B9A48FEFD356B4A03D5":0,"name":"Qaraəminin çeşməsi","extrude":true}},
{"type":"Feature","id":"09743434A0356B4AE33F","geometry":{"type":"Point","coordinates":[46.26404751729488,39.01929800971322,2133.401029582543]},"properties":{"04FDB78D10356B4AE355":0,"name":"Qəbristanlıq (Dağıdılıb)","extrude":true}},
{"type":"Feature","id":"081795EB64356B4BF659","geometry":{"type":"Point","coordinates":[46.2692536104578,39.01982821640318,2150.810037152718]},"properties":{"0FD1CE61DF356B4BF673":0,"name":"Qarabaşlar yeri","extrude":true}},
{"type":"Feature","id":"0E5E614B06356B4C74ED","geometry":{"type":"Point","coordinates":[46.26953304817445,39.019830738782,2147.88325030145]},"properties":{"058C6C4C1E356B4C7507":0,"name":"Bəy çeşməsi","extrude":true}},
{"type":"Feature","id":"03DBFD7646356B4CEE6D","geometry":{"type":"Point","coordinates":[46.26887947276902,39.02061042047039,2185.804760866858]},"properties":{"0E0218E33D356B4CEE84":0,"name":"Xəstədərə","extrude":true}},
{"type":"Feature","id":"006D736DB5356B4DCD2D","geometry":{"type":"Point","coordinates":[46.27678090051901,39.02011815151925,2241.897365993905]},"properties":{"0373A953E0356B4DCD49":0,"name":"Göhrəmgir daşı","extrude":true}},
{"type":"Feature","id":"0FD18AE77D356B5133E4","geometry":{"type":"Point","coordinates":[46.28508582247485,39.04795063667689,2525.711918573078]},"properties":{"0B0DA3E36E356B51340A":0,"name":"Xəllərgə","extrude":true}},
{"type":"Feature","id":"0B50BD85B2356B551C77","geometry":{"type":"Point","coordinates":[46.25576739834066,39.01422938327245,2196.977351934027]},"properties":{"08FE775C6F356B551CA1":0,"name":"Gülşad daşı","extrude":true}},
{"type":"Feature","id":"074B8021AF356B55E78A","geometry":{"type":"Point","coordinates":[46.25946212131115,39.01916163190785,2180.800732509775]},"properties":{"0CD78D7881356B55E79F":0,"name":"Dik","extrude":true}},
{"type":"Feature","id":"0914D92300356B571800","geometry":{"type":"Point","coordinates":[46.25589666209669,39.0261961386865,2390.657375469866]},"properties":{"0FD469DDC2356B571819":0,"name":"Gurden","extrude":true}},
{"type":"Feature","id":"0B7DA3B9A1356B5787CD","geometry":{"type":"Point","coordinates":[46.25805250775505,39.03013963519258,2257.798389847288]},"properties":{"0ACAFDEDB9356B5787EF":0,"name":"Kazım çeşməsi","extrude":true}},
{"type":"Feature","id":"0C2C8EDC78356B5DD2C7","geometry":{"type":"Point","coordinates":[46.15332024442726,38.99748205055811,1763.15197706647]},"properties":{"0E4E202DC5356B5DD2EA":0,"name":"Buğukar piri","extrude":true}},
{"type":"Feature","id":"0336E2EF9F356B6006D8","geometry":{"type":"Point","coordinates":[46.20053827228955,38.99892315041076,1442.976516229966]},"properties":{"0D25AE2CAE356B6006F2":0,"name":"Tey kəndi","extrude":true}},
{"type":"Feature","id":"08297397A0356B65BCE3","geometry":{"type":"Point","coordinates":[46.2068600456917,39.0276205953141,1412.737674453458]},"properties":{"0F5BADA948356B65BD00":0,"name":"Yoxuşun altı","extrude":true}},
{"type":"Feature","id":"02AFF6CC97356B6771EC","geometry":{"type":"Point","coordinates":[46.20475821096527,39.03842833354354,1550.604628849939]},"properties":{"04D9A22477356B677205":0,"name":"Çəyirtgə daşı","extrude":true}},
{"type":"Feature","id":"0089432470356B68D99C","geometry":{"type":"Point","coordinates":[46.18259549177639,39.12593594166128,2239.557914855105]},"properties":{"045DFBFF46356B68D9B6":0,"name":"Dübək","extrude":true}}
]}
