{"type":"FeatureCollection", "features":[
{"type":"Feature","id":"0963F66F9235F13B2CA9","geometry":{"type":"Point","coordinates":[45.81988623204758,40.17365231348637,1994.944492069782]},"properties":{"name":"Zabit Əhmədov"}},
{"type":"Feature","id":"0B26594CD635F13BC406","geometry":{"type":"Point","coordinates":[45.8191311762644,40.17371760889198,1997.209562426003]},"properties":{"name":"Əlif Namazov"}},
{"type":"Feature","id":"08CC795D2435F13C3236","geometry":{"type":"Point","coordinates":[45.8198561458775,40.17324490896332,1995.380109198763]},"properties":{"name":"Cahad Yusifov"}},
{"type":"Feature","id":"52CEECE832000001","geometry":{"type":"Point","coordinates":[45.81881903774904,40.17408692689106,1995.259591207709]},"properties":{"name":"Lenindar Yusifov"}},
{"type":"Feature","id":"52CEED7F92000001","geometry":{"type":"Point","coordinates":[45.81931429265889,40.17435375742583,1997.775766485674]},"properties":{"name":"Surxay Hacıyev"}},
{"type":"Feature","id":"06D89CC37835F1411B57","geometry":{"type":"Point","coordinates":[45.81999048909157,40.17500393406914,1993.859142699076]},"properties":{"name":"Fərman Mövlayev"}},
{"type":"Feature","id":"00B94AAF1F35F141B0F5","geometry":{"type":"Point","coordinates":[45.81957952585885,40.17515611740511,1994.403947378083]},"properties":{"name":"Əmirxan Hacıyev "}},
{"type":"Feature","id":"0B45CBF27535F14221FD","geometry":{"type":"Point","coordinates":[45.81893558354526,40.17504396273195,1996.280677440401]},"properties":{"name":"Nurəddin Xəlilov"}},
{"type":"Feature","id":"044B2711A135F142609F","geometry":{"type":"Point","coordinates":[45.81890122450101,40.17478665538436,1997.18143940682]},"properties":{"name":"Sayad Hacıyev"}},
{"type":"Feature","id":"0B396A738735F142BA54","geometry":{"type":"Point","coordinates":[45.81839435988945,40.17474192160794,1998.801024428785]},"properties":{"name":"Dünyamalı Yusifov"}},
{"type":"Feature","id":"001151776E35F143A479","geometry":{"type":"Point","coordinates":[45.81876282247653,40.17550575867654,1995.068495211265]},"properties":{"name":"Səməd Abbasov"}},
{"type":"Feature","id":"029CDB826435F143D2ED","geometry":{"type":"Point","coordinates":[45.81927791569047,40.17556592295454,1994.162137997793]},"properties":{"name":"Əliqara Qarayev "}},
{"type":"Feature","id":"08CEE6AC4E35F14434BE","geometry":{"type":"Point","coordinates":[45.81981753389056,40.17569913599318,1993.043424849105]},"properties":{"name":"Novruz İsmayılov"}},
{"type":"Feature","id":"0D021C80CD35F146638E","geometry":{"type":"Point","coordinates":[45.81961959220074,40.17611834789621,1992.589385227938]},"properties":{"name":"Rafiq Yaqubov"}},
{"type":"Feature","id":"0854768AF835F146A34F","geometry":{"type":"Point","coordinates":[45.81895200330471,40.17588187261786,1994.003735006817]},"properties":{"name":"Şahmalı Həmzəyev"}},
{"type":"Feature","id":"0DCF3A503135F147219B","geometry":{"type":"Point","coordinates":[45.81962282447319,40.17657880282515,1991.979593932848]},"properties":{"name":"Əliəşrəf Həmzəyev"}},
{"type":"Feature","id":"095081942335F14762CB","geometry":{"type":"Point","coordinates":[45.81987200099049,40.17647084246118,1991.738341619877]},"properties":{"name":"Hidayət Həmzəyev"}},
{"type":"Feature","id":"028AECCD8635F147A6D1","geometry":{"type":"Point","coordinates":[45.81885425880704,40.17653037628238,1993.005005873169]},"properties":{"name":"Paşa Həmzəyev "}},
{"type":"Feature","id":"0F82C0B25735F14AF1D0","geometry":{"type":"Point","coordinates":[45.81914886785022,40.17713212216167,1991.614858940272]},"properties":{"name":"Rüstəm İbrahimov "}},
{"type":"Feature","id":"04EF6A882835F14B2BCE","geometry":{"type":"Point","coordinates":[45.81949366082371,40.17707788113061,1991.340746219415]},"properties":{"name":"Nazim Hacıyev (Qiyas Abdullayev) "}},
{"type":"Feature","id":"01AB36BF3235F14B980A","geometry":{"type":"Point","coordinates":[45.81957288592589,40.17750071050573,1989.994443894579]},"properties":{"name":"Eyyub İbrahimov "}},
{"type":"Feature","id":"0B77D79DEC35F14C0EAD","geometry":{"type":"Point","coordinates":[45.81961499033495,40.1779519519792,1989.457627034827]},"properties":{"name":"Qaytaran Hacıyev "}},
{"type":"Feature","id":"08880A1CB535F14CD5B6","geometry":{"type":"Point","coordinates":[45.81996102125291,40.17839035845638,1989.944657894807]},"properties":{"name":"Əlibaba-Alıbaba Yusifov"}},
{"type":"Feature","id":"00BCC9AB4835F14D85DE","geometry":{"type":"Point","coordinates":[45.81339065493663,40.17386382867505,2000.781404781929]},"properties":{"name":"Dəli-dolu İsmayıl"}},
{"type":"Feature","id":"0B19ED245F35F14DBC84","geometry":{"type":"Point","coordinates":[45.81327480142426,40.17445109136643,1998.459101801646]},"properties":{"name":"Eldar Tağıyev"}},
{"type":"Feature","id":"06287AC77235F14E0D1F","geometry":{"type":"Point","coordinates":[45.81504168693741,40.17453786185482,1997.513447138217]},"properties":{"name":"Hümbət Kəlbəcərli"}},
{"type":"Feature","id":"019730CC1B35F14E4BD2","geometry":{"type":"Point","coordinates":[45.81529671295709,40.17481515041586,1997.513447138217]},"properties":{"name":"Məhəmməd Kəlbəcərli"}},
{"type":"Feature","id":"0BF5DE282835F14F8D94","geometry":{"type":"Point","coordinates":[45.81497998044857,40.17363554976873,2002.598650771893]},"properties":{"name":"Əmiraslan Qazıyev "}},
{"type":"Feature","id":"07EB6B110835F14FCF56","geometry":{"type":"Point","coordinates":[45.81567406029916,40.17406382891206,2002.137634493853]},"properties":{"name":"Mərifət Abbasov"}},
{"type":"Feature","id":"0B8F2561C335F1502642","geometry":{"type":"Point","coordinates":[45.81595618432916,40.17424575468842,2001.571335685276]},"properties":{"name":"Niyazi İbrahimov "}},
{"type":"Feature","id":"0D5028700535F151083F","geometry":{"type":"Point","coordinates":[45.81701791327026,40.17442144743517,2002.509557073037]},"properties":{"name":"Cahangir Hacıyev"}},
{"type":"Feature","id":"03812FDD3635F1514115","geometry":{"type":"Point","coordinates":[45.81656067345114,40.17466673643029,2001.238282496176]},"properties":{"name":"Dilqəm Murtuzayev "}},
{"type":"Feature","id":"0E0102BD3835F151891B","geometry":{"type":"Point","coordinates":[45.81666071903955,40.17512121491703,2000.037393707939]},"properties":{"name":"Seyyub Qəribov "}},
{"type":"Feature","id":"0C8A045C5035F151BB08","geometry":{"type":"Point","coordinates":[45.81682982059157,40.17501688696287,2000.614603426586]},"properties":{"name":"Hidayət Rüstəmov "}},
{"type":"Feature","id":"01061536E235F151F589","geometry":{"type":"Point","coordinates":[45.81702904574974,40.17508939635421,2000.572099296909]},"properties":{"name":"Ziyəddin Abbasov "}},
{"type":"Feature","id":"026FF0C12335F1526E46","geometry":{"type":"Point","coordinates":[45.81780302777979,40.17518741213246,1999.222308252485]},"properties":{"name":"Bahəddin Hacıyev "}},
{"type":"Feature","id":"02BCBAFA0C35F152D874","geometry":{"type":"Point","coordinates":[45.81791791180912,40.17548623069684,1997.913536187509]},"properties":{"name":"Hamlet Abbasov"}},
{"type":"Feature","id":"0964E7FBF635F1531AA8","geometry":{"type":"Point","coordinates":[45.81709592547919,40.17550292249085,1999.40113469922]},"properties":{"name":"Qalib Cəlilov"}},
{"type":"Feature","id":"09366D4D4135F1536AC3","geometry":{"type":"Point","coordinates":[45.81748514075023,40.17592798101786,1997.678035566143]},"properties":{"name":"Sədrəddin Qarayev "}},
{"type":"Feature","id":"09E2674E9935F153A30C","geometry":{"type":"Point","coordinates":[45.81817932416921,40.17578277786026,1996.038446016737]},"properties":{"name":"Ziyadxan Yusifov"}},
{"type":"Feature","id":"05F9B9776335F15519E5","geometry":{"type":"Point","coordinates":[45.8152209555298,40.17531720392277,1997.651317503602]},"properties":{"name":"Hüsaməddin Hacıyev "}},
{"type":"Feature","id":"08F7EDAF9835F155656D","geometry":{"type":"Point","coordinates":[45.81530684472064,40.17587745069979,1996.519542904837]},"properties":{"name":"Dilqəm Abbasov"}},
{"type":"Feature","id":"0CA4F09BB735F1559E8E","geometry":{"type":"Point","coordinates":[45.81559735022409,40.17606325092768,1996.006542696298]},"properties":{"name":"Qulam Məcidov"}},
{"type":"Feature","id":"06260FFF1035F155E899","geometry":{"type":"Point","coordinates":[45.81619116153319,40.17652734270218,1995.012847591805]},"properties":{"name":"Ziqəm Vəliyev-Ellazov"}},
{"type":"Feature","id":"0F28648E1A35F156700B","geometry":{"type":"Point","coordinates":[45.81700850641857,40.17692169781258,1994.383249736586]},"properties":{"name":"Yusif Cabbarov "}},
{"type":"Feature","id":"0BBA54E4E335F156DE77","geometry":{"type":"Point","coordinates":[45.81738667862584,40.17681278184581,1994.469552127613]},"properties":{"name":"İsgəndər Cabbarov "}},
{"type":"Feature","id":"0E58EE175035F1577E06","geometry":{"type":"Point","coordinates":[45.81762021438888,40.17688318429826,1993.773084184945]},"properties":{"name":"Narış Quliyev "}},
{"type":"Feature","id":"06798F289435F157C99A","geometry":{"type":"Point","coordinates":[45.81793357994079,40.17693600498011,1993.094157895149]},"properties":{"name":"Nəsib Cabbarov "}},
{"type":"Feature","id":"0921926D1535F1580E74","geometry":{"type":"Point","coordinates":[45.81818710080229,40.17708190991154,1992.051381838915]},"properties":{"name":"Səyyad Quliyev "}},
{"type":"Feature","id":"0C08E1C08035F15864ED","geometry":{"type":"Point","coordinates":[45.81760114993199,40.1775896692349,1991.032241156604]},"properties":{"name":"Vaqif Cabbarov "}},
{"type":"Feature","id":"0800A4C0AE35F158CB60","geometry":{"type":"Point","coordinates":[45.81837320352297,40.17616175335706,1994.60482394516]},"properties":{"name":"Həmid Namazov"}},
{"type":"Feature","id":"0CE40596ED35F15AAF14","geometry":{"type":"Point","coordinates":[45.82052907850186,40.17723120429248,1989.999298489731]},"properties":{"name":"Şəmil Qaraşov"}},
{"type":"Feature","id":"0E8BC6F15935F15AF2ED","geometry":{"type":"Point","coordinates":[45.82116582962919,40.1774718690609,1990.94892147109]},"properties":{"name":"Xəlil Qaraşov"}},
{"type":"Feature","id":"0DDD501EA135F15B4D3A","geometry":{"type":"Point","coordinates":[45.82141007169083,40.1776444199053,1991.390125874166]},"properties":{"name":"Ətraf Qaraşov"}},
{"type":"Feature","id":"0C57616E7A35F15BA9EE","geometry":{"type":"Point","coordinates":[45.82172824871667,40.17766320588058,1991.685933038807]},"properties":{"name":"Həsən Qaraşov "}},
{"type":"Feature","id":"08751C22C435F15C207A","geometry":{"type":"Point","coordinates":[45.82090262840092,40.17803295518905,1990.645091352987]},"properties":{"name":"Nəbi Bayramov "}},
{"type":"Feature","id":"06EB1E6E4E35F15C65C7","geometry":{"type":"Point","coordinates":[45.82141523998252,40.17819467221879,1991.390111750316]},"properties":{"name":"Ələmdar Abbasov "}},
{"type":"Feature","id":"0DB7A3B88335F15CA3B1","geometry":{"type":"Point","coordinates":[45.82164399980373,40.17808467347046,1991.692352626945]},"properties":{"name":"Əmirxan Abbasov "}},
{"type":"Feature","id":"043316D7DA35F15F05F4","geometry":{"type":"Point","coordinates":[45.82314045583995,40.17829059350939,1992.085888757487]},"properties":{"name":"Babacan Əliyev"}},
{"type":"Feature","id":"0FC9194A9935F15F6C86","geometry":{"type":"Point","coordinates":[45.82478175000202,40.17866323439809,1992.474296268409]},"properties":{"name":"Safalan Alıyev"}},
{"type":"Feature","id":"06D014867E35F15F7616","geometry":{"type":"Point","coordinates":[45.82287751167787,40.17832872207545,1992.799628665871]},"properties":{"name":"Mehman Əmirov"}},
{"type":"Feature","id":"05F5E4B48F35F1607060","geometry":{"type":"Point","coordinates":[45.8222211884847,40.17863532812092,1991.620914468645]},"properties":{"name":"Şöhrət Əhmədov (Məhərrəm Yusibov)"}},
{"type":"Feature","id":"04352DA8DF35F16104B8","geometry":{"type":"Point","coordinates":[45.82181841055309,40.17904550398889,1989.903753487734]},"properties":{"name":"Çərkəz Musayev"}},
{"type":"Feature","id":"056160DB0A35F161693E","geometry":{"type":"Point","coordinates":[45.82136238985684,40.17865363619718,1990.256741320645]},"properties":{"name":"Bəşir Abbasov "}},
{"type":"Feature","id":"08BEFE4CF635F161A44C","geometry":{"type":"Point","coordinates":[45.82097556531473,40.17888930701633,1988.468057602436]},"properties":{"name":"Yaqub Abbasov "}},
{"type":"Feature","id":"01FC1F01E735F1622514","geometry":{"type":"Point","coordinates":[45.82213613596647,40.17936343348664,1990.351459679923]},"properties":{"name":"Salman Mövlayev "}},
{"type":"Feature","id":"01F1E3F82935F1628796","geometry":{"type":"Point","coordinates":[45.82173385488446,40.17952534989995,1988.93627372784]},"properties":{"name":"Əli Qasımov"}},
{"type":"Feature","id":"0E96DDB21235F1639AED","geometry":{"type":"Point","coordinates":[45.82330059559118,40.17871745455655,1991.801005340851]},"properties":{"name":"Bəhman Abdullayev "}},
{"type":"Feature","id":"059B5D271535F163F13D","geometry":{"type":"Point","coordinates":[45.82384764101887,40.17983160724145,1993.09934372315]},"properties":{"name":"Müslüm Vəliyev "}},
{"type":"Feature","id":"0460A181EA35F1643998","geometry":{"type":"Point","coordinates":[45.825136554415,40.17917274503876,1993.099507747388]},"properties":{"name":"Zahid Bədəlov"}},
{"type":"Feature","id":"01FB3DEB6D35F1646FA2","geometry":{"type":"Point","coordinates":[45.82485514843327,40.1790438076673,1993.099401964225]},"properties":{"name":"Məhəmmədəli Vəliyev"}},
{"type":"Feature","id":"0F65F261F735F164A2F7","geometry":{"type":"Point","coordinates":[45.82449904153876,40.17955173645567,1992.050317727658]},"properties":{"name":"Meydan Vəliyev "}},
{"type":"Feature","id":"032243D4AD35F164DE63","geometry":{"type":"Point","coordinates":[45.82432641413686,40.1790051871323,1992.511573642892]},"properties":{"name":"Fəxrəddin Vəliyev"}},
{"type":"Feature","id":"0DD00E8FC935F1651CDC","geometry":{"type":"Point","coordinates":[45.82372295359814,40.179156330677,1991.480810342317]},"properties":{"name":"İlyas Qəribov (Fəxrəddin Vəliyev)"}},
{"type":"Feature","id":"015DBB084D35F1658B72","geometry":{"type":"Point","coordinates":[45.82335707265376,40.18019503467594,1990.825782906123]},"properties":{"name":"Əli Vəliyev"}},
{"type":"Feature","id":"03685A4DB135F165D2FD","geometry":{"type":"Point","coordinates":[45.82334119980457,40.17948628704669,1990.518519283575]},"properties":{"name":"İbrahim Vəliyev"}},
{"type":"Feature","id":"0A997603E835F1661599","geometry":{"type":"Point","coordinates":[45.82326476437206,40.17967477043026,1990.132183015959]},"properties":{"name":"Şəmistan Bayramov"}},
{"type":"Feature","id":"0EB9D4672235F1664D33","geometry":{"type":"Point","coordinates":[45.82292050830014,40.18056291046013,1990.470135167829]},"properties":{"name":"Hüseynalı Həmzəyev"}},
{"type":"Feature","id":"0D10E55AF235F166A01D","geometry":{"type":"Point","coordinates":[45.82295946879788,40.17977604612737,1989.999280051204]},"properties":{"name":"Hidayət Yusibov"}},
{"type":"Feature","id":"0B70D9DEC035F166EEFF","geometry":{"type":"Point","coordinates":[45.82248055087656,40.18081185816139,1989.439811606464]},"properties":{"name":"Abdulla Nəsibov "}},
{"type":"Feature","id":"0EA8C24CC135F16737F0","geometry":{"type":"Point","coordinates":[45.82213356332315,40.18097215012484,1988.390961347084]},"properties":{"name":"Transformator "}},
{"type":"Feature","id":"066FE45FB235F169396C","geometry":{"type":"Point","coordinates":[45.82215639246155,40.18041334401758,1988.413099114797]},"properties":{"name":"Məhəmməd Mehdiyev"}},
{"type":"Feature","id":"038641DDEB35F16981E1","geometry":{"type":"Point","coordinates":[45.82206560375416,40.18054995463926,1988.247767523969]},"properties":{"name":"Suliddin Qələndərov (Abbasəli) "}},
{"type":"Feature","id":"0B06C42BC735F16A49A1","geometry":{"type":"Point","coordinates":[45.8218974591305,40.18026866838599,1988.264508843754]},"properties":{"name":"Səhman Mehdiyev"}},
{"type":"Feature","id":"0A41FA95FE35F16A8BA0","geometry":{"type":"Point","coordinates":[45.82183201237564,40.18001876545807,1988.467511092637]},"properties":{"name":"İbrahim Abbasov "}},
{"type":"Feature","id":"0877FA4D9135F16AD027","geometry":{"type":"Point","coordinates":[45.82170602886178,40.17993229722309,1988.33408947251]},"properties":{"name":"Nəcəf Abbasov "}},
{"type":"Feature","id":"06BEDC6B0535F16B4388","geometry":{"type":"Point","coordinates":[45.82200427107984,40.1801489339189,1988.646026579849]},"properties":{"name":"Sultan Quliyev "}},
{"type":"Feature","id":"0E92D861D235F16B7A44","geometry":{"type":"Point","coordinates":[45.82217975777743,40.18011242721326,1989.047565042524]},"properties":{"name":"Bilman İsmayılov"}},
{"type":"Feature","id":"04EE25E25635F16CDDC6","geometry":{"type":"Point","coordinates":[45.81901790399957,40.17802685847948,1989.182993225403]},"properties":{"name":"Ömrü Yusifov "}},
{"type":"Feature","id":"0278C8331335F16D1494","geometry":{"type":"Point","coordinates":[45.81946871568703,40.17848844858381,1989.183407621188]},"properties":{"name":"Xəqani Mirzəyev "}},
{"type":"Feature","id":"0B4B41EB5B35F16D698B","geometry":{"type":"Point","coordinates":[45.81946387865062,40.17913005368418,1988.154239555952]},"properties":{"name":"Zülfiqar-Sultanəli Yusifov "}},
{"type":"Feature","id":"00B4DE210135F16DA82D","geometry":{"type":"Point","coordinates":[45.82022414911123,40.17933104160278,1987.489519376156]},"properties":{"name":"Aptek "}},
{"type":"Feature","id":"0D3DDAFAFF35F16DD761","geometry":{"type":"Point","coordinates":[45.81988430183559,40.17997817435562,1987.672489534588]},"properties":{"name":"Müzəffər İsmayılov "}},
{"type":"Feature","id":"070A0967D435F16E24AA","geometry":{"type":"Point","coordinates":[45.8194478445368,40.17995402492873,1987.902286368588]},"properties":{"name":"Möhöbbət İsmayılov "}},
{"type":"Feature","id":"0F3FA8F12F35F16EB0CC","geometry":{"type":"Point","coordinates":[45.82075038374914,40.17996851057386,1986.917895345782]},"properties":{"name":"Əzim İsmayılov"}},
{"type":"Feature","id":"067F52B78A35F16F02D5","geometry":{"type":"Point","coordinates":[45.82140906512387,40.18063786401378,1987.526071707968]},"properties":{"name":"Əhməd Murtuzayev (Kazım Abbasov)"}},
{"type":"Feature","id":"01D901A49335F1701AFE","geometry":{"type":"Point","coordinates":[45.82134467675572,40.18095365365431,1987.835750558312]},"properties":{"name":"Əbülfət İsmayılov"}},
{"type":"Feature","id":"05F0456F8935F1710621","geometry":{"type":"Point","coordinates":[45.8213934876262,40.18116693430456,1987.956756113595]},"properties":{"name":"Əlif Namazov "}},
{"type":"Feature","id":"06165967E635F1716CE0","geometry":{"type":"Point","coordinates":[45.82118444872417,40.18150825732761,1987.419923810127]},"properties":{"name":"Əmiraslan Musayev (Xanbaba Abbasov)"}},
{"type":"Feature","id":"032965072935F17208BE","geometry":{"type":"Point","coordinates":[45.82112123693472,40.18166321924918,1987.217605133496]},"properties":{"name":"Ələddin Hacıyev"}},
{"type":"Feature","id":"0283F26CA935F17270D9","geometry":{"type":"Point","coordinates":[45.82104416996894,40.18139078798309,1987.439135425726]},"properties":{"name":"Əli Bağırov"}},
{"type":"Feature","id":"04808A2AE335F173010F","geometry":{"type":"Point","coordinates":[45.8208238624225,40.18112898257088,1987.371587710377]},"properties":{"name":"Baris Bağırov"}},
{"type":"Feature","id":"0A3414A90A35F1734519","geometry":{"type":"Point","coordinates":[45.82050711288224,40.18136968264117,1986.960592794237]},"properties":{"name":"Əkbər İsmayılov"}},
{"type":"Feature","id":"0159B0FE7135F17387F4","geometry":{"type":"Point","coordinates":[45.82063943188979,40.18182949029998,1986.980167477933]},"properties":{"name":"Qarayev Bəhman"}},
{"type":"Feature","id":"0E79D70C0135F174F355","geometry":{"type":"Point","coordinates":[45.82316638916228,40.1811211963116,1990.095674007753]},"properties":{"name":"Şahbaz Əmirov "}},
{"type":"Feature","id":"09D6AEDECF35F17540F0","geometry":{"type":"Point","coordinates":[45.82281271186407,40.18137852177724,1989.734072196841]},"properties":{"name":"Qoşqar Əmirov "}},
{"type":"Feature","id":"09FA9CF94735F1757BFE","geometry":{"type":"Point","coordinates":[45.82316331769145,40.18147444161065,1990.008634065735]},"properties":{"name":"Cəmil Abdullayev "}},
{"type":"Feature","id":"04C977B40E35F175BF1E","geometry":{"type":"Point","coordinates":[45.82259896288328,40.18152455365805,1989.797620771899]},"properties":{"name":"Dəyirman"}},
{"type":"Feature","id":"0E4492927B35F175E75B","geometry":{"type":"Point","coordinates":[45.8223058629426,40.18151729492823,1989.261166240383]},"properties":{"name":"Məişət evi "}},
{"type":"Feature","id":"04DCA5394835F1764F0F","geometry":{"type":"Point","coordinates":[45.82250896900873,40.1820263003402,1990.165462148454]},"properties":{"name":"Kolxoz anbarı "}},
{"type":"Feature","id":"095AF4F64535F17684EA","geometry":{"type":"Point","coordinates":[45.82234913391413,40.18177370337542,1989.515979951492]},"properties":{"name":"Kənd soveti (İcra hakimiyyəti)"}},
{"type":"Feature","id":"0B1B39DB0F35F176EB12","geometry":{"type":"Point","coordinates":[45.82192128867879,40.18200570851558,1988.932651005684]},"properties":{"name":"Kolxozun idarə heyətinin binası "}},
{"type":"Feature","id":"03F621430E35F17A753D","geometry":{"type":"Point","coordinates":[45.82287913451783,40.18219821947362,1990.617449875875]},"properties":{"name":"Köhnə məişət evləri "}},
{"type":"Feature","id":"0DD0A7C8A935F17AB1B9","geometry":{"type":"Point","coordinates":[45.82300848235317,40.1823168886207,1990.771971729457]},"properties":{"name":"Məscid"}},
{"type":"Feature","id":"0036CDF8F535F17AE0BB","geometry":{"type":"Point","coordinates":[45.82313400863177,40.18230536117667,1990.734123813129]},"properties":{"name":"Dəmirçi"}},
{"type":"Feature","id":"0C074D5C2635F17B1EF9","geometry":{"type":"Point","coordinates":[45.82269696968321,40.18172012310708,1989.856676930089]},"properties":{"name":"Kolxoz anbarı "}},
{"type":"Feature","id":"01B9792C4435F17BEC63","geometry":{"type":"Point","coordinates":[45.82301931754914,40.18187250641155,1990.071058111318]},"properties":{"name":"Bəhman Quliyev "}},
{"type":"Feature","id":"076BC921D035F17C5CC5","geometry":{"type":"Point","coordinates":[45.82316918078921,40.18247928300167,1991.04248070991]},"properties":{"name":"Tibb məntəqəsi "}},
{"type":"Feature","id":"0EBFAC8CE635F17C9180","geometry":{"type":"Point","coordinates":[45.82353644551512,40.18233299369765,1990.789818108912]},"properties":{"name":"Məktəbin transformatoru "}},
{"type":"Feature","id":"0EA659BDAD35F17CD9C5","geometry":{"type":"Point","coordinates":[45.82340646221245,40.18179813103592,1989.999318270759]},"properties":{"name":"Səfyar Musayev "}},
{"type":"Feature","id":"07BA3ED5A735F17D1558","geometry":{"type":"Point","coordinates":[45.82361115215622,40.18171448615956,1989.99932192904]},"properties":{"name":"Namaz Musayev"}},
{"type":"Feature","id":"047E226FDB35F17D6C46","geometry":{"type":"Point","coordinates":[45.82379118168708,40.18152007855331,1990.308377441446]},"properties":{"name":"Hüseyn Ramazanov "}},
{"type":"Feature","id":"09BDF4833A35F17DA577","geometry":{"type":"Point","coordinates":[45.82405710137379,40.18141983939895,1990.544303716368]},"properties":{"name":"Həbib Qəhrəmanaov"}},
{"type":"Feature","id":"0CA719173835F1800ADE","geometry":{"type":"Point","coordinates":[45.82429110335286,40.18140139320207,1990.574905618281]},"properties":{"name":"Urxan Qəhrəmanov Mayıs oğlu"}},
{"type":"Feature","id":"08A81BFEC435F18097BF","geometry":{"type":"Point","coordinates":[45.82392253159235,40.18103917472391,1990.950361290328]},"properties":{"name":"Qaraş İbrahimov "}},
{"type":"Feature","id":"0C3823A13835F183F0E7","geometry":{"type":"Point","coordinates":[45.82394963586544,40.18061276029458,1991.035548832318]},"properties":{"name":"Cəmşid Rüstəmov"}},
{"type":"Feature","id":"07BEB1932735F1845E48","geometry":{"type":"Point","coordinates":[45.82375663994535,40.18047423378817,1990.687785194089]},"properties":{"name":"Şəmil Ramazanov"}},
{"type":"Feature","id":"000935C79A35F184AB4F","geometry":{"type":"Point","coordinates":[45.8240712007757,40.18036485630255,1991.081050569415]},"properties":{"name":"Hüseynalı Bayramov"}},
{"type":"Feature","id":"01637B9DF335F184E8F7","geometry":{"type":"Point","coordinates":[45.82427324762073,40.18033051248268,1990.994439711475]},"properties":{"name":"Xanış İbrahimov"}},
{"type":"Feature","id":"0CB80FC69735F1853010","geometry":{"type":"Point","coordinates":[45.8244566249389,40.18009803700171,1991.381201396402]},"properties":{"name":"Abbas Vəliyev"}},
{"type":"Feature","id":"0F83EB682B35F18572BC","geometry":{"type":"Point","coordinates":[45.82477681965327,40.18001883122197,1991.740771047914]},"properties":{"name":"Malik Vəliyev"}},
{"type":"Feature","id":"036772E99535F185A238","geometry":{"type":"Point","coordinates":[45.8251431878057,40.17981941020215,1992.633630376717]},"properties":{"name":"Ənvər Əhmədov "}},
{"type":"Feature","id":"0DB80B680A35F18630B7","geometry":{"type":"Point","coordinates":[45.82582209158494,40.17955990988664,1993.250520567033]},"properties":{"name":"Fəzail İbrahimov (İnqilab Qocayev)"}},
{"type":"Feature","id":"0626B094E435F1869E6B","geometry":{"type":"Point","coordinates":[45.82641177935351,40.17977779085025,1994.092574419793]},"properties":{"name":"Şadman İbrahimov "}},
{"type":"Feature","id":"00624D634C35F186CB16","geometry":{"type":"Point","coordinates":[45.82635059292782,40.17900332979595,1994.681314122698]},"properties":{"name":"Telman Qəhrəmanov"}},
{"type":"Feature","id":"0F774FDF6B35F1871C36","geometry":{"type":"Point","coordinates":[45.82685631389099,40.17922462260309,1995.262916671212]},"properties":{"name":"Nuridin Musayev"}},
{"type":"Feature","id":"01E08E377F35F1876F5E","geometry":{"type":"Point","coordinates":[45.82717443323948,40.17930261803885,1995.636363360043]},"properties":{"name":"Ramiz Mirzəliyev(Süsən)"}},
{"type":"Feature","id":"0B83D6465335F187C020","geometry":{"type":"Point","coordinates":[45.8276773736746,40.17953268563204,1995.766427722444]},"properties":{"name":"Valeh Əliyev"}},
{"type":"Feature","id":"01C30A8A8B35F187F6B7","geometry":{"type":"Point","coordinates":[45.82684896620349,40.18011013045734,1994.611917422283]},"properties":{"name":"Nəcəf Nəcəfov (Ağalar Musayev)"}},
{"type":"Feature","id":"02B012400535F1885467","geometry":{"type":"Point","coordinates":[45.82629841325448,40.18046054069168,1993.280883563125]},"properties":{"name":"Səfər Əliyev"}},
{"type":"Feature","id":"0C27F4568B35F18889CA","geometry":{"type":"Point","coordinates":[45.82538498398736,40.18037005298046,1992.231034477096]},"properties":{"name":"Hacı Ağayev (Talıb Musayev)"}},
{"type":"Feature","id":"054BF4476635F188DC7B","geometry":{"type":"Point","coordinates":[45.82535096312835,40.18076348596655,1991.554042204053]},"properties":{"name":"Şahin Əliyev "}},
{"type":"Feature","id":"0FB9DC26B235F1891284","geometry":{"type":"Point","coordinates":[45.82465007765687,40.18136210851333,1990.709113717844]},"properties":{"name":"Qafar Əliyev"}},
{"type":"Feature","id":"05479CB73835F189B859","geometry":{"type":"Point","coordinates":[45.82491513546177,40.18117891348728,1990.873169912603]},"properties":{"name":"Həsən Əliyev"}},
{"type":"Feature","id":"05ACF786DB35F18A0004","geometry":{"type":"Point","coordinates":[45.82451040611096,40.18096078224561,1990.935880058093]},"properties":{"name":"Nəriman Musayev "}},
{"type":"Feature","id":"0E9ABEE11735F18B2961","geometry":{"type":"Point","coordinates":[45.82566014287611,40.18210980032244,1990.393311385076]},"properties":{"name":"Şura Məmişov"}},
{"type":"Feature","id":"03DEF03B6A35F18B6248","geometry":{"type":"Point","coordinates":[45.82623468677607,40.18196923673495,1990.791078477171]},"properties":{"name":"Məşədi Rəşid (Gilas)"}},
{"type":"Feature","id":"075E23353E35F18B9F48","geometry":{"type":"Point","coordinates":[45.82558755739694,40.18134090820254,1991.244883415241]},"properties":{"name":"Hüseyn Əliyev "}},
{"type":"Feature","id":"0D9605C11335F18BF6EC","geometry":{"type":"Point","coordinates":[45.82627762837193,40.18160638867462,1991.28533635001]},"properties":{"name":"Quliyev Mirzə (Sabir Qəhrəmanov)"}},
{"type":"Feature","id":"07D63C303935F18C4EAF","geometry":{"type":"Point","coordinates":[45.8269409636904,40.18168009990356,1991.868449826477]},"properties":{"name":"Cavad Abdullayev "}},
{"type":"Feature","id":"0EF63F96B535F18CCE03","geometry":{"type":"Point","coordinates":[45.82724407481504,40.18149210728136,1993.043311076007]},"properties":{"name":"Məhərrəm Abdullayev"}},
{"type":"Feature","id":"04C5AF135C35F18D4125","geometry":{"type":"Point","coordinates":[45.82646746594092,40.180968074085,1992.450788664115]},"properties":{"name":"Bəhrəm Cəlilov"}},
{"type":"Feature","id":"002008CC8A35F18D8582","geometry":{"type":"Point","coordinates":[45.82726319362403,40.181011362747,1993.716533212043]},"properties":{"name":"Camal Cəlilov"}},
{"type":"Feature","id":"0D1D88806635F18DC2B0","geometry":{"type":"Point","coordinates":[45.82722217314768,40.18059813719994,1994.006648002701]},"properties":{"name":"Ələsgər Cəlilov"}},
{"type":"Feature","id":"0F384D624E35F18E15DD","geometry":{"type":"Point","coordinates":[45.8278453450548,40.18139610931653,1994.003372432432]},"properties":{"name":"Şahmalı Əliyev"}},
{"type":"Feature","id":"0EDA6D285D35F18E65AC","geometry":{"type":"Point","coordinates":[45.82801115685437,40.18099298086636,1994.145198330156]},"properties":{"name":"Şəmşir Əliyev (Qədir)"}},
{"type":"Feature","id":"0383BB96AE35F18EA7F4","geometry":{"type":"Point","coordinates":[45.82828889442979,40.18122352981552,1994.436901902527]},"properties":{"name":"Xasməmməd Əliyev "}},
{"type":"Feature","id":"0506E106D135F18EE780","geometry":{"type":"Point","coordinates":[45.82767549812326,40.18077821544065,1994.335625032394]},"properties":{"name":"Elin Abdullayev"}},
{"type":"Feature","id":"0F596B9CB635F18F1A8B","geometry":{"type":"Point","coordinates":[45.82786072407092,40.1806243890676,1994.644763259291]},"properties":{"name":"Fazil Abdullayev "}},
{"type":"Feature","id":"086487ED2D35F18F62A2","geometry":{"type":"Point","coordinates":[45.82789944871055,40.18008492274867,1995.543516243909]},"properties":{"name":"Ağakişi Quliyev "}},
{"type":"Feature","id":"06435E0FD335F18FAB6D","geometry":{"type":"Point","coordinates":[45.82815574576333,40.17970232394355,1995.543516243909]},"properties":{"name":"Firdus Quliyev "}},
{"type":"Feature","id":"0E5E07FC8235F1900A25","geometry":{"type":"Point","coordinates":[45.82856415670634,40.18010713998059,1995.543516243909]},"properties":{"name":"Qarakişi Quliyev "}},
{"type":"Feature","id":"0D83DEBFF635F1907968","geometry":{"type":"Point","coordinates":[45.82907036501999,40.18001670416896,1995.881017190843]},"properties":{"name":"Nizami Quliyev"}},
{"type":"Feature","id":"0E43C349F835F1912C02","geometry":{"type":"Point","coordinates":[45.83065948646916,40.18033346614136,1998.662744924449]},"properties":{"name":"Valeh Rüstəmov"}},
{"type":"Feature","id":"048E0C999235F191799C","geometry":{"type":"Point","coordinates":[45.8300199075624,40.18061151376721,1997.823048140459]},"properties":{"name":"Zakir Vəliyev"}},
{"type":"Feature","id":"02BAB60E0E35F191F6F1","geometry":{"type":"Point","coordinates":[45.82943932332188,40.18045827080973,1995.881068133747]},"properties":{"name":"Xasay Rüstəmov"}},
{"type":"Feature","id":"0B799B6FBA35F1923A00","geometry":{"type":"Point","coordinates":[45.82901432128923,40.18067164234657,1995.497551539075]},"properties":{"name":"Fazil Qəribov ( Famil Qasımov )"}},
{"type":"Feature","id":"036A7563CF35F1926E8D","geometry":{"type":"Point","coordinates":[45.8294211390556,40.18091433313012,1996.023502064328]},"properties":{"name":"Bilman Müseyibov "}},
{"type":"Feature","id":"0BFD7A7E4035F1929EDC","geometry":{"type":"Point","coordinates":[45.82887468871137,40.18107862107399,1995.38239426193]},"properties":{"name":"Xəlid Əhmədov"}},
{"type":"Feature","id":"080D336F7835F192F66C","geometry":{"type":"Point","coordinates":[45.82852954645967,40.18070324414003,1994.953754218461]},"properties":{"name":"Əmirxan Qasımov"}},
{"type":"Feature","id":"0AD465B4C035F19A1679","geometry":{"type":"Point","coordinates":[45.82526624309788,40.18249033571811,1989.053455590357]},"properties":{"name":"Köhnə poçt və məktəbin kitabxanası"}},
{"type":"Feature","id":"08695160E335F19AE755","geometry":{"type":"Point","coordinates":[45.82475238999655,40.18226520834698,1989.907958862541]},"properties":{"name":"Köhnə məktəb"}},
{"type":"Feature","id":"0898E54FA435F19B4998","geometry":{"type":"Point","coordinates":[45.82439839555859,40.18229036197565,1990.235864593148]},"properties":{"name":"Məktəbin idman zalı"}},
{"type":"Feature","id":"0CB9881CF835F19B8CD8","geometry":{"type":"Point","coordinates":[45.82408371514963,40.18258991598093,1990.534998901894]},"properties":{"name":"Məktəb"}},
{"type":"Feature","id":"04256EACC335F19BBADC","geometry":{"type":"Point","coordinates":[45.82346762985681,40.18291717934996,1989.555430730945]},"properties":{"name":"Yanacaq anbarı "}},
{"type":"Feature","id":"0AAFB5276C35F19BEEF6","geometry":{"type":"Point","coordinates":[45.82348257754188,40.18271200457448,1990.340595579154]},"properties":{"name":"Məktəbin qazanxanası "}},
{"type":"Feature","id":"0B6C8BE88A35F19CF913","geometry":{"type":"Point","coordinates":[45.82998898152597,40.18130234142082,1997.100442250022]},"properties":{"name":"Məhəmmədəli Tağıyev"}},
{"type":"Feature","id":"0425BA59D435F19D40A6","geometry":{"type":"Point","coordinates":[45.83063474595622,40.18146659545376,1998.053738825708]},"properties":{"name":"Molla Qasım "}},
{"type":"Feature","id":"01970D757635F19D8452","geometry":{"type":"Point","coordinates":[45.83071719082245,40.18183382115416,1997.65130268516]},"properties":{"name":"Çapay Müseyibov"}},
{"type":"Feature","id":"000B41215535F19DD169","geometry":{"type":"Point","coordinates":[45.8301613533604,40.18165158786964,1996.471085856894]},"properties":{"name":"Əsədullah Nəcəfov"}},
{"type":"Feature","id":"0D46DDF53F35F19E0D92","geometry":{"type":"Point","coordinates":[45.82952523754683,40.18163447462105,1995.362986334158]},"properties":{"name":"Eyvaz Əhmədov "}},
{"type":"Feature","id":"02CB6264A835F19E59AF","geometry":{"type":"Point","coordinates":[45.82976621070929,40.18196424992883,1995.268855830607]},"properties":{"name":"Davud Əhmədov "}},
{"type":"Feature","id":"0BC8C2DA4A35F19F2CE6","geometry":{"type":"Point","coordinates":[45.83005798306403,40.18215690300715,1995.369585206347]},"properties":{"name":"Şəmistan Müseyibov"}},
{"type":"Feature","id":"0469B4E74B35F19F5C7B","geometry":{"type":"Point","coordinates":[45.83056487544428,40.18228270310198,1996.107600295929]},"properties":{"name":"Rəsul Müseyibov"}},
{"type":"Feature","id":"0398F19DB535F19F8B1A","geometry":{"type":"Point","coordinates":[45.82984111898722,40.18229272529842,1995.147975239705]},"properties":{"name":"Müseyibov Nuşrəvan (Allahverdi Müseyibov)"}},
{"type":"Feature","id":"0215909FFF35F19FD736","geometry":{"type":"Point","coordinates":[45.82945648427264,40.18212054802444,1994.94454339747]},"properties":{"name":"Mehdi Tanrıverdiyev "}},
{"type":"Feature","id":"00DABF5A5235F1A0A332","geometry":{"type":"Point","coordinates":[45.8284004757194,40.1820770276988,1994.277072592303]},"properties":{"name":"Hətəm Əkbərov"}},
{"type":"Feature","id":"0E616B9A1A35F1A05071","geometry":{"type":"Point","coordinates":[45.82866372881941,40.18197068123441,1994.255983830232]},"properties":{"name":"Məsi Həşimov "}},
{"type":"Feature","id":"00802B686635F1A0FE29","geometry":{"type":"Point","coordinates":[45.82635336347406,40.18245993093493,1990.032756610615]},"properties":{"name":"Transformator"}},
{"type":"Feature","id":"0F6D92A4A635F1A134B5","geometry":{"type":"Point","coordinates":[45.82707311256984,40.18250266799609,1991.980874250479]},"properties":{"name":"Şahvələd Mehdiyev "}},
{"type":"Feature","id":"043BD2A31735F1A18CBE","geometry":{"type":"Point","coordinates":[45.82736788649293,40.18262978230963,1992.140052811122]},"properties":{"name":"İsgəndər Həsənov"}},
{"type":"Feature","id":"0A0F104C0F35F1A3E11E","geometry":{"type":"Point","coordinates":[45.82762550361301,40.18271249994077,1992.373339901017]},"properties":{"name":"Vahid Hüseynov "}},
{"type":"Feature","id":"08E763B4C435F1A45ED8","geometry":{"type":"Point","coordinates":[45.82822408551851,40.18291563115811,1992.42716876786]},"properties":{"name":"Məhərrəm Qurbanov "}},
{"type":"Feature","id":"0AA9EAC77335F1A49C42","geometry":{"type":"Point","coordinates":[45.82857632718772,40.18281381709301,1993.75048717002]},"properties":{"name":"Şahmalı Qurbanov "}},
{"type":"Feature","id":"041B321CD435F1A4E954","geometry":{"type":"Point","coordinates":[45.82900616844463,40.18253797302307,1994.882277287478]},"properties":{"name":"Zərbalı Qurbanov"}},
{"type":"Feature","id":"09813AAD8235F1ABA478","geometry":{"type":"Point","coordinates":[45.83064212294624,40.18266378294589,1995.541417085346]},"properties":{"name":"Xasay Mahmudov"}},
{"type":"Feature","id":"02899582A435F1AC744A","geometry":{"type":"Point","coordinates":[45.83010030134693,40.18258897953998,1994.944488156864]},"properties":{"name":"Cəfərqulu Alıyev"}},
{"type":"Feature","id":"0B328C027035F1ACF0C1","geometry":{"type":"Point","coordinates":[45.8309303055254,40.18293251644108,1995.273393142758]},"properties":{"name":"Hüseyn İsmayılov"}},
{"type":"Feature","id":"0465FEDB5035F1AD7534","geometry":{"type":"Point","coordinates":[45.83138461437444,40.18312022999888,1994.944482619931]},"properties":{"name":"Əli Əliyev "}},
{"type":"Feature","id":"008F98BF2335F1ADBE60","geometry":{"type":"Point","coordinates":[45.83073109330768,40.18338641208131,1994.740969169458]},"properties":{"name":"Nəcəfov Qurban "}},
{"type":"Feature","id":"00F9A123BE35F1AE1626","geometry":{"type":"Point","coordinates":[45.83032530798521,40.18310919818249,1994.944444737061]},"properties":{"name":"Əkbər Hacıyev"}},
{"type":"Feature","id":"094D1038D735F1AE6893","geometry":{"type":"Point","coordinates":[45.82989890796659,40.18306860241045,1994.745408248424]},"properties":{"name":"Şubay Hacıyev"}},
{"type":"Feature","id":"0593E0561B35F1AED0C0","geometry":{"type":"Point","coordinates":[45.82973894202263,40.18308167717213,1994.509604026536]},"properties":{"name":"Bayram Hacıyev"}},
{"type":"Feature","id":"02935719B535F1AF15B1","geometry":{"type":"Point","coordinates":[45.82991887965914,40.18335234684412,1994.326291828755]},"properties":{"name":"Sultan Hacıyev"}},
{"type":"Feature","id":"0F76202C3D35F1AF9AAE","geometry":{"type":"Point","coordinates":[45.82953423620173,40.18374383388731,1993.323917856338]},"properties":{"name":"Fətəli Qurbanov "}},
{"type":"Feature","id":"008429DBD435F1AFE475","geometry":{"type":"Point","coordinates":[45.82911480867065,40.18408938881782,1991.39873522061]},"properties":{"name":"Ələsdan Qurbanov"}},
{"type":"Feature","id":"04F0EA4ED335F1B0186F","geometry":{"type":"Point","coordinates":[45.82884257421725,40.18347915477052,1992.210124416239]},"properties":{"name":"Şadman Qurbanov (Talıb Qarayev)"}},
{"type":"Feature","id":"00340F63CF35F1B0997A","geometry":{"type":"Point","coordinates":[45.82825175090443,40.18357761918644,1990.813647176494]},"properties":{"name":"Sultanəli Qurbanov "}},
{"type":"Feature","id":"087F7A173B35F1B10582","geometry":{"type":"Point","coordinates":[45.8282561915364,40.1839558876799,1990.278297953625]},"properties":{"name":"İbrahim Həsənov "}},
{"type":"Feature","id":"021E8B9AA335F1B1CAD5","geometry":{"type":"Point","coordinates":[45.82785514998239,40.18372933348437,1989.958739153598]},"properties":{"name":"Maşallah Xudiyev"}},
{"type":"Feature","id":"028AA27C1E35F1B279B7","geometry":{"type":"Point","coordinates":[45.82781300223927,40.18430994153636,1989.774021356924]},"properties":{"name":"Tümən Alıyev"}},
{"type":"Feature","id":"04A900AF9B35F1B2B99B","geometry":{"type":"Point","coordinates":[45.82736106775612,40.18463871162187,1988.970089576523]},"properties":{"name":"Əkbər Nəcəfov"}},
{"type":"Feature","id":"00700BF54035F1B2F6A0","geometry":{"type":"Point","coordinates":[45.82682085892067,40.18487605078891,1988.154162504298]},"properties":{"name":"Əli İsmayılov "}},
{"type":"Feature","id":"076DD20F8D35F1B33920","geometry":{"type":"Point","coordinates":[45.82651494607939,40.18447207726078,1988.154240083616]},"properties":{"name":"Səməndər Abbasov"}},
{"type":"Feature","id":"03DC0D556B35F1B36DF2","geometry":{"type":"Point","coordinates":[45.8267598098904,40.18438747380729,1988.200991980868]},"properties":{"name":"Bayram Abbasov "}},
{"type":"Feature","id":"0501EA95AA35F1B4518C","geometry":{"type":"Point","coordinates":[45.82665245648821,40.18403672000968,1988.154198986665]},"properties":{"name":"Fərhad Cəlilov "}},
{"type":"Feature","id":"05668ABFA835F1B4A6A2","geometry":{"type":"Point","coordinates":[45.82611468561486,40.18381810039879,1988.191449106532]},"properties":{"name":"Sahib Musayev "}},
{"type":"Feature","id":"0B1D2BF54A35F1B4EDC6","geometry":{"type":"Point","coordinates":[45.82694190635863,40.18381048701691,1988.411446780004]},"properties":{"name":" Surxay Qurbanov (Vaqif Musayev,Gurzalı Musayev)"}},
{"type":"Feature","id":"01679B29D235F1B7A8D4","geometry":{"type":"Point","coordinates":[45.8269405392765,40.18338593742246,1989.181996887121]},"properties":{"name":"Elburus Verdiyev "}},
{"type":"Feature","id":"0065AFC11E35F1B9062B","geometry":{"type":"Point","coordinates":[45.82643189025955,40.18318191406574,1988.917561089854]},"properties":{"name":"Qədim Nəsibov"}},
{"type":"Feature","id":"0DA1398D4135F1B949B0","geometry":{"type":"Point","coordinates":[45.82596586004711,40.18297434470738,1988.917550130572]},"properties":{"name":"Nurəddin Cabbarov "}},
{"type":"Feature","id":"0C961A011A35F1B98222","geometry":{"type":"Point","coordinates":[45.82571965323381,40.18309503618238,1988.917542840889]},"properties":{"name":"Məmməd Qurbanov "}},
{"type":"Feature","id":"07FAD7BA8F35F1B9E787","geometry":{"type":"Point","coordinates":[45.82537274990667,40.18327814732493,1988.872098354613]},"properties":{"name":"Şahsuvar Mehdiyev (Zülfiqar Qasıımov) "}},
{"type":"Feature","id":"0D3B6A17D935F1BA74F1","geometry":{"type":"Point","coordinates":[45.82478751603755,40.18350118628069,1988.144863028706]},"properties":{"name":"Əhliman Ağayev "}},
{"type":"Feature","id":"0CD299598635F1BB00D6","geometry":{"type":"Point","coordinates":[45.82515793126362,40.1845629947295,1987.039210131888]},"properties":{"name":"Qərib İbrahimov "}},
{"type":"Feature","id":"0B007D4AB935F1BB33A0","geometry":{"type":"Point","coordinates":[45.82491796334021,40.1843140646024,1987.378636954274]},"properties":{"name":"Mürsəl İbrahimov"}},
{"type":"Feature","id":"091F211B1F35F1BC1AD1","geometry":{"type":"Point","coordinates":[45.82870239139719,40.18438053139953,1990.261248284344]},"properties":{"name":"Yenvar Hacıyev"}},
{"type":"Feature","id":"05EE2680B735F1BC5045","geometry":{"type":"Point","coordinates":[45.8282622239572,40.18464175247188,1989.976165494235]},"properties":{"name":"Fərəməz Həsənov (Kamandar Musayev)"}},
{"type":"Feature","id":"00366E181B35F1BCF35E","geometry":{"type":"Point","coordinates":[45.82791228570892,40.18490717541226,1989.603303986031]},"properties":{"name":"Əli Kəlbəcərli (Rafiq Həşimov)"}},
{"type":"Feature","id":"068E72FA8835F1BD6DD5","geometry":{"type":"Point","coordinates":[45.82741806255522,40.18514515056695,1989.081471861587]},"properties":{"name":"Musa Verdiyev "}},
{"type":"Feature","id":"084A7687BC35F1BDE6BD","geometry":{"type":"Point","coordinates":[45.82610680892786,40.18444024718502,1988.15425597719]},"properties":{"name":"Akif Cəlilov"}},
{"type":"Feature","id":"026FA5835935F1BE1D44","geometry":{"type":"Point","coordinates":[45.82558194000959,40.18406125510274,1987.806882497574]},"properties":{"name":"Qurban Əliyev"}},
{"type":"Feature","id":"008AA95E4635F1BE61BB","geometry":{"type":"Point","coordinates":[45.8258839983347,40.18357133318973,1988.395370131355]},"properties":{"name":"Hüseyn Nəcəfov "}},
{"type":"Feature","id":"044B0AD8D235F1BEDD0A","geometry":{"type":"Point","coordinates":[45.82533741943926,40.18382970038355,1988.209851809201]},"properties":{"name":"Knyaz Osmanov"}},
{"type":"Feature","id":"033CBEE92835F1C1AD65","geometry":{"type":"Point","coordinates":[45.82100710543128,40.1823629614081,1986.754014430204]},"properties":{"name":"Razim Hacıyev Hidayət oğlu"}},
{"type":"Feature","id":"0E463C1CBA35F1C1F6DA","geometry":{"type":"Point","coordinates":[45.82082302204761,40.18256431540781,1986.229240633537]},"properties":{"name":"Hidayət Hacıyev "}},
{"type":"Feature","id":"025EFEC3D735F1C25C89","geometry":{"type":"Point","coordinates":[45.820510012353,40.18253394253355,1985.911389124564]},"properties":{"name":"Nurəddin Hacıyev"}},
{"type":"Feature","id":"0EA6F5468335F1C2E94E","geometry":{"type":"Point","coordinates":[45.82023308236794,40.18246917195054,1986.018465891861]},"properties":{"name":"Hacı Balayev "}},
{"type":"Feature","id":"004EDE048035F1C3535D","geometry":{"type":"Point","coordinates":[45.82009445890869,40.18302122088028,1985.320405108853]},"properties":{"name":"Elman Hacıyev"}},
{"type":"Feature","id":"004EB1C37135F1C38921","geometry":{"type":"Point","coordinates":[45.82043401409932,40.18320242421565,1985.054150952242]},"properties":{"name":"Qərib Hacıyev"}},
{"type":"Feature","id":"0D227E663F35F1C3EC7D","geometry":{"type":"Point","coordinates":[45.82057167840411,40.18304727237089,1985.328942874088]},"properties":{"name":"Xaliqverdi Hacıyev"}},
{"type":"Feature","id":"0FB1B503D735F1C47838","geometry":{"type":"Point","coordinates":[45.820808856992,40.18323545714378,1985.453239262281]},"properties":{"name":"Cavanşir Hacıyev"}},
{"type":"Feature","id":"01A73EF54B35F1C4EDFD","geometry":{"type":"Point","coordinates":[45.82082523780593,40.18300739161504,1985.6722601564]},"properties":{"name":"Əhməd Hacıyev"}},
{"type":"Feature","id":"0DDCC7E0DF35F1C57C54","geometry":{"type":"Point","coordinates":[45.82018038802251,40.18357763381319,1984.694504382052]},"properties":{"name":"Razim Hacıyev Musa oğlu"}},
{"type":"Feature","id":"0172C5606A35F1C5B4C6","geometry":{"type":"Point","coordinates":[45.82016530215678,40.18383778310015,1984.54297029135]},"properties":{"name":"Məhəddin Hacıyev"}},
{"type":"Feature","id":"060D554A4135F1C6F2E1","geometry":{"type":"Point","coordinates":[45.82041456279293,40.18377805851449,1984.835788011093]},"properties":{"name":"Qoşun Yusifov "}},
{"type":"Feature","id":"059F756D0235F1C72F5C","geometry":{"type":"Point","coordinates":[45.8205609020979,40.18371940011119,1985.054121247455]},"properties":{"name":"İmaməli Yusifov"}},
{"type":"Feature","id":"01DB31B36535F1C789CE","geometry":{"type":"Point","coordinates":[45.81964523618865,40.18363854554529,1984.126889800511]},"properties":{"name":"Qanlı Qasımov"}},
{"type":"Feature","id":"0DFB0DF1D135F1CAAF91","geometry":{"type":"Point","coordinates":[45.81800882602793,40.18565494492341,1980.742519397592]},"properties":{"name":"Təvəkkül Hacıyev"}},
{"type":"Feature","id":"02FED0794F35F1CAFBD1","geometry":{"type":"Point","coordinates":[45.81822254672547,40.18551241007687,1981.190723879874]},"properties":{"name":"Şahmalı Hacıyev"}},
{"type":"Feature","id":"07DA2B99F635F1CB33AC","geometry":{"type":"Point","coordinates":[45.81846857664878,40.18550751636462,1981.593279413917]},"properties":{"name":"Qoşunəli Hacıyev"}},
{"type":"Feature","id":"07BB5CBA0835F1CB6DAF","geometry":{"type":"Point","coordinates":[45.81849590940755,40.1856989960727,1981.379822890736]},"properties":{"name":"Əmirmurad Hacıyev "}},
{"type":"Feature","id":"091446ECE835F1CBC425","geometry":{"type":"Point","coordinates":[45.81924343398658,40.18561525159442,1982.830441520034]},"properties":{"name":"Qara Məmmədov"}},
{"type":"Feature","id":"06B62FC7D235F1CC0044","geometry":{"type":"Point","coordinates":[45.81945210508596,40.18520595750164,1982.941837339039]},"properties":{"name":"Əsgər Məmmədov"}},
{"type":"Feature","id":"093CF6F2AC35F1CC3EE1","geometry":{"type":"Point","coordinates":[45.81922375276113,40.18488271218861,1983.537086453183]},"properties":{"name":"Hacı Nadirov"}},
{"type":"Feature","id":"0FA4B0914035F1CC8252","geometry":{"type":"Point","coordinates":[45.81977226242999,40.1851352625462,1983.125370138506]},"properties":{"name":"Nazim Xıdırov"}},
{"type":"Feature","id":"0FE3FC928835F1CCC275","geometry":{"type":"Point","coordinates":[45.81997277599972,40.18510752477145,1983.161319359024]},"properties":{"name":"Nərgiz Abbasova "}},
{"type":"Feature","id":"049C8C9F1F35F1CCFFCA","geometry":{"type":"Point","coordinates":[45.81981146919919,40.18489915577589,1983.506778786819]},"properties":{"name":"İnqilab Abbasov"}},
{"type":"Feature","id":"0A798CCA5935F1CD722E","geometry":{"type":"Point","coordinates":[45.81991626786973,40.18556800969316,1982.736080206694]},"properties":{"name":"Təyyar Aslanov"}},
{"type":"Feature","id":"0FB4308B5135F1CDB8C1","geometry":{"type":"Point","coordinates":[45.82067826632924,40.18542749766024,1983.002333745105]},"properties":{"name":"Əhməd Abbasov"}},
{"type":"Feature","id":"03A2BE9E8335F1CE0BD5","geometry":{"type":"Point","coordinates":[45.82029348899844,40.18522236029956,1982.985414623821]},"properties":{"name":"Ramazan Hacıyev"}},
{"type":"Feature","id":"0E485C0DFB35F1CE8AFD","geometry":{"type":"Point","coordinates":[45.82044611012665,40.18634384067302,1982.272451238577]},"properties":{"name":"İbrahim Aslanov"}},
{"type":"Feature","id":"0A90A88B6735F1CEC21D","geometry":{"type":"Point","coordinates":[45.82040808166514,40.18581692751619,1982.497958765266]},"properties":{"name":"Bəylər Aslanov"}},
{"type":"Feature","id":"0CAD31697A35F1CEFC6D","geometry":{"type":"Point","coordinates":[45.82083809147901,40.18585749104488,1980.802179067422]},"properties":{"name":"İbad Musayev "}},
{"type":"Feature","id":"07E2B2243D35F1CF4369","geometry":{"type":"Point","coordinates":[45.82122721151345,40.18608781714502,1982.609682934067]},"properties":{"name":"İsmayıl Ellazov (Asdan Aslanov )"}},
{"type":"Feature","id":"04778B4CB135F1CF8E07","geometry":{"type":"Point","coordinates":[45.82143950228233,40.18610032921889,1982.580729761008]},"properties":{"name":"Dilqəm Ellazov (Məhəmməd Aslanov)"}},
{"type":"Feature","id":"041F59C30535F1CFF7A9","geometry":{"type":"Point","coordinates":[45.82108968174387,40.18656893811792,1980.896554296658]},"properties":{"name":"Əvəz Aslanov"}},
{"type":"Feature","id":"06DB528BFF35F1D069EB","geometry":{"type":"Point","coordinates":[45.81899574896163,40.18654092300929,1980.236708309139]},"properties":{"name":"Becan Qasımov"}},
{"type":"Feature","id":"0C2CBEC40F35F1D11139","geometry":{"type":"Point","coordinates":[45.82065555571479,40.18497509512357,1983.760558016482]},"properties":{"name":"Eyvaz Hacıyev"}},
{"type":"Feature","id":"061FC42B1335F1D13873","geometry":{"type":"Point","coordinates":[45.8202824321987,40.18446555976451,1983.853248515477]},"properties":{"name":"Məhəmməd Nadirov "}},
{"type":"Feature","id":"0FDAD4740A35F1D1971B","geometry":{"type":"Point","coordinates":[45.82037239365149,40.18467660900889,1984.130208390238]},"properties":{"name":"Qaraca Nadirov (Hüseyn Kəlbəcərli)"}},
{"type":"Feature","id":"003FAA2EFE35F1D29762","geometry":{"type":"Point","coordinates":[45.82186109846491,40.18715582804352,1981.201130606425]},"properties":{"name":"Süleyman Qurbanov "}},
{"type":"Feature","id":"090495872A35F1D3955D","geometry":{"type":"Point","coordinates":[45.82207426275276,40.18689428065385,1981.61511120167]},"properties":{"name":"Vasil Qurbanov "}},
{"type":"Feature","id":"03B1690CDE35F1D3CDE7","geometry":{"type":"Point","coordinates":[45.82179985421648,40.18631285346099,1982.3660899481]},"properties":{"name":"Yunus Seyidov "}},
{"type":"Feature","id":"0B567827B935F1D4140D","geometry":{"type":"Point","coordinates":[45.82185506025185,40.18575845296227,1983.195385937159]},"properties":{"name":"Əmirəhməd Tağıyev "}},
{"type":"Feature","id":"02653CE17835F1D46A65","geometry":{"type":"Point","coordinates":[45.82180455352626,40.18541174871581,1983.817816034898]},"properties":{"name":"Həsən Ellazov "}},
{"type":"Feature","id":"048EE9247635F1D53F3A","geometry":{"type":"Point","coordinates":[45.82246791108593,40.18703020980043,1981.413336245151]},"properties":{"name":"Şəmil Qurbanov"}},
{"type":"Feature","id":"0BD7F0EDB435F1D575AE","geometry":{"type":"Point","coordinates":[45.82268245859795,40.18675812897809,1981.990355431879]},"properties":{"name":"Fətullah Alıyev "}},
{"type":"Feature","id":"08BF1A8D9635F1D5B613","geometry":{"type":"Point","coordinates":[45.82288463551969,40.18649132565088,1982.966721649447]},"properties":{"name":"Ələmşah Novruzov"}},
{"type":"Feature","id":"005F8613D135F1D60613","geometry":{"type":"Point","coordinates":[45.82312438490657,40.18660061185696,1983.537607951998]},"properties":{"name":"Nurəddin Alıyev "}},
{"type":"Feature","id":"0217D2033335F1D6C3AF","geometry":{"type":"Point","coordinates":[45.82340171096323,40.18630881250208,1984.523529396612]},"properties":{"name":"İmamalı Alıyev"}},
{"type":"Feature","id":"02082D354C35F1D70035","geometry":{"type":"Point","coordinates":[45.8234507972014,40.18590775681732,1985.363165335159]},"properties":{"name":"Əziz Yusifov"}},
{"type":"Feature","id":"0AC00EA61235F1D73B11","geometry":{"type":"Point","coordinates":[45.82393663577142,40.18604593081622,1985.614957484608]},"properties":{"name":"Ələddin Alıyev "}},
{"type":"Feature","id":"0DA85A24BA35F1D77BF7","geometry":{"type":"Point","coordinates":[45.8235005041217,40.18563139288672,1985.672241115233]},"properties":{"name":"Qara Ellazov "}},
{"type":"Feature","id":"0A9057665335F1D7D433","geometry":{"type":"Point","coordinates":[45.82388858710515,40.18547862119748,1985.981354730077]},"properties":{"name":"Hümbət Qurbanov "}},
{"type":"Feature","id":"00588995DA35F1D807D5","geometry":{"type":"Point","coordinates":[45.82448580772631,40.18567875699183,1985.981314706844]},"properties":{"name":"Bayram Rüstəmov "}},
{"type":"Feature","id":"0B62A564D535F1D90D8F","geometry":{"type":"Point","coordinates":[45.82424789585201,40.18522070373034,1985.981356209799]},"properties":{"name":"Cəmil Alıyev "}},
{"type":"Feature","id":"0A5785256A35F1D95CE1","geometry":{"type":"Point","coordinates":[45.82492089369548,40.18629939459062,1985.672279510205]},"properties":{"name":"Fəxrəddin Hacıyev"}},
{"type":"Feature","id":"0F8FB1500735F1D9A26F","geometry":{"type":"Point","coordinates":[45.82521934677863,40.18573060266488,1985.990659180987]},"properties":{"name":"Yusif Alıyev"}},
{"type":"Feature","id":"08CCDA41B535F1DA13BE","geometry":{"type":"Point","coordinates":[45.82540783851349,40.18547916507532,1985.990704824617]},"properties":{"name":"Kənan Cəlilov (Yelmar Nadirov)"}},
{"type":"Feature","id":"0FE56CB70635F1DA7622","geometry":{"type":"Point","coordinates":[45.82570162047317,40.18548700842026,1986.397335179811]},"properties":{"name":"Musa Əmirov "}},
{"type":"Feature","id":"04C28427EB35F1DAB125","geometry":{"type":"Point","coordinates":[45.82607699633976,40.18527720702759,1986.928086884507]},"properties":{"name":"İlyas Heydərov"}},
{"type":"Feature","id":"055854E91235F1DB21C1","geometry":{"type":"Point","coordinates":[45.82407939679606,40.18450277450122,1987.063101022434]},"properties":{"name":"Qənbər Bayramov"}},
{"type":"Feature","id":"048D563E7F35F1DB5151","geometry":{"type":"Point","coordinates":[45.82373928426742,40.184028419171,1987.06308776435]},"properties":{"name":"Yusif Bayramov"}},
{"type":"Feature","id":"00EE570F9835F1DBA941","geometry":{"type":"Point","coordinates":[45.82337838001156,40.18447318052934,1987.06309645312]},"properties":{"name":"Əmirmurad Əmirov"}},
{"type":"Feature","id":"07B2496E0B35F1DBEF2D","geometry":{"type":"Point","coordinates":[45.82296110065202,40.18454289162737,1986.761429497932]},"properties":{"name":"Cəlal Əmirov"}},
{"type":"Feature","id":"0383649A5035F1DC192A","geometry":{"type":"Point","coordinates":[45.82313301495996,40.18457201224648,1986.761430676334]},"properties":{"name":"Səhman Əmirov"}},
{"type":"Feature","id":"02985881A435F1DCE824","geometry":{"type":"Point","coordinates":[45.8225824875834,40.18410659734514,1986.655309051343]},"properties":{"name":"Zəməddin Qurbanov "}},
{"type":"Feature","id":"001AB547DE35F1DD8494","geometry":{"type":"Point","coordinates":[45.82262178561591,40.18386008215771,1986.948539019433]},"properties":{"name":"Kamran Qurbanov "}},
{"type":"Feature","id":"0F60C8049B35F1DE195E","geometry":{"type":"Point","coordinates":[45.82284745478643,40.18543573617831,1984.812936622581]},"properties":{"name":"İmamqulu Qəribov "}},
{"type":"Feature","id":"0AFDF7702935F1DF681E","geometry":{"type":"Point","coordinates":[45.82259791556913,40.1850162237404,1985.160469977271]},"properties":{"name":"Xəlil Qəribov"}},
{"type":"Feature","id":"0D3453E09835F1DF9671","geometry":{"type":"Point","coordinates":[45.82322463291718,40.18507012249537,1986.090665829835]},"properties":{"name":"İsa Qəribov"}},
{"type":"Feature","id":"0829705BCE35F1DFEAA0","geometry":{"type":"Point","coordinates":[45.82235855276485,40.18459195545254,1985.650146743274]},"properties":{"name":"Əzim Ellazov "}},
{"type":"Feature","id":"0E93006FAB35F1E013C8","geometry":{"type":"Point","coordinates":[45.8221363527223,40.18443893861086,1985.517722932663]},"properties":{"name":"Nəriman Balayev "}},
{"type":"Feature","id":"0850B447E935F1E0547E","geometry":{"type":"Point","coordinates":[45.82177391023512,40.18426798182255,1985.363194145889]},"properties":{"name":"Abdulla Abbasov"}},
{"type":"Feature","id":"04D462A1FA35F1E0AB79","geometry":{"type":"Point","coordinates":[45.82160519193785,40.18455232408621,1985.054164503159]},"properties":{"name":"Kamil Nadirov (Səfər Aslanov)"}},
{"type":"Feature","id":"02BC3AE9FF35F1E0F3BD","geometry":{"type":"Point","coordinates":[45.82154483827804,40.18485158905862,1984.64175942447]},"properties":{"name":"Əli Tağıyev"}},
{"type":"Feature","id":"049BB7A56435F1E126D0","geometry":{"type":"Point","coordinates":[45.82130022148593,40.18494732948095,1984.502289451066]},"properties":{"name":"Nurəhməd Tağıyev"}},
{"type":"Feature","id":"05B33CC9F935F1E170A1","geometry":{"type":"Point","coordinates":[45.82123673274099,40.18433900530866,1985.054124730319]},"properties":{"name":"Murad Abbasov "}},
{"type":"Feature","id":"065281DB5135F1E1A196","geometry":{"type":"Point","coordinates":[45.82149052311046,40.18422838592267,1985.208657466791]},"properties":{"name":"Vaqif Heydərov "}},
{"type":"Feature","id":"009844407C35F1E2F98C","geometry":{"type":"Point","coordinates":[45.82246804734567,40.18336097521013,1988.281476147962]},"properties":{"name":"İsax Bayramov"}},
{"type":"Feature","id":"01C2CF3B4035F1E32E37","geometry":{"type":"Point","coordinates":[45.82210468278319,40.18359580655316,1986.839016183591]},"properties":{"name":"Nəriman Bayramov "}},
{"type":"Feature","id":"0FB4AD951735F1E37009","geometry":{"type":"Point","coordinates":[45.82141921510213,40.18306388593133,1986.501982373363]},"properties":{"name":"Xankişi Quliyev "}},
{"type":"Feature","id":"03E3F3FDC435F1E39EFB","geometry":{"type":"Point","coordinates":[45.82172884611233,40.18328084425858,1986.608869279283]},"properties":{"name":"Atakişi Quliyev"}},
{"type":"Feature","id":"099B21F0F935F1E3E974","geometry":{"type":"Point","coordinates":[45.82221233895079,40.18307467321606,1988.332754580574]},"properties":{"name":"Pənah Hacıyev"}},
{"type":"Feature","id":"0DFF105BD535F1E45217","geometry":{"type":"Point","coordinates":[45.82142120448439,40.18224792724255,1987.612882977732]},"properties":{"name":"Natiq Qarayev "}},
{"type":"Feature","id":"04259AD51B35F1E48AAB","geometry":{"type":"Point","coordinates":[45.82135309786219,40.18245650334584,1987.236017150211]},"properties":{"name":"Davud Qarayev"}},
{"type":"Feature","id":"0B1B47515635F1E5C1A3","geometry":{"type":"Point","coordinates":[45.82129345910984,40.18269237817333,1986.897840018318]},"properties":{"name":"Vəzirxan Balayev"}},
{"type":"Feature","id":"08072B7E3F35F1E62978","geometry":{"type":"Point","coordinates":[45.82139082239481,40.18280295099889,1986.95155786214]},"properties":{"name":"Əsgər Balayev "}},
{"type":"Feature","id":"0B1626460B35F1E66B2C","geometry":{"type":"Point","coordinates":[45.82168546870814,40.18285498690323,1987.545526880753]},"properties":{"name":"İldırım İsmayılov "}},
{"type":"Feature","id":"02346BF48735F1E6B3D4","geometry":{"type":"Point","coordinates":[45.82182039413657,40.18279417438554,1987.930165216628]},"properties":{"name":"Saday İsmayılov "}},
{"type":"Feature","id":"0799844B3835F1E6EC74","geometry":{"type":"Point","coordinates":[45.82211141922389,40.18260155487421,1989.193966965667]},"properties":{"name":"Yeməkxana və ərzaq mağazası"}},
{"type":"Feature","id":"0D801D070335F1E75793","geometry":{"type":"Point","coordinates":[45.82239204616128,40.18257779979507,1990.131699251476]},"properties":{"name":"Geyim mağazası"}},
{"type":"Feature","id":"0A4FD2818135F1E79E24","geometry":{"type":"Point","coordinates":[45.82258774551079,40.18255496151307,1990.817134557823]},"properties":{"name":"Poçt-rabitə mərkəzi "}},
{"type":"Feature","id":"0F883CE67335F1E968C4","geometry":{"type":"Point","coordinates":[45.82273993336593,40.1827190116393,1990.412677528378]},"properties":{"name":"Süd məhsulları emalı"}},
{"type":"Feature","id":"03E8D7872535F1E9A59E","geometry":{"type":"Point","coordinates":[45.8229145176441,40.18284495701966,1989.974002123367]},"properties":{"name":"Köhnə məktəb"}},
{"type":"Feature","id":"0561D5207835F1E9DCAA","geometry":{"type":"Point","coordinates":[45.82271538308244,40.18297242420451,1989.627090185523]},"properties":{"name":"Malik Yusifov"}},
{"type":"Feature","id":"05D9AA29B635F1EB0622","geometry":{"type":"Point","coordinates":[45.8195323140553,40.18194814640381,1985.87315465556]},"properties":{"name":"Kolxoz idarəsi "}},
{"type":"Feature","id":"073771A71A35F1EBDF55","geometry":{"type":"Point","coordinates":[45.8181908787649,40.18172451898007,1985.66519553669]},"properties":{"name":"Ferma"}},
{"type":"Feature","id":"00B33F0EA035F1EC12E9","geometry":{"type":"Point","coordinates":[45.81766259808616,40.18233457459039,1985.981329095233]},"properties":{"name":"Ferma"}},
{"type":"Feature","id":"05F8FAD95835F1EC458A","geometry":{"type":"Point","coordinates":[45.81637427413899,40.18285790328099,1984.44533041859]},"properties":{"name":"Un dəyirmanı"}},
{"type":"Feature","id":"0A120EBD7B35F1ECA4FF","geometry":{"type":"Point","coordinates":[45.81612296654851,40.1811481706448,1986.455282081069]},"properties":{"name":"Tütün qurutma məntəqələr "}},
{"type":"Feature","id":"05F7DEB33035F1ED381F","geometry":{"type":"Point","coordinates":[45.81538711155309,40.18092855836596,1986.455282081069]},"properties":{"name":"Tütün qurutma məntəqələr "}},
{"type":"Feature","id":"0160BC7BEF35F1ED3BE7","geometry":{"type":"Point","coordinates":[45.8161599248084,40.18093185047446,1986.455282081069]},"properties":{"name":"Tütün qurutma məntəqələr "}},
{"type":"Feature","id":"06A3032E7F35F1ED41C1","geometry":{"type":"Point","coordinates":[45.81546881645298,40.18109799354579,1986.455282081069]},"properties":{"name":"Tütün qurutma məntəqələr "}},
{"type":"Feature","id":"08A8277E0935F1EDE705","geometry":{"type":"Point","coordinates":[45.81666094969223,40.17980963358238,1987.325162886907]},"properties":{"name":"Toyuq Ferması "}},
{"type":"Feature","id":"0A7991554A35F1EE5072","geometry":{"type":"Point","coordinates":[45.8173273684376,40.1806700052974,1987.727859560422]},"properties":{"name":"Ferma 100 metrlik"}},
{"type":"Feature","id":"01F504878D35F1EECC26","geometry":{"type":"Point","coordinates":[45.81840361341391,40.18125333416377,1986.648796070946]},"properties":{"name":"Ferma (Səfər tikən)"}},
{"type":"Feature","id":"52D00F56A7000001","geometry":{"type":"Point","coordinates":[45.82101102769556,40.18391453002111,1985.021908717413]},"properties":{"name":"Telman Hacıyev"}},
{"type":"Feature","id":"52D00FB9D7000001","geometry":{"type":"Point","coordinates":[45.82142145286841,40.18378949347859,1985.243813513757]},"properties":{"name":"Fərman Bayramov"}},
{"type":"Feature","id":"02A55E01CA35FBAF7C45","geometry":{"type":"Point","coordinates":[45.82186130068715,40.18472517710724,1984.756496229915]},"properties":{"name":"Mamedov Hüseyn-Söyündürük"}},
{"type":"Feature","id":"0051EBF7E035FBBA0C3F","geometry":{"type":"Point","coordinates":[45.82212808983753,40.17815331010117,1992.062998317606]},"properties":{"name":"Ələmşah Abbasov"}},
{"type":"Feature","id":"094C6AAE2435FBE2A746","geometry":{"type":"Point","coordinates":[45.81982680022665,40.18561382589923,1982.378658513456]},"properties":{"name":"Qədir Aslanov"}},
{"type":"Feature","id":"0FE98EC1FC35FBFB3C07","geometry":{"type":"Point","coordinates":[45.8202801493625,40.18353369847602,1984.887179302939]},"properties":{"name":"Mais Hacıyev"}},
{"type":"Feature","id":"00069EBFAD35FC077C8A","geometry":{"type":"Point","coordinates":[45.829817149896,40.18032702920229,1997.107987321109]},"properties":{"name":"Zəfər Rüstəmov"}},
{"type":"Feature","id":"0D382E3DF835FC112D51","geometry":{"type":"Point","coordinates":[45.82290232965379,40.17882132410298,1991.857583934763]},"properties":{"name":"Abbasqulu Quliyev"}},
{"type":"Feature","id":"0F66ADA61B35FC129893","geometry":{"type":"Point","coordinates":[45.82856045611591,40.18210723842154,1994.400537406314]},"properties":{"name":"Mübariz Əkbərov"}},
{"type":"Feature","id":"00E70B551D35FC15263F","geometry":{"type":"Point","coordinates":[45.83076778015484,40.1815282497822,1998.175462085881]},"properties":{"name":"Nəsrullah Nəcəfov"}},
{"type":"Feature","id":"09BC228F6B35FC1A3957","geometry":{"type":"Point","coordinates":[45.81931667044378,40.17850984247936,1988.876166937163]},"properties":{"name":"Mirzəyev Zülfəli-Ufoy "}},
{"type":"Feature","id":"039E4644CF35FC26C4D7","geometry":{"type":"Point","coordinates":[45.82828857494139,40.18270335124744,1993.533445356278]},"properties":{"name":"Semnar Məmmədov"}},
{"type":"Feature","id":"01C4258F5835FC31A08B","geometry":{"type":"Point","coordinates":[45.82291169034065,40.18390946985771,1986.922629760895]},"properties":{"name":"Rizvan Qurbanov"}},
{"type":"Feature","id":"0361B3A39435FC35AB6F","geometry":{"type":"Point","coordinates":[45.82280397864193,40.18152371338653,1989.744757636005]},"properties":{"name":"Fizuli İbrahimov"}},
{"type":"Feature","id":"0769E73B4535FC466EFF","geometry":{"type":"Point","coordinates":[45.81361333709928,40.17369020378761,2001.578683152616]},"properties":{"name":"Ətraf Abdullayev "}},
{"type":"Feature","id":"0DADEF1E6735FC49B14B","geometry":{"type":"Point","coordinates":[45.81771444313689,40.17438928123913,2001.848418044539]},"properties":{"name":"Şəmşir Yusibov"}},
{"type":"Feature","id":"0D738F359835FC4C21BB","geometry":{"type":"Point","coordinates":[45.81491652475127,40.17502882841379,1997.535389600987]},"properties":{"name":"Vəli-Lətifə"}},
{"type":"Feature","id":"05E56487B135FC4E1A83","geometry":{"type":"Point","coordinates":[45.8160844275478,40.1748886784224,1999.229256017994]},"properties":{"name":"Nəriman Kəlbəcərli"}},
{"type":"Feature","id":"09DE4EFF6535FC53835A","geometry":{"type":"Point","coordinates":[45.80939870637814,40.17225855060835,2000.60983621568]},"properties":{"name":"Tərsə calası"}},
{"type":"Feature","id":"0F43AAD6A735FC54C99D","geometry":{"type":"Point","coordinates":[45.80948114844695,40.16815461929232,2008.40512143881]},"properties":{"name":"Qara çay "}},
{"type":"Feature","id":"0A2CDA7DE135FC556CCB","geometry":{"type":"Point","coordinates":[45.81097877353407,40.17186411378118,2004.086128167067]},"properties":{"name":"Qara çay"}},
{"type":"Feature","id":"0AE90F1F9035FC560AFC","geometry":{"type":"Point","coordinates":[45.81286921017028,40.17335227202947,2002.347330894324]},"properties":{"name":"Futbol stadionu"}},
{"type":"Feature","id":"089345366535FC570DB8","geometry":{"type":"Point","coordinates":[45.82508785658062,40.18227795754869,1989.757296224961]},"properties":{"name":"Bağça"}},
{"type":"Feature","id":"0C6E7D013135FC577FD5","geometry":{"type":"Point","coordinates":[45.823648265666,40.18295996997283,1989.282399330543]},"properties":{"name":"Məktəbin sanitar qovşağı"}},
{"type":"Feature","id":"0820E1B64935FC591971","geometry":{"type":"Point","coordinates":[45.82402628845671,40.1828129320372,1989.519288372726]},"properties":{"name":"Hamam "}},
{"type":"Feature","id":"0CB09D1D6735FC59934F","geometry":{"type":"Point","coordinates":[45.82367058828416,40.18250235069777,1991.04974073076]},"properties":{"name":"Arteziyan-Bulaq"}},
{"type":"Feature","id":"03400F79F035FC5A8F7E","geometry":{"type":"Point","coordinates":[45.82220363222447,40.18243314103508,1989.799471380983]},"properties":{"name":"Yanacaq çənləri"}},
{"type":"Feature","id":"073A69D18035FC5B09F7","geometry":{"type":"Point","coordinates":[45.82251204679365,40.18219628941505,1990.410556783696]},"properties":{"name":"Voleybol meydançası"}},
{"type":"Feature","id":"050A35DD6435FC5BBA04","geometry":{"type":"Point","coordinates":[45.81957561081762,40.18143069698965,1986.15335853554]},"properties":{"name":"Tütün istixanaları"}},
{"type":"Feature","id":"0F565E34BA35FC5C5172","geometry":{"type":"Point","coordinates":[45.81967854278905,40.18210009116357,1985.826805200313]},"properties":{"name":"Artezan "}},
{"type":"Feature","id":"035453425835FC5CEA9F","geometry":{"type":"Point","coordinates":[45.81976605550778,40.18208788473241,1985.935684402257]},"properties":{"name":"Hamam"}},
{"type":"Feature","id":"0555FC1F5535FC6029FB","geometry":{"type":"Point","coordinates":[45.80786627311883,40.18867415329916,1977.849956944049]},"properties":{"name":"Göy körpü"}},
{"type":"Feature","id":"0A11FCF33035FC608B99","geometry":{"type":"Point","coordinates":[45.80946251556641,40.18894328435192,1977.361901570234]},"properties":{"name":"Dəmiryol xətti"}},
{"type":"Feature","id":"0FD39AEA6F35FC6117F9","geometry":{"type":"Point","coordinates":[45.80822639407013,40.18745637927644,1978.004608501084]},"properties":{"name":"Tərsə calası"}},
{"type":"Feature","id":"0D79C2383C35FC66323A","geometry":{"type":"Point","coordinates":[45.82040107807469,40.17882131297532,1988.230219225079]},"properties":{"name":"Bağda çay "}},
{"type":"Feature","id":"0BD0C6DB1835FC677A6D","geometry":{"type":"Point","coordinates":[45.83195070266218,40.18424753755234,1999.268481947571]},"properties":{"name":"Ağ çay"}},
{"type":"Feature","id":"02011C2F7B35FC763C04","geometry":{"type":"Point","coordinates":[45.82275158522481,40.18695878830759,1981.82380361627]},"properties":{"name":"Hüseyn Qurbanov"}},
{"type":"Feature","id":"09F3FD11FB35FC7919AD","geometry":{"type":"Point","coordinates":[45.8257903988007,40.18303017256319,1988.917508678545]},"properties":{"name":"Surxay Qurbanov"}},
{"type":"Feature","id":"0C7A51C81635FC8367EC","geometry":{"type":"Point","coordinates":[45.82557283237135,40.16896610261439,2010.981702688613]},"properties":{"name":"Qarabulaq"}},
{"type":"Feature","id":"0D23D2BF5535FC846C69","geometry":{"type":"Point","coordinates":[45.83180435689884,40.17029930808831,2022.08680411175]},"properties":{"name":"Ocaqtəpə "}},
{"type":"Feature","id":"0C89703EDC36399C9D70","geometry":{"type":"Point","coordinates":[45.84540207453255,40.14889910097062,2248.597850539355]},"properties":{"name":"Bala Qaraqoyunlu"}},
{"type":"Feature","id":"057399F74E36399CEA57","geometry":{"type":"Point","coordinates":[45.84200036384338,40.15278198575281,2130.395879146179]},"properties":{"name":"Bağda çay"}},
{"type":"Feature","id":"06EB25D22E36399DA66D","geometry":{"type":"Point","coordinates":[45.82795014234992,40.17633720658354,1999.897683264113]},"properties":{"name":"Bağda çay"}},
{"type":"Feature","id":"0CDDE005C636399F4EC2","geometry":{"type":"Point","coordinates":[45.83274564652762,40.16751810378985,2062.843982248286]},"properties":{"name":"Daş çıxan "}},
{"type":"Feature","id":"0A59699A323639A01936","geometry":{"type":"Point","coordinates":[45.84332786265399,40.1732968383,2028.177205375851]},"properties":{"name":"Kərbalayı Musa qovlusu"}},
{"type":"Feature","id":"05AFB494183639A0C398","geometry":{"type":"Point","coordinates":[45.84572616788004,40.17030703992835,2038.849321389936]},"properties":{"name":".oxlu çay"}},
{"type":"Feature","id":"04B97EE5973639A61F17","geometry":{"type":"Point","coordinates":[45.9209051068559,40.11527521193942,2851.94734454027]},"properties":{"name":"Çalmalı dağı (3190 m)"}},
{"type":"Feature","id":"0830396B163639A6AE86","geometry":{"type":"Point","coordinates":[45.95338746753684,40.12100580918903,2627.68241424432]},"properties":{"name":"Yal"}},
{"type":"Feature","id":"0B8274048A3639A6F9F5","geometry":{"type":"Point","coordinates":[45.94843663373708,40.13104843613844,2715.549683068444]},"properties":{"name":"Bəşir dərəsi "}},
{"type":"Feature","id":"0106B84CD33639A74A5B","geometry":{"type":"Point","coordinates":[45.93495464639973,40.12037295618198,2685.747219350389]},"properties":{"name":"Nəbi dərəsi"}},
{"type":"Feature","id":"06C6A8B79C3639A7A889","geometry":{"type":"Point","coordinates":[45.94675779668768,40.12557261006353,2530.443626332579]},"properties":{"name":"Qumlu bulaq"}},
{"type":"Feature","id":"0A7E0C36C63639A8146E","geometry":{"type":"Point","coordinates":[45.9396580336762,40.1340995070674,2632.581550338406]},"properties":{"name":"Gödək Güney"}},
{"type":"Feature","id":"03E05FFC553639A8E272","geometry":{"type":"Point","coordinates":[45.93337858104701,40.13545958750434,2535.808477101455]},"properties":{"name":"Sunur "}},
{"type":"Feature","id":"044F2D55D63639AA07D0","geometry":{"type":"Point","coordinates":[45.93767204510153,40.13468826958525,2602.221858866918]},"properties":{"name":"El yolu"}},
{"type":"Feature","id":"08E07A15B83639AAE659","geometry":{"type":"Point","coordinates":[45.93049323907918,40.13413893985049,2411.993872865477]},"properties":{"name":"Alının bulağı"}},
{"type":"Feature","id":"084D6017FA3639AB894F","geometry":{"type":"Point","coordinates":[45.92766290214495,40.12582778384709,2533.302570814214]},"properties":{"name":"Dərə yurd"}},
{"type":"Feature","id":"032E3D32F43639ACF25C","geometry":{"type":"Point","coordinates":[45.92411898725658,40.11285283037298,2906.98900026635]},"properties":{"name":"Qiblə bulağı"}},
{"type":"Feature","id":"06315CA5CF3639ADF3C1","geometry":{"type":"Point","coordinates":[45.90474250110539,40.1257425859986,2451.978845665732]},"properties":{"name":"Yellinin bulağı"}},
{"type":"Feature","id":"0D5EF175733639AF46EA","geometry":{"type":"Point","coordinates":[45.91007932133724,40.14948244968033,2497.792552054561]},"properties":{"name":"Top qaya"}},
{"type":"Feature","id":"07DDDF55A23639AFCAF3","geometry":{"type":"Point","coordinates":[45.91887174998312,40.14273857894496,2529.540930595556]},"properties":{"name":"Uzun Güney"}},
{"type":"Feature","id":"0B882FA8223639B03ADD","geometry":{"type":"Point","coordinates":[45.87715087253854,40.15628265892396,2255.171110504574]},"properties":{"name":"Daşlı Güney"}},
{"type":"Feature","id":"043F78FD543639B0B6E5","geometry":{"type":"Point","coordinates":[45.87030780440553,40.15891689966859,2113.450067975763]},"properties":{"name":"Behbud ölən"}},
{"type":"Feature","id":"0A68975AD73639B285AD","geometry":{"type":"Point","coordinates":[45.89519183802469,40.15531118882294,2251.027421987354]},"properties":{"name":"Cinli dərə"}},
{"type":"Feature","id":"05FAA5EDD23639B2DA31","geometry":{"type":"Point","coordinates":[45.8954298580994,40.15233456242235,2235.277240482825]},"properties":{"name":"Günəşin dərəsi "}},
{"type":"Feature","id":"0BBAC70ADE3639B3AA87","geometry":{"type":"Point","coordinates":[45.88872870808146,40.15246278496433,2172.501412474575]},"properties":{"name":"Hallaşdı"}},
{"type":"Feature","id":"02032450B03639B3EDA7","geometry":{"type":"Point","coordinates":[45.89044739463746,40.15233708746445,2176.389211089745]},"properties":{"name":"Məşədi Şabanlar"}},
{"type":"Feature","id":"0B70BC26A93639B4551C","geometry":{"type":"Point","coordinates":[45.89360812594575,40.15226763330341,2185.673871509804]},"properties":{"name":"Nərimanlının yaylaq evləri"}},
{"type":"Feature","id":"0E4CC104AD3639B4EA45","geometry":{"type":"Point","coordinates":[45.88995023229855,40.15145675684151,2179.79417590161]},"properties":{"name":"SES (Su elektrik stansiyas)"}},
{"type":"Feature","id":"04DB64DBC33639B5969E","geometry":{"type":"Point","coordinates":[45.89097204681855,40.14804704037797,2201.520471594252]},"properties":{"name":"Gödək dərəsi "}},
{"type":"Feature","id":"046E680DE23639B608F0","geometry":{"type":"Point","coordinates":[45.8910287314966,40.14917764468031,2195.410119062808]},"properties":{"name":"Gödək bulağı"}},
{"type":"Feature","id":"098A54B6D33639B72C8F","geometry":{"type":"Point","coordinates":[45.89014386969563,40.14859275355515,2224.646833342504]},"properties":{"name":"Səngər "}},
{"type":"Feature","id":"0066A8D2363639B9668D","geometry":{"type":"Point","coordinates":[45.89438941548948,40.14608087156453,2244.624236941775]},"properties":{"name":"Qədim seyidlərin qəbirstanlığı"}},
{"type":"Feature","id":"0F91D025BE3639BA030C","geometry":{"type":"Point","coordinates":[45.89372447334665,40.14073696480506,2292.473114846774]},"properties":{"name":"Qayalıq"}},
{"type":"Feature","id":"052A4AA6513639BA568B","geometry":{"type":"Point","coordinates":[45.90611579431044,40.13342448752849,2598.477487822875]},"properties":{"name":"Tüllkü təpəsi"}},
{"type":"Feature","id":"0B15D2CE1C3639BA9205","geometry":{"type":"Point","coordinates":[45.90639964370633,40.13511658839109,2521.956082424798]},"properties":{"name":"Qarqara qayası"}},
{"type":"Feature","id":"021F0E25973639BB305B","geometry":{"type":"Point","coordinates":[45.91257125316479,40.12949646705537,2547.228138005277]},"properties":{"name":"Buruq ocağı"}},
{"type":"Feature","id":"06E831B4C73639BCB2B4","geometry":{"type":"Point","coordinates":[45.91715789984531,40.1350816876659,2390.853224078044]},"properties":{"name":"Südlü bulaq"}},
{"type":"Feature","id":"0F8CA9F9483639BD4263","geometry":{"type":"Point","coordinates":[45.91158152422922,40.14405072747972,2384.243581016815]},"properties":{"name":"Dar dərə"}},
{"type":"Feature","id":"04112471483639BD91E5","geometry":{"type":"Point","coordinates":[45.90875771228387,40.14589068814594,2365.403547656635]},"properties":{"name":"Gen dərə"}},
{"type":"Feature","id":"0086F0EB523639BE25B6","geometry":{"type":"Point","coordinates":[45.90912438911285,40.14217067031911,2280.642269207874]},"properties":{"name":"Dar dərənin bulağı"}},
{"type":"Feature","id":"0A83D86F6E3639BF5CC4","geometry":{"type":"Point","coordinates":[45.89897755027336,40.14427321895191,2286.256944669986]},"properties":{"name":"Qurdlu bulaq"}},
{"type":"Feature","id":"03A9B578033639BFC6A1","geometry":{"type":"Point","coordinates":[45.89321111819842,40.14769451656806,2233.548664508766]},"properties":{"name":"Xırman yeri"}},
{"type":"Feature","id":"092D6B38B93639C02486","geometry":{"type":"Point","coordinates":[45.90022238577344,40.14836191507553,2239.803903007738]},"properties":{"name":"Sarı bulağı"}},
{"type":"Feature","id":"0F719DB8553639C05658","geometry":{"type":"Point","coordinates":[45.90170586492999,40.14952330082212,2284.14556925443]},"properties":{"name":"Sarı dərəsi"}},
{"type":"Feature","id":"09A404AEF83639C096B6","geometry":{"type":"Point","coordinates":[45.89869294909911,40.1509955287377,2279.487102625443]},"properties":{"name":"Sarının düzü"}},
{"type":"Feature","id":"00EF680BD53639C181B2","geometry":{"type":"Point","coordinates":[45.89934478930908,40.14720412141091,2222.655565694016]},"properties":{"name":"Teliş bulağı"}},
{"type":"Feature","id":"04A47113B53639C239D2","geometry":{"type":"Point","coordinates":[45.89676896659547,40.14852285851342,2204.199001588714]},"properties":{"name":"İbrahim bulağı"}},
{"type":"Feature","id":"0898AACFE53639C30866","geometry":{"type":"Point","coordinates":[45.89610387452316,40.14876178908118,2200.867509244814]},"properties":{"name":"Süd emalı məntəqəsi"}},
{"type":"Feature","id":"09EF14513A3639C3E446","geometry":{"type":"Point","coordinates":[45.89614931735257,40.15003533742519,2203.934283047085]},"properties":{"name":"Talıb Musayev"}},
{"type":"Feature","id":"03BE2EA5FA3639C467BD","geometry":{"type":"Point","coordinates":[45.89606358493469,40.15008048060231,2205.465495637168]},"properties":{"name":"Nəriman Musayev"}},
{"type":"Feature","id":"0F4D04AB9A3639C5129F","geometry":{"type":"Point","coordinates":[45.89610818247811,40.15019994598644,2204.699456098274]},"properties":{"name":"Dağ Yunus "}},
{"type":"Feature","id":"0882C343413639C580EB","geometry":{"type":"Point","coordinates":[45.89571681014021,40.15011827130819,2196.31249894421]},"properties":{"name":"Qoyun ferması"}},
{"type":"Feature","id":"05495AB7073639C6314E","geometry":{"type":"Point","coordinates":[45.89556516213052,40.15027503086068,2196.039928266498]},"properties":{"name":"Babacan Əliyev"}},
{"type":"Feature","id":"0461FCBC923639C6D1ED","geometry":{"type":"Point","coordinates":[45.89554654059511,40.15018254451577,2194.453080688351]},"properties":{"name":"Behbud Musayev"}},
{"type":"Feature","id":"046D43E7063639C7A665","geometry":{"type":"Point","coordinates":[45.89542908355292,40.15053804891554,2197.616035350195]},"properties":{"name":"İsgəndər Cabbarov"}},
{"type":"Feature","id":"0A1E66ECA73639CA53E0","geometry":{"type":"Point","coordinates":[45.89474657283056,40.15129056415209,2198.452763570911]},"properties":{"name":"Sahib Musayev"}},
{"type":"Feature","id":"0F950713B33639CAC326","geometry":{"type":"Point","coordinates":[45.89455053196364,40.15147143621974,2196.816338150017]},"properties":{"name":"Şahmalı Qurbanov"}},
{"type":"Feature","id":"0B63DF7A893639CB135E","geometry":{"type":"Point","coordinates":[45.89451370690244,40.15120214436759,2193.448625786531]},"properties":{"name":"Əzim Qaraşov"}},
{"type":"Feature","id":"0779CA31883639CB4EEF","geometry":{"type":"Point","coordinates":[45.89429541188611,40.15094855414435,2187.467397665677]},"properties":{"name":"Qaraş İbrahimov"}},
{"type":"Feature","id":"002B1649F13639CB89AE","geometry":{"type":"Point","coordinates":[45.89400642341316,40.15103769777124,2185.446209346285]},"properties":{"name":"Şahbələd Mehdiyev"}},
{"type":"Feature","id":"0D57AA7AC73639CCFDC0","geometry":{"type":"Point","coordinates":[45.89360506330094,40.15181265890747,2188.000802027098]},"properties":{"name":"Pənah Mövlayev"}},
{"type":"Feature","id":"0A9819F1CC3639CEC9EE","geometry":{"type":"Point","coordinates":[45.8938708758356,40.15137681605669,2187.927858266996]},"properties":{"name":"Mübariz Əkbərov"}},
{"type":"Feature","id":"0E461E33BC3639CF0E6E","geometry":{"type":"Point","coordinates":[45.89367604253461,40.1515914995538,2187.20235627582]},"properties":{"name":"Fərhad Cəlilov"}},
{"type":"Feature","id":"049CAD9C0D3639D0D10B","geometry":{"type":"Point","coordinates":[45.89405510109483,40.15177913517866,2195.218521920096]},"properties":{"name":"Rəsul Müseyibov"}},
{"type":"Feature","id":"0D19D5C84D3639D20068","geometry":{"type":"Point","coordinates":[45.89387365812912,40.15085853068304,2183.301585974257]},"properties":{"name":"Ferma "}},
{"type":"Feature","id":"082C8DB7C23639D2DE64","geometry":{"type":"Point","coordinates":[45.8919990354107,40.15284954885211,2187.122292951064]},"properties":{"name":"Təyyar Aslanov"}},
{"type":"Feature","id":"0030B7B6A93639D4223F","geometry":{"type":"Point","coordinates":[45.89217965810836,40.15263224556656,2186.376636901282]},"properties":{"name":"Əhmədov Ənvər "}},
{"type":"Feature","id":"04EBB68BAE3639D4CE7A","geometry":{"type":"Point","coordinates":[45.89182928475269,40.15232265002399,2174.475686664835]},"properties":{"name":"Rüstəm İbrahimov"}},
{"type":"Feature","id":"09A983BC483639D56D3E","geometry":{"type":"Point","coordinates":[45.89201221390104,40.15222162964569,2180.001306763648]},"properties":{"name":"Qaytaran Hacıyev"}},
{"type":"Feature","id":"0951DB9F823639D67E0B","geometry":{"type":"Point","coordinates":[45.89352622740101,40.15111926727231,2181.771618334179]},"properties":{"name":"Əmirov Qoşqar"}},
{"type":"Feature","id":"0AE2E982E43639D6CC1E","geometry":{"type":"Point","coordinates":[45.89306460840317,40.15131484617976,2179.703862359928]},"properties":{"name":"Ferma"}},
{"type":"Feature","id":"0B5D4D11073639D791C6","geometry":{"type":"Point","coordinates":[45.89486707843995,40.15110522065039,2197.102987074732]},"properties":{"name":"Həbib Qəhrəmanov"}},
{"type":"Feature","id":"096796A5423639E3066A","geometry":{"type":"Point","coordinates":[45.86794226919675,40.15920345982848,2093.81655435233]},"properties":{"name":"Hüsən çayı(Dağ çayı)"}},
{"type":"Feature","id":"000757720A3639E52169","geometry":{"type":"Point","coordinates":[45.80495708139431,40.20471087226797,1963.410977823761]},"properties":{"name":"Məzrə çayı"}},
{"type":"Feature","id":"0B29D94C5C3639E65867","geometry":{"type":"Point","coordinates":[45.80874397692958,40.20531670149118,1965.583798326988]},"properties":{"name":"Aqranom calası"}},
{"type":"Feature","id":"06AB34A2EF3639E6C706","geometry":{"type":"Point","coordinates":[45.805952745839,40.20135679153943,1963.41596251281]},"properties":{"name":"Tərsə calası"}},
{"type":"Feature","id":"0A6F7BBD793639E70630","geometry":{"type":"Point","coordinates":[45.80739067029688,40.20204938702648,1964.363050444239]},"properties":{"name":"Cəmşid boğulan"}},
{"type":"Feature","id":"036436FB443639E7A59E","geometry":{"type":"Point","coordinates":[45.808720775977,40.20153233894253,1964.825475419251]},"properties":{"name":"Hüsən çayı(Dağ çayı)"}},
{"type":"Feature","id":"0EBD8C62D03639E8767D","geometry":{"type":"Point","coordinates":[45.80815853586381,40.18798933696968,1978.429282166106]},"properties":{"name":"Dana boğulan"}},
{"type":"Feature","id":"07F6BB514E3639ECC44D","geometry":{"type":"Point","coordinates":[45.80265378825477,40.17037578776532,2012.04010370475]},"properties":{"name":"Nərimanlı qəbirstanlığı"}},
{"type":"Feature","id":"0F3862CBB33639F092F6","geometry":{"type":"Point","coordinates":[45.80365488990969,40.17107587732881,2001.174846528544]},"properties":{"name":"Nərimanlı qəbirstanlığı"}},
{"type":"Feature","id":"09CE8714B83639F88DA6","geometry":{"type":"Point","coordinates":[45.82438830470164,40.1827488239824,1989.423248158911]},"properties":{"name":"Hüseynquluağalı (Nərimanlı)"}}
]}
