{"type":"FeatureCollection", "features":[
{"type":"Feature","id":"0460E8B55E344644768C","geometry":{"type":"Point","coordinates":[46.35925033029552,39.2818613286611,1076.012363051018]},"properties":{"0D6A10F67D34464476D9":0,"name":"Oxtar","extrude":true}},
{"type":"Feature","id":"0A7EAA8371344653E6F3","geometry":{"type":"Point","coordinates":[46.36272916615412,39.2792534712945,1062.450629332472]},"properties":{"0DBB2AD035344653E73D":0,"name":"Fərzəliyev İlham Şükür oğlu","extrude":true}},
{"type":"Feature","id":"0FF5A5F19D344654B16D","geometry":{"type":"Point","coordinates":[46.36245208262415,39.27928556071017,1064.34093096708]},"properties":{"0A818B2E03344654B1B8":0,"name":"İmanov Süleyman Cəbrayıl oğlu","extrude":true}},
{"type":"Feature","id":"02C17E11883446557CA8","geometry":{"type":"Point","coordinates":[46.36252207319618,39.27949823466317,1068.468877230239]},"properties":{"07F555D5A53446557CEC":0,"name":"Nəzərəliyev Məhərrəm Bəşir oğlu","extrude":true}},
{"type":"Feature","id":"0D2D605BE9344655E26C","geometry":{"type":"Point","coordinates":[46.36257386485706,39.27974002572194,1071.592478678101]},"properties":{"0098326990344655E2AB":0,"name":"Hüseynov Məhəmmədəli Məmmədhüseyn oğlu","extrude":true}},
{"type":"Feature","id":"0231C407ED344656B2F5","geometry":{"type":"Point","coordinates":[46.36244773955062,39.27994383313106,1075.141056423887]},"properties":{"07F62F3BA5344656B33F":0,"name":"Vəliyeva Sona Cəfər qızı","extrude":true}},
{"type":"Feature","id":"0E263EC0453446573B1C","geometry":{"type":"Point","coordinates":[46.36214181866482,39.27996914478292,1075.066563381884]},"properties":{"0A41A842E33446573B67":0,"name":"İmanov Maşallah İnşallah oğlu","extrude":true}},
{"type":"Feature","id":"0B1BDEC032344657F677","geometry":{"type":"Point","coordinates":[46.36240841905556,39.28062784570052,1085.980587640377]},"properties":{"057E199A06344657F6B7":0,"name":"Dükan","extrude":true}},
{"type":"Feature","id":"08BC14EE083446589468","geometry":{"type":"Point","coordinates":[46.36198277719545,39.28068869111917,1087.909624211226]},"properties":{"0BD9D733FB34465894AB":0,"name":"Vəliyev Məşədixıdır","extrude":true}},
{"type":"Feature","id":"03727F14B534465907A6","geometry":{"type":"Point","coordinates":[46.3619288758829,39.28163819154635,1111.91100925132]},"properties":{"02413007EA34465907EC":0,"name":"Cabbarov Məhəmməd","extrude":true}},
{"type":"Feature","id":"0A5BAD04AF344659B6B1","geometry":{"type":"Point","coordinates":[46.36088899595646,39.28123267301203,1086.679867623961]},"properties":{"03F65598AE344659B6FD":0,"name":"Abdullayev Veysəl","extrude":true}},
{"type":"Feature","id":"0A29E4603E34465A8D8C","geometry":{"type":"Point","coordinates":[46.36160753958079,39.28109581451152,1098.081181603286]},"properties":{"06752BDBBA34465A8DDE":0,"name":"Cümşüdün tövləsi","extrude":true}},
{"type":"Feature","id":"05E362BE4734465AEE37","geometry":{"type":"Point","coordinates":[46.36134389758611,39.28088190915771,1087.595764060562]},"properties":{"04AA2F01D134465AEE82":0,"name":"Davudov Əlqəmə","extrude":true}},
{"type":"Feature","id":"0EDEF30E4F34465CDB4D","geometry":{"type":"Point","coordinates":[46.36058480885971,39.28245493918209,1103.584091027249]},"properties":{"0C1B26427D34465CDB91":0,"name":"Muradov Yusif","extrude":true}},
{"type":"Feature","id":"0ED0F019A234465D935B","geometry":{"type":"Point","coordinates":[46.36085605294363,39.28271690215693,1112.929366648471]},"properties":{"02E3DFA89334465D93A4":0,"name":"Firuz Şirinov","extrude":true}},
{"type":"Feature","id":"03A9D22D2634465DE0F4","geometry":{"type":"Point","coordinates":[46.36119886930079,39.28293818365432,1124.468203944564]},"properties":{"0B6A384EEE34465DE13D":0,"name":"İdris Şirinov","extrude":true}},
{"type":"Feature","id":"0DB2FFBC3834465FABD1","geometry":{"type":"Point","coordinates":[46.36036246732922,39.28368339827116,1119.963343736033]},"properties":{"0511351B8834465FAC11":0,"name":"Həsənov Cavad","extrude":true}},
{"type":"Feature","id":"040088B4EE344660B24B","geometry":{"type":"Point","coordinates":[46.36014917010141,39.28337025119303,1110.265439596934]},"properties":{"0DB75FB9C8344660B28D":0,"name":"Hüseynquluyev Qoşun","extrude":true}},
{"type":"Feature","id":"05AAF7E3F83446613D53","geometry":{"type":"Point","coordinates":[46.35988886076526,39.28287458231679,1098.071266648128]},"properties":{"01939C937C3446613D95":0,"name":"Quliyev Qulu","extrude":true}},
{"type":"Feature","id":"0F181E149A344661F084","geometry":{"type":"Point","coordinates":[46.35943182185694,39.28240577940857,1085.034493887061]},"properties":{"058022C21C344661F0C6":0,"name":"Quliyev Cəfər","extrude":true}},
{"type":"Feature","id":"043DA69D113446626CF2","geometry":{"type":"Point","coordinates":[46.35956104738254,39.28205056239587,1082.40300412066]},"properties":{"01AF4B5B573446626D33":0,"name":"Şahmuradov İsa","extrude":true}},
{"type":"Feature","id":"035B0B02EC3446636908","geometry":{"type":"Point","coordinates":[46.35921436071803,39.28117149684663,1061.558698769856]},"properties":{"0FEE65FCD934466369D3":0,"name":"Yaqubov Surxay","extrude":true}},
{"type":"Feature","id":"0431D17CCA3446640829","geometry":{"type":"Point","coordinates":[46.35911849789797,39.28163828553414,1072.576707057365]},"properties":{"0054C2BB7B344664086B":0,"name":" Məmmədov Cəlil","extrude":true}},
{"type":"Feature","id":"0F625969F6344664AD0E","geometry":{"type":"Point","coordinates":[46.35911710819969,39.28137762462314,1065.851403928902]},"properties":{"02979E4E18344664AD50":0,"name":"Əmir dayı","extrude":true}},
{"type":"Feature","id":"0897B3E8AF344665548F","geometry":{"type":"Point","coordinates":[46.35923594955748,39.28207192588496,1078.397014316804]},"properties":{"015B44EFF434466554D1":0,"name":"Əhmədəliyev Rəhim","extrude":true}},
{"type":"Feature","id":"0BE240CE5034466719CE","geometry":{"type":"Point","coordinates":[46.35645737544858,39.28186302310642,1039.958512364208]},"properties":{"075899FBC23446671A14":0,"name":"Məktəb","extrude":true}},
{"type":"Feature","id":"0B62A67DA93446689DC1","geometry":{"type":"Point","coordinates":[46.36309956305804,39.28061733028006,1080.099718746851]},"properties":{"0DC24674263446689E3A":0,"name":"Dərəbostan","extrude":true}},
{"type":"Feature","id":"0C5FE79EF3344668EE52","geometry":{"type":"Point","coordinates":[46.36272290065309,39.28140047559732,1099.178023682265]},"properties":{"033BAA0307344668EE9C":0,"name":"Qəbristanlıq","extrude":true}},
{"type":"Feature","id":"00A68105673446697BF4","geometry":{"type":"Point","coordinates":[46.3635376328405,39.28180761661891,1099.675225162565]},"properties":{"099765A18B3446697C36":0,"name":"Qəbristanlıq","extrude":true}},
{"type":"Feature","id":"077CAFDFDB344669E020","geometry":{"type":"Point","coordinates":[46.36614504239891,39.28093942122109,1134.903441250472]},"properties":{"0B94E0F87E344669E066":0,"name":"Sarıbayır","extrude":true}},
{"type":"Feature","id":"06E5B3CCFD34466A7B39","geometry":{"type":"Point","coordinates":[46.36347326128893,39.28508300901184,1177.930527264989]},"properties":{"0F2752956F34466A7BE6":0,"name":"Yalyurd","extrude":true}},
{"type":"Feature","id":"048791C07534466B629B","geometry":{"type":"Point","coordinates":[46.35811823460813,39.28064321625885,1036.437783686697]},"properties":{"0CF178FD8134466B62DD":0,"name":"Ferma","extrude":true}},
{"type":"Feature","id":"02CAB1D017357CCCA784","geometry":{"type":"Point","coordinates":[46.49674548562329,39.20787972215298,0]},"properties":{"name":"Qaraçimən","altitudeMode":"relativeToGround"}},
{"type":"Feature","id":"0515C54592358B98387C","geometry":{"type":"Point","coordinates":[46.35740195687047,39.28364134422973,1074.136935906753]},"properties":{"06A515FF06358B983881":0,"name":"Yal Zəmi","extrude":true}},
{"type":"Feature","id":"0D28D2DBB9358B9C0110","geometry":{"type":"Point","coordinates":[46.35832578921953,39.2856062425067,1125.309732811401]},"properties":{"0A900AE19D358B9C0113":0,"name":"Bırnavıl","extrude":true}},
{"type":"Feature","id":"0847E998DD358B9CAA6F","geometry":{"type":"Point","coordinates":[46.35814610911553,39.28246370253044,1062.250828380573]},"properties":{"093C760506358B9CAA73":0,"name":"Su dərəsi","extrude":true}},
{"type":"Feature","id":"09312DFF4E358B9DDFB3","geometry":{"type":"Point","coordinates":[46.35615645004321,39.28329348050637,1055.198526091855]},"properties":{"08F7AC7C5F358B9DDFB8":0,"name":"Güllük dərəsi","extrude":true}},
{"type":"Feature","id":"0F8860F574358B9E528E","geometry":{"type":"Point","coordinates":[46.35569900692728,39.28535564584717,1074.195074893214]},"properties":{"0CA6D9A131358B9E5292":0,"name":"Turşsu bulağı","extrude":true}},
{"type":"Feature","id":"0FB07A569A358B9F001E","geometry":{"type":"Point","coordinates":[46.35241974983123,39.28285111930553,1053.455934761815]},"properties":{"09CFF2674B358B9F0022":0,"name":"Qəbristanlıq","extrude":true}},
{"type":"Feature","id":"0CFF359769358BA507DD","geometry":{"type":"Point","coordinates":[46.35985951863599,39.28320635084255,1101.446494358109]},"properties":{"0AB43B2E1B358BA507EA":0,"name":"Hüseynov Həsən","extrude":true}},
{"type":"Feature","id":"05E8670D95358BA9EA07","geometry":{"type":"Point","coordinates":[46.36060057042091,39.28337374808442,1119.996461783929]},"properties":{"0DC25F7BBC358BA9EA0B":0,"name":"Həsənov Savad","extrude":true}},
{"type":"Feature","id":"0EF016EFF1358BAF47D2","geometry":{"type":"Point","coordinates":[46.35948265932736,39.28178936857176,1077.743333102465]},"properties":{"00A86F11FA358BAF47D9":0,"name":"Əhmədəliyev İsa","extrude":true}},
{"type":"Feature","id":"0732944C91358BB53CB7","geometry":{"type":"Point","coordinates":[46.36019841165588,39.28010804477467,1045.117059713039]},"properties":{"01816FECA5358BB53CBF":0,"name":"Cəfərov Məhəmməd Məhərrəm oğlu","extrude":true}},
{"type":"Feature","id":"08D03F6586358BB5DA51","geometry":{"type":"Point","coordinates":[46.36025732425318,39.28040165869444,1053.095417172801]},"properties":{"05CEEB8558358BB5DA58":0,"name":"Əliyeva İsmət Əsəd qızı","extrude":true}},
{"type":"Feature","id":"015852CBCB358BBCDCD5","geometry":{"type":"Point","coordinates":[46.36144907945101,39.27988637581254,1064.675607601024]},"properties":{"038E48F0A3358BBCDCDE":0,"name":"Əhmədov Musa İsa oğlu","extrude":true}},
{"type":"Feature","id":"047E9C35E9358BBD6678","geometry":{"type":"Point","coordinates":[46.36204823104735,39.27961818647455,1068.335313580827]},"properties":{"09261469B2358BBD667C":0,"name":"Cəfərov Nəcəf Məhərrəm oğlu","extrude":true}},
{"type":"Feature","id":"0455BD72A9358BC207DB","geometry":{"type":"Point","coordinates":[46.36248031613597,39.28013413924877,1077.35817447447]},"properties":{"01DF621331358BC207E4":0,"name":"İsayev Misir Şükür oğlu","extrude":true}},
{"type":"Feature","id":"000CDF0EE8358BC28B8A","geometry":{"type":"Point","coordinates":[46.36191221100116,39.28043231861479,1082.426948913554]},"properties":{"0511FFD0AA358BC28B91":0,"name":"Mədəniyyət evi","extrude":true}},
{"type":"Feature","id":"0047CC3392358BC3404F","geometry":{"type":"Point","coordinates":[46.36217489097683,39.28020461688401,1078.826419934035]},"properties":{"0644DDBB6E358BC34055":0,"name":"Həsənquliyev Ənvər Məhəmməd oğlu","extrude":true}},
{"type":"Feature","id":"0D289F4EF0358BC6811E","geometry":{"type":"Point","coordinates":[46.36175145572265,39.28071225198778,1088.544658438581]},"properties":{"0CD08AA80F358BC68122":0,"name":"Hüseynov Şirin Məmmədhüseyn oğlu","extrude":true}},
{"type":"Feature","id":"04AE7CCBA3358BC6EA7A","geometry":{"type":"Point","coordinates":[46.36166937574094,39.28084602989506,1091.929519168537]},"properties":{"0F39CF8A04358BC6EA81":0,"name":"Orucov Rəhim(Cümşüd) Kazım oğlu","extrude":true}},
{"type":"Feature","id":"08C3665EA9358BCA6133","geometry":{"type":"Point","coordinates":[46.36082827236537,39.28113144508312,1083.220650433474]},"properties":{"0D3846AE90358BCA6137":0,"name":"Qurbanov Famil Məhəmməd oğlu","extrude":true}},
{"type":"Feature","id":"0E041846A7358BCD799E","geometry":{"type":"Point","coordinates":[46.36271315043447,39.28325705554912,1142.695886964458]},"properties":{"0992BA238E358BCD79A4":0,"name":"Yalyurd","extrude":true}},
{"type":"Feature","id":"064F8D8551358BCE4910","geometry":{"type":"Point","coordinates":[46.36033604732117,39.28510026062835,1125.341011837599]},"properties":{"056E2AC8EC358BCE4917":0,"name":"Qızlar yatağı","extrude":true}},
{"type":"Feature","id":"0B93D36289358BCF4E07","geometry":{"type":"Point","coordinates":[46.34823597630169,39.28165687222389,1036.719564639346]},"properties":{"0EF294B25D358BCF4E0F":0,"name":"Alban kilsəsi(pir) ","extrude":true}},
{"type":"Feature","id":"0D7BA2EF27358BD0625A","geometry":{"type":"Point","coordinates":[46.35883724637775,39.28341946501862,1081.870816938282]},"properties":{"0BDEF58154358BD06260":0,"name":"Zoğallar bulağı","extrude":true}},
{"type":"Feature","id":"08B9554D1F358BD1EF57","geometry":{"type":"Point","coordinates":[46.35952435186054,39.28445178806946,1102.501040308823]},"properties":{"056720655F358BD1EF5B":0,"name":"Çömçəbulaq","extrude":true}},
{"type":"Feature","id":"095B29EAD8358BD30CB5","geometry":{"type":"Point","coordinates":[46.36376993923442,39.28745776925448,1202.975039909932]},"properties":{"097B1AF390358BD30CBC":0,"name":"Midəm(otlaq) ","extrude":true}},
{"type":"Feature","id":"0673C89DDF358BD51E2B","geometry":{"type":"Point","coordinates":[46.35517398193628,39.28053727813622,1046.554781977484]},"properties":{"0F810EA8B1358BD51E33":0,"name":"Dəyirman yeri","extrude":true}},
{"type":"Feature","id":"09867D7ADF358BD59721","geometry":{"type":"Point","coordinates":[46.35234056009113,39.27984467569362,1085.449684061858]},"properties":{"02FA96488A358BD59725":0,"name":"Qaranlıq dərə","extrude":true}},
{"type":"Feature","id":"002C6227C6358BD66229","geometry":{"type":"Point","coordinates":[46.34763496429174,39.27931359931925,1161.112143031769]},"properties":{"0055E7CF4A358BD6622E":0,"name":"Qara yeri(otlaq) ","extrude":true}},
{"type":"Feature","id":"09DB7EE52E358BD8D92F","geometry":{"type":"Point","coordinates":[46.36289842756401,39.27630050850421,1003.538225444218]},"properties":{"0E5627F707358BD8D937":0,"name":"Şıxı yeri","extrude":true}},
{"type":"Feature","id":"05D06207F4358BD94EEE","geometry":{"type":"Point","coordinates":[46.36187699403418,39.27724809769017,1009.642921819508]},"properties":{"0308CD2CC0358BD94EF2":0,"name":"Ənvər bostanı","extrude":true}},
{"type":"Feature","id":"02E77D5F63358BDE2864","geometry":{"type":"Point","coordinates":[46.35769761579095,39.28080216710612,1034.321651675758]},"properties":{"02BE7BD6CF358BDE2868":0,"name":"Müəllimlər evi","extrude":true}},
{"type":"Feature","id":"09E940AEE4358BDFBE9F","geometry":{"type":"Point","coordinates":[46.35916184760751,39.27752728195021,1044.320388959302]},"properties":{"0D8482DA2B358BDFBEAA":0,"name":"Məcmərli(biçənək) ","extrude":true}},
{"type":"Feature","id":"0B4FA53C5F358BE16B14","geometry":{"type":"Point","coordinates":[46.35059555582133,39.27765471842707,1161.897453823595]},"properties":{"0645E3297A358BE16B19":0,"name":"Aşağı Civikli(otlaq) ","extrude":true}},
{"type":"Feature","id":"01F676D9A1358BE1EAC9","geometry":{"type":"Point","coordinates":[46.35263590634946,39.27644387066591,1232.708706919568]},"properties":{"0BE6DF8733358BE1EACE":0,"name":"Yuxarı Civikli(otlaq) ","extrude":true}},
{"type":"Feature","id":"009B00648F358BE7737F","geometry":{"type":"Point","coordinates":[46.36517826751628,39.27649526329729,1030.256029257222]},"properties":{"00D5DBCAF1358BE77383":0,"name":"Dovşandərə","extrude":true}},
{"type":"Feature","id":"0EDEE233B6358BE80091","geometry":{"type":"Point","coordinates":[46.36803504950175,39.27604162711206,1039.488353628061]},"properties":{"0C06BB9DEA358BE8009B":0,"name":"Çobanlı","extrude":true}},
{"type":"Feature","id":"0BFD0FF3FF358BEFFB17","geometry":{"type":"Point","coordinates":[46.36622808775508,39.27409367171074,990.4059109206996]},"properties":{"0EF663B2A3358BEFFB1B":0,"name":"Gorxana","extrude":true}},
{"type":"Feature","id":"0F32ADFC65358BF1AFB6","geometry":{"type":"Point","coordinates":[46.36291011348936,39.27801157966712,1031.461322546174]},"properties":{"0D3D2B0E1A358BF1AFBC":0,"name":"Bərəher","extrude":true}},
{"type":"Feature","id":"00A7331530358BF4834C","geometry":{"type":"Point","coordinates":[46.35925941239054,39.28092636794541,1055.351565798505]},"properties":{"003CA4D46B358BF48350":0,"name":"Muradov Soltan Cabbar oğlu","extrude":true}},
{"type":"Feature","id":"0FBA14E8ED358BF730FB","geometry":{"type":"Point","coordinates":[46.36326759842092,39.27938379797004,1061.440489947578]},"properties":{"03F00873B7358BF730FF":0,"name":"Qozluq","extrude":true}},
{"type":"Feature","id":"000004D65D358BF89606","geometry":{"type":"Point","coordinates":[46.35688270989127,39.28024658378251,1027.859966867351]},"properties":{"0A0D715432358BF8960B":0,"name":"Oxtar körpüsü","extrude":true}},
{"type":"Feature","id":"079B7575E6358BFBE4D7","geometry":{"type":"Point","coordinates":[46.35119938655603,39.28339864919018,1056.758855208692]},"properties":{"0CBA8E8241358BFBE4E0":0,"name":"Uzunzəmi","extrude":true}},
{"type":"Feature","id":"02D8D7315E358BFF4D97","geometry":{"type":"Point","coordinates":[46.35839490507517,39.27910540600415,1034.980421718486]},"properties":{"0591A5A092358BFF4DA0":0,"name":"Pəricahan bulağı","extrude":true}},
{"type":"Feature","id":"01E0EA3613358BFFDB0E","geometry":{"type":"Point","coordinates":[46.35767286219242,39.27792315693925,1068.483217035829]},"properties":{"0D093B0B94358BFFDB12":0,"name":"Bataqlıq(biçənək) ","extrude":true}},
{"type":"Feature","id":"017198C257358C05608A","geometry":{"type":"Point","coordinates":[46.36224813608906,39.27827662702737,1035.183452038238]},"properties":{"05ABB6B559358C056093":0,"name":"Uçuq","extrude":true}},
{"type":"Feature","id":"0B83D8F941358C066831","geometry":{"type":"Point","coordinates":[46.35872752782824,39.28019138146461,1031.78167447024]},"properties":{"0ADF25EDFD358C066839":0,"name":"Tənbəki çardağı(dağıdılıb) ","extrude":true}},
{"type":"Feature","id":"0773B6BCAF358C096ECD","geometry":{"type":"Point","coordinates":[46.36094691757705,39.27525879145465,1055.204845969915]},"properties":{"025DB86B68358C096ED2":0,"name":"Bayraq yeri(otlaq) ","extrude":true}}
]}
