{"type":"FeatureCollection", "features":[
{"type":"Feature","id":"0460E8B55E344644768C","geometry":{"type":"Point","coordinates":[46.35925033029552,39.2818613286611,1076.012363051018]},"properties":{"0D6A10F67D34464476D9":0,"name":"Oxtar","extrude":true}},
{"type":"Feature","id":"0A7EAA8371344653E6F3","geometry":{"type":"Point","coordinates":[46.36272916615412,39.2792534712945,1062.450629332472]},"properties":{"0DBB2AD035344653E73D":0,"name":"Fərzəliyev Şükür","extrude":true}},
{"type":"Feature","id":"0FF5A5F19D344654B16D","geometry":{"type":"Point","coordinates":[46.36245208262415,39.27928556071017,1064.34093096708]},"properties":{"0A818B2E03344654B1B8":0,"name":"İmanov Süleyman","extrude":true}},
{"type":"Feature","id":"02C17E11883446557CA8","geometry":{"type":"Point","coordinates":[46.36252207319618,39.27949823466317,1068.468877230239]},"properties":{"07F555D5A53446557CEC":0,"name":"Nəzərəliyev Məhərrəm","extrude":true}},
{"type":"Feature","id":"0D2D605BE9344655E26C","geometry":{"type":"Point","coordinates":[46.36257386485706,39.27974002572194,1071.592478678101]},"properties":{"0098326990344655E2AB":0,"name":"Hüseynov Məhəmmədəli","extrude":true}},
{"type":"Feature","id":"0231C407ED344656B2F5","geometry":{"type":"Point","coordinates":[46.36244773955062,39.27994383313106,1075.141056423887]},"properties":{"07F62F3BA5344656B33F":0,"name":"Vəliyeva Sona","extrude":true}},
{"type":"Feature","id":"0E263EC0453446573B1C","geometry":{"type":"Point","coordinates":[46.36214181866482,39.27996914478292,1075.066563381884]},"properties":{"0A41A842E33446573B67":0,"name":"Hüseynquliyev Ənvər","extrude":true}},
{"type":"Feature","id":"0B1BDEC032344657F677","geometry":{"type":"Point","coordinates":[46.36240841905556,39.28062784570052,1085.980587640377]},"properties":{"057E199A06344657F6B7":0,"name":"Dükan","extrude":true}},
{"type":"Feature","id":"08BC14EE083446589468","geometry":{"type":"Point","coordinates":[46.36198277719545,39.28068869111917,1087.909624211226]},"properties":{"0BD9D733FB34465894AB":0,"name":"Vəliyev Məşədixıdır","extrude":true}},
{"type":"Feature","id":"03727F14B534465907A6","geometry":{"type":"Point","coordinates":[46.3619288758829,39.28163819154635,1111.91100925132]},"properties":{"02413007EA34465907EC":0,"name":"Cabbarov Məhəmməd","extrude":true}},
{"type":"Feature","id":"0A5BAD04AF344659B6B1","geometry":{"type":"Point","coordinates":[46.36088899595646,39.28123267301203,1086.679867623961]},"properties":{"03F65598AE344659B6FD":0,"name":"Abdullayev Veysəl","extrude":true}},
{"type":"Feature","id":"0A29E4603E34465A8D8C","geometry":{"type":"Point","coordinates":[46.36160753958079,39.28109581451152,1098.081181603286]},"properties":{"06752BDBBA34465A8DDE":0,"name":"Vəliyev Cümşüd","extrude":true}},
{"type":"Feature","id":"05E362BE4734465AEE37","geometry":{"type":"Point","coordinates":[46.36134389758611,39.28088190915771,1087.595764060562]},"properties":{"04AA2F01D134465AEE82":0,"name":"Davudov Əlqəmə","extrude":true}},
{"type":"Feature","id":"0EDEF30E4F34465CDB4D","geometry":{"type":"Point","coordinates":[46.36058480885971,39.28245493918209,1103.584091027249]},"properties":{"0C1B26427D34465CDB91":0,"name":"Muradov Yusif","extrude":true}},
{"type":"Feature","id":"0ED0F019A234465D935B","geometry":{"type":"Point","coordinates":[46.36085605294363,39.28271690215693,1112.929366648471]},"properties":{"02E3DFA89334465D93A4":0,"name":"Firuz Şirinov","extrude":true}},
{"type":"Feature","id":"03A9D22D2634465DE0F4","geometry":{"type":"Point","coordinates":[46.36119886930079,39.28293818365432,1124.468203944564]},"properties":{"0B6A384EEE34465DE13D":0,"name":"İdris Şirinov","extrude":true}},
{"type":"Feature","id":"0DB2FFBC3834465FABD1","geometry":{"type":"Point","coordinates":[46.36036246732922,39.28368339827116,1119.963343736033]},"properties":{"0511351B8834465FAC11":0,"name":"Həsənov Cavad","extrude":true}},
{"type":"Feature","id":"040088B4EE344660B24B","geometry":{"type":"Point","coordinates":[46.36014917010141,39.28337025119303,1110.265439596934]},"properties":{"0DB75FB9C8344660B28D":0,"name":"Həsənov Savad","extrude":true}},
{"type":"Feature","id":"05AAF7E3F83446613D53","geometry":{"type":"Point","coordinates":[46.35988886076526,39.28287458231679,1098.071266648128]},"properties":{"01939C937C3446613D95":0,"name":"Hüseynquliyev Qoşun","extrude":true}},
{"type":"Feature","id":"0F181E149A344661F084","geometry":{"type":"Point","coordinates":[46.35943182185694,39.28240577940857,1085.034493887061]},"properties":{"058022C21C344661F0C6":0,"name":"Quliyev Cəfər","extrude":true}},
{"type":"Feature","id":"043DA69D113446626CF2","geometry":{"type":"Point","coordinates":[46.35956104738254,39.28205056239587,1082.40300412066]},"properties":{"01AF4B5B573446626D33":0,"name":"Şahmuradov İsa","extrude":true}},
{"type":"Feature","id":"0D859186503446630794","geometry":{"type":"Point","coordinates":[46.35923830648374,39.28090075154804,1054.508539458435]},"properties":{"0F91710E57344663082E":0,"name":"Muradov Soltan","extrude":true}},
{"type":"Feature","id":"035B0B02EC3446636908","geometry":{"type":"Point","coordinates":[46.35921436071803,39.28117149684663,1061.558698769856]},"properties":{"0FEE65FCD934466369D3":0,"name":"Yaqubov Surxay","extrude":true}},
{"type":"Feature","id":"0431D17CCA3446640829","geometry":{"type":"Point","coordinates":[46.35911849789797,39.28163828553414,1072.576707057365]},"properties":{"0054C2BB7B344664086B":0,"name":"Əhmədəliyev Rəhim","extrude":true}},
{"type":"Feature","id":"0F625969F6344664AD0E","geometry":{"type":"Point","coordinates":[46.35911710819969,39.28137762462314,1065.851403928902]},"properties":{"02979E4E18344664AD50":0,"name":"Əhmədəliyev İsa","extrude":true}},
{"type":"Feature","id":"0897B3E8AF344665548F","geometry":{"type":"Point","coordinates":[46.35923594955748,39.28207192588496,1078.397014316804]},"properties":{"015B44EFF434466554D1":0,"name":"Hüseynov Həsən","extrude":true}},
{"type":"Feature","id":"0452762CF4344665E545","geometry":{"type":"Point","coordinates":[46.35889751259241,39.28123336884641,1060.409635700672]},"properties":{"014EEDCF65344665E583":0,"name":"Cəlil","extrude":true}},
{"type":"Feature","id":"0BE240CE5034466719CE","geometry":{"type":"Point","coordinates":[46.35645737544858,39.28186302310642,1039.958512364208]},"properties":{"075899FBC23446671A14":0,"name":"Məktəb","extrude":true}},
{"type":"Feature","id":"0B62A67DA93446689DC1","geometry":{"type":"Point","coordinates":[46.36309956305804,39.28061733028006,1080.099718746851]},"properties":{"0DC24674263446689E3A":0,"name":"Qozluq","extrude":true}},
{"type":"Feature","id":"0C5FE79EF3344668EE52","geometry":{"type":"Point","coordinates":[46.36272290065309,39.28140047559732,1099.178023682265]},"properties":{"033BAA0307344668EE9C":0,"name":"Bostan yeri","extrude":true}},
{"type":"Feature","id":"00A68105673446697BF4","geometry":{"type":"Point","coordinates":[46.3635376328405,39.28180761661891,1099.675225162565]},"properties":{"099765A18B3446697C36":0,"name":"Qəbristanlıq","extrude":true}},
{"type":"Feature","id":"077CAFDFDB344669E020","geometry":{"type":"Point","coordinates":[46.36614504239891,39.28093942122109,1134.903441250472]},"properties":{"0B94E0F87E344669E066":0,"name":"Sarıbayır","extrude":true}},
{"type":"Feature","id":"06E5B3CCFD34466A7B39","geometry":{"type":"Point","coordinates":[46.36347326128893,39.28508300901184,1177.930527264989]},"properties":{"0F2752956F34466A7BE6":0,"name":"Yalyurd","extrude":true}},
{"type":"Feature","id":"048791C07534466B629B","geometry":{"type":"Point","coordinates":[46.35811823460813,39.28064321625885,1036.437783686697]},"properties":{"0CF178FD8134466B62DD":0,"name":"Tənbəki çardağı","extrude":true}},
{"type":"Feature","id":"0F1A1BAD2334466C3179","geometry":{"type":"Point","coordinates":[46.35808502972846,39.27990588676944,1028.437186293315]},"properties":{"03CAEA44BA34466C31BA":0,"name":"Şıxıyeri","extrude":true}}
]}
