{"type":"FeatureCollection", "features":[
{"type":"Feature","id":"013A688F9935AE8906CF","geometry":{"type":"Point","coordinates":[46.10627850113886,39.24551337236203,1793.191389834679]},"properties":{"name":"Pəyhan"}},
{"type":"Feature","id":"078A846A4B35AE8A0F05","geometry":{"type":"Point","coordinates":[46.10823226279435,39.24355648276332,1797.692437500702]},"properties":{"0465D8565935AE8A0F19":0,"name":"Həmzəyev Həmzə","extrude":true}},
{"type":"Feature","id":"01F5F138D335AE8A9035","geometry":{"type":"Point","coordinates":[46.10799812713438,39.24350440387633,1793.250975118052]},"properties":{"0DA6E0251635AE8A904C":0,"name":"Mürsəlov Yavər","extrude":true}},
{"type":"Feature","id":"06BF1773C935AE8AF2DA","geometry":{"type":"Point","coordinates":[46.10882818456454,39.24234870577715,1790.975041988002]},"properties":{"0FFE9091B635AE8AF2E9":0,"name":"Səlimov Mustafa","extrude":true}},
{"type":"Feature","id":"06B131F97435AE8B4505","geometry":{"type":"Point","coordinates":[46.10897593106917,39.24178522995381,1786.171219972952]},"properties":{"0EAA9A6A5935AE8B4516":0,"name":"Ziyadov Məhəmməd","extrude":true}},
{"type":"Feature","id":"0AC52C80C635AE8D419C","geometry":{"type":"Point","coordinates":[46.10676795426689,39.24483663296221,1800.74885300408]},"properties":{"09F7D7926535AE8D41AB":0,"name":"Məmmədov Mehdi","extrude":true}},
{"type":"Feature","id":"0AC67E9E9B35AE8D88FB","geometry":{"type":"Point","coordinates":[46.10664110158818,39.24488795287051,1801.111345606357]},"properties":{"0A4DDB461435AE8D8912":0,"name":"Hətəmov Hidayət","extrude":true}},
{"type":"Feature","id":"070B8DFD6235AE8DEFEC","geometry":{"type":"Point","coordinates":[46.10606241091552,39.24511360092304,1799.990314566171]},"properties":{"027A9DAF0C35AE8DEFFB":0,"name":"Bağırov Əbdül","extrude":true}},
{"type":"Feature","id":"02C3038E8F35AE8E5E07","geometry":{"type":"Point","coordinates":[46.10544506577892,39.24530054513725,1801.130062444435]},"properties":{"0D970B1AF435AE8E5E20":0,"name":"Ziyadova Zabta","extrude":true}},
{"type":"Feature","id":"094F97D64135AE8ECFA6","geometry":{"type":"Point","coordinates":[46.10573876246877,39.24524284067064,1799.564745946474]},"properties":{"0352A6835C35AE8ECFC1":0,"name":"Pənahov İsa","extrude":true}},
{"type":"Feature","id":"0FF541EAC835AE8FADE0","geometry":{"type":"Point","coordinates":[46.10588487808616,39.24517274857953,1800.119812257204]},"properties":{"026C2CF68235AE8FADFC":0,"name":"Nazarov Haxnazar","extrude":true}},
{"type":"Feature","id":"07608E580135AE90E880","geometry":{"type":"Point","coordinates":[46.10676573735966,39.24517728879007,1807.527819223814]},"properties":{"0C0296FB2735AE90E88F":0,"name":"Ziyadov Kərəm","extrude":true}},
{"type":"Feature","id":"007E0D2FA935AE918CD8","geometry":{"type":"Point","coordinates":[46.10495908888029,39.24607140515437,1811.128754846844]},"properties":{"062A1E7A0435AE918CE6":0,"name":"Nazarov Əsgər","extrude":true}},
{"type":"Feature","id":"0776CCE18D35AE925D02","geometry":{"type":"Point","coordinates":[46.10578549641208,39.24627345549857,1826.594520623156]},"properties":{"04CF3E441535AE925D12":0,"name":"Məmmədov Hüseyn","extrude":true}},
{"type":"Feature","id":"0C8705419735AE92EA1B","geometry":{"type":"Point","coordinates":[46.10548486045217,39.24587435938442,1809.341219124298]},"properties":{"09A57488EB35AE92EA2C":0,"name":"Həmzəyev Mürsəl","extrude":true}},
{"type":"Feature","id":"0A0BAE796935AE935376","geometry":{"type":"Point","coordinates":[46.10557378584372,39.24570812587859,1807.594662271673]},"properties":{"0DAF2C238535AE93538B":0,"name":"Hətəmova Məstana","extrude":true}},
{"type":"Feature","id":"028B91F81635AE93F909","geometry":{"type":"Point","coordinates":[46.10540406367481,39.24574650821786,1807.409254740538]},"properties":{"0E0D0A4D9E35AE93F924":0,"name":"Məmmədova Əsmər","extrude":true}},
{"type":"Feature","id":"09BA5B39D735AE94635F","geometry":{"type":"Point","coordinates":[46.10502916240625,39.24627162420956,1817.02975414464]},"properties":{"08661E304635AE946379":0,"name":"Niftalıyev Heydər","extrude":true}},
{"type":"Feature","id":"0C68B2206835AE94C22C","geometry":{"type":"Point","coordinates":[46.1051670055801,39.24618238314898,1815.857227541704]},"properties":{"055BCECD3D35AE94C246":0,"name":"Niftalıyev Vaqif","extrude":true}},
{"type":"Feature","id":"02A83AB3B435AE952DDE","geometry":{"type":"Point","coordinates":[46.10488812583574,39.2463340567807,1817.337595537887]},"properties":{"01647630C235AE952DF5":0,"name":"Nəzərov Şahüseyn","extrude":true}},
{"type":"Feature","id":"09CFF302D335AE95B935","geometry":{"type":"Point","coordinates":[46.10484629311118,39.24626790861477,1815.049740493826]},"properties":{"078522271535AE95B944":0,"name":"Nəzərov Nofəl","extrude":true}},
{"type":"Feature","id":"06863A71B035AE960ED6","geometry":{"type":"Point","coordinates":[46.10480592589734,39.246307096987,1815.696329615982]},"properties":{"074BD54C4F35AE960EF7":0,"name":"Nəzərov Əkbər","extrude":true}},
{"type":"Feature","id":"061C3D157835AE96782F","geometry":{"type":"Point","coordinates":[46.10534647845744,39.24672148403079,1834.392775965672]},"properties":{"0247B2121435AE967841":0,"name":"Cabbarov Rəşid","extrude":true}},
{"type":"Feature","id":"02E57682DD35AE970045","geometry":{"type":"Point","coordinates":[46.10517950514018,39.24657586941842,1827.20928063167]},"properties":{"0A6C39712035AE970058":0,"name":"Qurbanov Usub","extrude":true}},
{"type":"Feature","id":"059379473C35AE979DF7","geometry":{"type":"Point","coordinates":[46.10468163177994,39.24688066045301,1833.756637393045]},"properties":{"0DC09FA1A435AE979E06":0,"name":"Həsənov Həsənqulu","extrude":true}},
{"type":"Feature","id":"0B9F448C1835AE988540","geometry":{"type":"Point","coordinates":[46.10461315311397,39.24671140298506,1826.326124458281]},"properties":{"0F3E333FE835AE988551":0,"name":"Qurbanov Əbülfəz","extrude":true}},
{"type":"Feature","id":"09A48EA6EE35AE99444A","geometry":{"type":"Point","coordinates":[46.10407387074392,39.24637976701454,1814.004492302735]},"properties":{"04935F24EC35AE99445B":0,"name":"Cabarov Esax","extrude":true}},
{"type":"Feature","id":"065E58B52F35AE99C4E2","geometry":{"type":"Point","coordinates":[46.10241390978305,39.24668669914686,1817.080163411618]},"properties":{"09834F901935AE99C4EF":0,"name":"Qurbanov İmran","extrude":true}},
{"type":"Feature","id":"0B09F1C7CD35AE9A0FB4","geometry":{"type":"Point","coordinates":[46.10219132233695,39.24672996103653,1818.74912321487]},"properties":{"0AAD5E55E335AE9A0FCE":0,"name":"Qurbanov Əlişir","extrude":true}},
{"type":"Feature","id":"059B1097DA35AE9A65A6","geometry":{"type":"Point","coordinates":[46.10295565575808,39.24661467041673,1815.335122108603]},"properties":{"07DEC3374B35AE9A65BB":0,"name":"Səlimov Məhiş","extrude":true}},
{"type":"Feature","id":"0AE4409A4C35AE9ABD7F","geometry":{"type":"Point","coordinates":[46.10319085409914,39.24654169555568,1815.43074550617]},"properties":{"033AE1337635AE9ABD96":0,"name":"Mehdiyev Cəmil","extrude":true}},
{"type":"Feature","id":"00651F9E2F35AE9B14EF","geometry":{"type":"Point","coordinates":[46.10358339468014,39.24649329157222,1816.029081841465]},"properties":{"0F0EAED79C35AE9B1507":0,"name":"Məmmədov Bəxtiyar","extrude":true}},
{"type":"Feature","id":"0354EBEE5F35AE9B783B","geometry":{"type":"Point","coordinates":[46.0997476883272,39.2476802703728,1834.915574998053]},"properties":{"0CEB0DD40C35AE9B7849":0,"name":"Mehdiyev Əhliman","extrude":true}},
{"type":"Feature","id":"0921A0E36335AE9BEE79","geometry":{"type":"Point","coordinates":[46.09937526286624,39.24788677778076,1834.968741288855]},"properties":{"0E205F867535AE9BEE8E":0,"name":"Məmmədov Sücəddin","extrude":true}},
{"type":"Feature","id":"07614E129435AE9C67C7","geometry":{"type":"Point","coordinates":[46.09897925471105,39.24864863831518,1847.810435929994]},"properties":{"0A15E55CB135AE9C67E2":0,"name":"Hətəmov Sədayət","extrude":true}},
{"type":"Feature","id":"0B405FFAD435AE9CD100","geometry":{"type":"Point","coordinates":[46.09779929108186,39.24889594902764,1853.399510086962]},"properties":{"05E8F5027935AE9CD10F":0,"name":"Ağayev Talıb","extrude":true}},
{"type":"Feature","id":"012EFB19FF35AE9D870E","geometry":{"type":"Point","coordinates":[46.1053226770697,39.24639775416659,1823.658246494648]},"properties":{"0E039CFB4635AE9D871E":0,"name":"Ağayev Bayar","extrude":true}},
{"type":"Feature","id":"0B1F3999CA35AE9E2F4E","geometry":{"type":"Point","coordinates":[46.10544629341313,39.24657880096453,1830.761226509585]},"properties":{"01AA060AB535AE9E2F5D":0,"name":"Səlimov Səlim","extrude":true}},
{"type":"Feature","id":"068EB3A7CF35AE9F5460","geometry":{"type":"Point","coordinates":[46.10419023547149,39.2466262266407,1819.923856237841]},"properties":{"036E489EEC35AE9F5472":0,"name":"Mağaza","extrude":true}},
{"type":"Feature","id":"03AD9FAE2A35AE9FF77A","geometry":{"type":"Point","coordinates":[46.1033784183063,39.24655422061803,1815.761063134491]},"properties":{"0572FD59C635AE9FF787":0,"name":"Qurbanov Şirin","extrude":true}},
{"type":"Feature","id":"073DB3A55135AEA0534A","geometry":{"type":"Point","coordinates":[46.10343657761935,39.24654596775604,1816.062223174474]},"properties":{"014500DAB635AEA05359":0,"name":"Qurbanov Cəmşid","extrude":true}},
{"type":"Feature","id":"027A4309E335AEA1591C","geometry":{"type":"Point","coordinates":[46.09809694476697,39.2481794057317,1847.479901874615]},"properties":{"0CD03281E735AEA1592B":0,"name":"Qazangöl çayı","extrude":true}},
{"type":"Feature","id":"0AC64A158535AEA1ECFB","geometry":{"type":"Point","coordinates":[46.09856700106263,39.24800115312395,1837.058158800754]},"properties":{"02A9255B1335AEA1ED0B":0,"name":"Topurquluq","extrude":true}},
{"type":"Feature","id":"0240970B6635AEA2CCCE","geometry":{"type":"Point","coordinates":[46.10002425229837,39.24860907857895,1864.397994466751]},"properties":{"0912BBF35735AEA2CCDE":0,"name":"Haxnəzər yeri","extrude":true}},
{"type":"Feature","id":"033A5DECEF35AEA3D57C","geometry":{"type":"Point","coordinates":[46.0983169232767,39.25633693171692,2066.285620279327]},"properties":{"0C0F5BE05835AEA3D58F":0,"name":"Pəyhan alameşəsi","extrude":true}},
{"type":"Feature","id":"0A4514584835AEA453BB","geometry":{"type":"Point","coordinates":[46.09811127482354,39.25342407434891,1989.274410593181]},"properties":{"081D7C304535AEA453C9":0,"name":"Haxnəzər dərəsi","extrude":true}},
{"type":"Feature","id":"0C09CFE4FA35AEA4DCED","geometry":{"type":"Point","coordinates":[46.09244577415878,39.27403169245664,2704.893908056941]},"properties":{"0D5244FBFA35AEA4DD07":0,"name":"Qazmaca yaylası","extrude":true}},
{"type":"Feature","id":"09B86B4C1535AEA5EBDC","geometry":{"type":"Point","coordinates":[46.10998411374846,39.25512803086863,2292.07361364755]},"properties":{"089A73035235AEA5EBF3":0,"name":"Qızılqaya","extrude":true}},
{"type":"Feature","id":"0B4E7DB94F35AEB75FE6","geometry":{"type":"Point","coordinates":[46.1111842383334,39.25970447263272,2299.632043809766]},"properties":{"0E4EFE820835AEB75FFB":0,"name":"Göl yaylası","extrude":true}},
{"type":"Feature","id":"0DB305A12935AEB9C704","geometry":{"type":"Point","coordinates":[46.10397600702206,39.26315161273235,2503.18063583316]},"properties":{"0C3219E79F35AEB9C713":0,"name":"Pirheybət","extrude":true}},
{"type":"Feature","id":"0F1CB665E135AEBB5263","geometry":{"type":"Point","coordinates":[46.1158677930641,39.23968901495733,2255.214083113459]},"properties":{"0F3DC43F5935AEBB5275":0,"name":"Ağqaya","extrude":true}},
{"type":"Feature","id":"02C6B30B9535AEBC4ED6","geometry":{"type":"Point","coordinates":[46.11282605306215,39.23774347677936,1860.731569344182]},"properties":{"094A3B398D35AEBC4EE4":0,"name":"Mis mədəni","extrude":true}},
{"type":"Feature","id":"01D133A76B35AEBCB595","geometry":{"type":"Point","coordinates":[46.11426942395409,39.2373797639186,1888.153765186368]},"properties":{"0CE6F7AE1435AEBCB5A6":0,"name":"Babayeri","extrude":true}},
{"type":"Feature","id":"0689DAC4B635AEBD4B39","geometry":{"type":"Point","coordinates":[46.11362939704152,39.23581345835699,1826.029614956077]},"properties":{"0A5AD3DC9D35AEBD4B4D":0,"name":"Nəfəsçıxan daş","extrude":true}},
{"type":"Feature","id":"020E628E3835AEBE09F0","geometry":{"type":"Point","coordinates":[46.11390537566832,39.23535607099902,1774.884652626634]},"properties":{"017D6DCF5E35AEBE0A01":0,"name":"Daştökülən","extrude":true}},
{"type":"Feature","id":"0E887E07B635AEBEF675","geometry":{"type":"Point","coordinates":[46.11349000501489,39.23433578217694,1748.114176639709]},"properties":{"0D0089D15935AEBEF683":0,"name":"Qalacıq","extrude":true}},
{"type":"Feature","id":"08AD12BA8B35AEBF4910","geometry":{"type":"Point","coordinates":[46.11492072171663,39.23451786149194,1746.306895041206]},"properties":{"0585C5ACAB35AEBF4924":0,"name":"Sarılıq","extrude":true}},
{"type":"Feature","id":"0B35FE992E35AEBFC657","geometry":{"type":"Point","coordinates":[46.11861309369654,39.23271407215317,1731.020899531089]},"properties":{"0A4B8C470935AEBFC667":0,"name":"Eyvazalıoturan daş","extrude":true}},
{"type":"Feature","id":"0775E9E88835AEC0837F","geometry":{"type":"Point","coordinates":[46.11858211120278,39.23254277927764,1726.197850408625]},"properties":{"089FB2DEF435AEC08399":0,"name":"Əliçapan piri","extrude":true}},
{"type":"Feature","id":"050E00181035AEC0F07F","geometry":{"type":"Point","coordinates":[46.11824437556105,39.23261978402956,1727.442154344546]},"properties":{"0F9937A05235AEC0F090":0,"name":"Yorğan-daş abidəsi","extrude":true}},
{"type":"Feature","id":"06F545D60435AEC494BD","geometry":{"type":"Point","coordinates":[46.09958307453639,39.23028225422532,2020.741386041188]},"properties":{"087E2FCA4535AEC494D4":0,"name":"Hüçütü piri","extrude":true}},
{"type":"Feature","id":"00049AABF635AEC4E066","geometry":{"type":"Point","coordinates":[46.09984250173593,39.23026452705074,2014.827519424099]},"properties":{"0BBC886DB135AEC4E077":0,"name":"Alban kilsəsi","extrude":true}},
{"type":"Feature","id":"05CF37E40535AEC6FD06","geometry":{"type":"Point","coordinates":[46.09953670304188,39.23021218947071,2021.980550095474]},"properties":{"0C806D44BF35AEC6FD19":0,"name":"Qurbangah","extrude":true}},
{"type":"Feature","id":"0226CCE8B935AEC7CB70","geometry":{"type":"Point","coordinates":[46.10013964236204,39.23017484921795,2009.022226992369]},"properties":{"0A683BA8BF35AEC7CB82":0,"name":"Qədim Hüçütü kəndi","extrude":true}},
{"type":"Feature","id":"0F786A3B5135AEC89AB1","geometry":{"type":"Point","coordinates":[46.09867262111671,39.2306390080472,2049.418147838634]},"properties":{"0F133645F635AEC89AC6":0,"name":"Hüçütü qəbristanlığı (Dağıdılıb)","extrude":true}},
{"type":"Feature","id":"0C78C4924635AEC931E7","geometry":{"type":"Point","coordinates":[46.0997522145835,39.23168956396898,2034.859143784601]},"properties":{"0EC72A086335AEC931F5":0,"name":"Gülətop kəndi","extrude":true}},
{"type":"Feature","id":"0BF457336135AECA0A43","geometry":{"type":"Point","coordinates":[46.09897986798795,39.2314315590266,2052.063653419361]},"properties":{"0F23F3D35735AECA0A59":0,"name":"Duzdağ","extrude":true}},
{"type":"Feature","id":"01F6C6719735AECA47BB","geometry":{"type":"Point","coordinates":[46.09813568613428,39.23144522443413,2071.722166805488]},"properties":{"04AA7EB61835AECA47D4":0,"name":"Allahverən çeşməsi","extrude":true}},
{"type":"Feature","id":"0E573774F835AECB0CB3","geometry":{"type":"Point","coordinates":[46.08467654202739,39.23360096002442,2477.114060896227]},"properties":{"03BBC99AFF35AECB0CCC":0,"name":"Arpalıq yurd yerləri","extrude":true}},
{"type":"Feature","id":"0DE3F333D235AECB86A8","geometry":{"type":"Point","coordinates":[46.0990935970915,39.2351189696456,2112.273446083128]},"properties":{"07270734E635AECB86B6":0,"name":"Məmmədölən","extrude":true}},
{"type":"Feature","id":"018E9639F735AECC2867","geometry":{"type":"Point","coordinates":[46.08676693938387,39.23015204922643,2373.700828885002]},"properties":{"0C7CA8E64B35AECC2880":0,"name":"Bayramzadaölən","extrude":true}},
{"type":"Feature","id":"0E6D43E0FA35AECC91D2","geometry":{"type":"Point","coordinates":[46.08501406956896,39.22976233202942,2396.751152513684]},"properties":{"07BE9BE83335AECC91E5":0,"name":"Babayeri","extrude":true}},
{"type":"Feature","id":"0127FC159135AECD3BB4","geometry":{"type":"Point","coordinates":[46.08232317471834,39.23229425457574,2609.694198658536]},"properties":{"053B44342D35AECD3BC6":0,"name":"Siçanlı yurd","extrude":true}},
{"type":"Feature","id":"0E37440D9E35AECD9C22","geometry":{"type":"Point","coordinates":[46.08290883968047,39.23316718687214,2547.362786803182]},"properties":{"044BDF14AB35AECD9C30":0,"name":"Əliş bəyin daşı","extrude":true}},
{"type":"Feature","id":"051BD622D735AECE8CAD","geometry":{"type":"Point","coordinates":[46.08227955622766,39.23437011658591,2546.819319078669]},"properties":{"0A161069A035AECE8CB9":0,"name":"Çəmənyurd","extrude":true}},
{"type":"Feature","id":"03A7B5DBA035AECF0660","geometry":{"type":"Point","coordinates":[46.08069046537949,39.23038679943993,2543.710118245058]},"properties":{"03C71A6D4835AECF066F":0,"name":"Bibixanım çeşməsi","extrude":true}},
{"type":"Feature","id":"00147A8B0735AECFE9E0","geometry":{"type":"Point","coordinates":[46.07378873898205,39.2318448525187,2802.826388105238]},"properties":{"09277486B435AECFE9EF":0,"name":"Dəvəboynu","extrude":true}},
{"type":"Feature","id":"087615A5E635AED04C75","geometry":{"type":"Point","coordinates":[46.07501177090244,39.23225477649462,2793.983820214422]},"properties":{"0D955FB04535AED04C85":0,"name":"Dərvişgörməz","extrude":true}},
{"type":"Feature","id":"0B0399735D35AED0D276","geometry":{"type":"Point","coordinates":[46.07745690002085,39.23292222982133,2713.387254937331]},"properties":{"05DAF38A4535AED0D286":0,"name":"Dübəkli","extrude":true}},
{"type":"Feature","id":"09FDCA620735AED1EB8F","geometry":{"type":"Point","coordinates":[46.07582444191987,39.22909393210767,2686.583820217383]},"properties":{"0CEE48BF6435AED1EB9F":0,"name":"İsmayıl yurdu","extrude":true}},
{"type":"Feature","id":"06B45760BA35AED25465","geometry":{"type":"Point","coordinates":[46.07640931460359,39.23127637980545,2719.735976185085]},"properties":{"03AF48265135AED2547D":0,"name":"Qaraçılar yurdu","extrude":true}},
{"type":"Feature","id":"0994A47DC335AED2D0A1","geometry":{"type":"Point","coordinates":[46.07546263075598,39.22574683446011,2587.002727468775]},"properties":{"012819561335AED2D0B1":0,"name":"Dəhnə","extrude":true}},
{"type":"Feature","id":"04A0EFE47C35AED35A59","geometry":{"type":"Point","coordinates":[46.05948361311645,39.22186356663492,3103.686254204156]},"properties":{"09D4D036B135AED35A62":0,"name":"Əriməz dağı","extrude":true}},
{"type":"Feature","id":"07E5EEC86935AED474FF","geometry":{"type":"Point","coordinates":[46.07946671980111,39.22207709254235,2587.155892390198]},"properties":{"0D9667173935AED47512":0,"name":"Didək","extrude":true}},
{"type":"Feature","id":"02CFA7C39335AED4D3AC","geometry":{"type":"Point","coordinates":[46.06731095528203,39.22691298507053,2852.097045934166]},"properties":{"034CC05AB035AED4D3BB":0,"name":"Gölçeşmə","extrude":true}},
{"type":"Feature","id":"0D3B750E6835AED5F869","geometry":{"type":"Point","coordinates":[46.08433358829549,39.22615413765757,2386.895251519262]},"properties":{"0A64F726C535AED5F878":0,"name":"Paşakahası","extrude":true}},
{"type":"Feature","id":"076FB9265635AED68DC7","geometry":{"type":"Point","coordinates":[46.08859338632429,39.22629751277648,2221.889914821281]},"properties":{"0026B937B635AED68DDF":0,"name":"Çatırım","extrude":true}},
{"type":"Feature","id":"032097A4CA35AED74051","geometry":{"type":"Point","coordinates":[46.09273551801117,39.22976855396385,2172.151153772867]},"properties":{"0475E0A5B335AED74064":0,"name":"Çuxuryurd","extrude":true}},
{"type":"Feature","id":"0B60ADEC1735AED7AF23","geometry":{"type":"Point","coordinates":[46.09175443264256,39.23146145058299,2221.994072161703]},"properties":{"02E1C493AE35AED7AF31":0,"name":"Ağdaş","extrude":true}},
{"type":"Feature","id":"0102CF7A3E35AED8BBDA","geometry":{"type":"Point","coordinates":[46.09485136180065,39.22391098529444,2267.103113286254]},"properties":{"0526518DAB35AED8BBEC":0,"name":"Davudgözəsi","extrude":true}},
{"type":"Feature","id":"083F67114F35AEDA8ABE","geometry":{"type":"Point","coordinates":[46.09747615322345,39.22279202098205,2268.884818202984]},"properties":{"07577A572835AEDA8ACD":0,"name":"Məntəqə","extrude":true}},
{"type":"Feature","id":"0750AB077E35AEDBA3E1","geometry":{"type":"Point","coordinates":[46.10794984014099,39.22611441474224,2192.526951975383]},"properties":{"0CFA2B60FA35AEDBA3F9":0,"name":"Kolavat","extrude":true}},
{"type":"Feature","id":"088AF793F135AEDC3708","geometry":{"type":"Point","coordinates":[46.07340771067133,39.20404584314291,2134.975803224318]},"properties":{"04542A0C0235AEDC3722":0,"name":"Gərd çayı","extrude":true}},
{"type":"Feature","id":"01952A2D0A35AEDDAA4D","geometry":{"type":"Point","coordinates":[45.99751822754935,39.18806747999201,3688.117643712888]},"properties":{"0BA701663735AEDDAA60":0,"name":"Gəmiqaya","extrude":true}},
{"type":"Feature","id":"0DD9F8581D35AEDE9B7A","geometry":{"type":"Point","coordinates":[46.00450378353345,39.158990817927,3832.893019978201]},"properties":{"08EA3267B535AEDE9B8D":0,"name":"Qapıcıq dağ","extrude":true}},
{"type":"Feature","id":"0F5B30C65835AEDFE1E1","geometry":{"type":"Point","coordinates":[46.00086193342239,39.20405029634453,3120.104607456572]},"properties":{"093612287135AEDFE1F0":0,"name":"Qazangöl","extrude":true}},
{"type":"Feature","id":"07BDB84AD435AEE0720A","geometry":{"type":"Point","coordinates":[45.99869678858531,39.20726532340037,3101.762957911529]},"properties":{"094A1306C635AEE0721B":0,"name":"Təvşigöl","extrude":true}},
{"type":"Feature","id":"05942E85A635AEE17914","geometry":{"type":"Point","coordinates":[46.02861629410985,39.21144355454722,2917.333837447021]},"properties":{"05C69DC87735AEE17927":0,"name":"Alıya toy olan meydan","extrude":true}},
{"type":"Feature","id":"062BF2E63C35AEE38679","geometry":{"type":"Point","coordinates":[46.02953776340685,39.18811178442608,2753.219585514599]},"properties":{"06690A5CFC35AEE3868C":0,"name":"Gərdçayarası","extrude":true}},
{"type":"Feature","id":"06B4BC427335AEE3EAAC","geometry":{"type":"Point","coordinates":[46.01664844636572,39.17627994987483,3060.762645981068]},"properties":{"0AEBED113135AEE3EABD":0,"name":"Əli bəy yurdu","extrude":true}},
{"type":"Feature","id":"0D96CBCAE535AEE477E9","geometry":{"type":"Point","coordinates":[46.01440470978785,39.18870087564223,3048.104762096586]},"properties":{"035917CC5C35AEE47807":0,"name":"Qaradaş","extrude":true}},
{"type":"Feature","id":"00A36B7AEE35AEE4E2E1","geometry":{"type":"Point","coordinates":[46.01331413931971,39.18984290661793,3065.643507225578]},"properties":{"0F7FE366CE35AEE4E2F5":0,"name":"Qaravun dərə","extrude":true}}
]}
