{"type":"FeatureCollection", "features":[
{"type":"Feature","id":"0EADA284D435DDD17A77","geometry":{"type":"Point","coordinates":[45.797658420822,40.16598817833064,0]},"properties":{"name":"Qoşabulaq","description":"<div><br></div>","altitudeMode":"relativeToGround"}},
{"type":"Feature","id":"07E0EB654F35E8B5D59A","geometry":{"type":"Point","coordinates":[45.78853526263116,40.1618430031331,2016.993760540505]},"properties":{"0F3418A9A135E8B5D5A2":0,"name":"Quliyev Xasay","description":"<div><br></div>","extrude":true}},
{"type":"Feature","id":"0FD01495E935E8B7AC5F","geometry":{"type":"Point","coordinates":[45.78857535843916,40.16152962935651,2017.916067566665]},"properties":{"00E133F3AC35E8B7AC63":0,"name":"Quliyev Surxay","extrude":true}},
{"type":"Feature","id":"0496CCFF7735E8BC4B93","geometry":{"type":"Point","coordinates":[45.78889699910022,40.16148451908293,2016.650028964262]},"properties":{"0095B3A61D35E8BC4B99":0,"name":"Ələkbərov Əsğər","description":"<div><br></div>","extrude":true}},
{"type":"Feature","id":"07B623E9DB35E8C57A5E","geometry":{"type":"Point","coordinates":[45.78877339730986,40.16127843314563,2017.86856659611]},"properties":{"07FAA3173D35E8C57A63":0,"name":"İsgəndərov İsrafil","description":"<div><br></div><div><br></div>","extrude":true}},
{"type":"Feature","id":"040E9D024035E8C89D66","geometry":{"type":"Point","coordinates":[45.78951395716608,40.16142854486945,2015.599129697019]},"properties":{"015DE2415035E8C89D72":0,"name":"Ələkbərov Eldar","description":"<div><br></div>","extrude":true}},
{"type":"Feature","id":"0C2D3D915A35E8CAD657","geometry":{"type":"Point","coordinates":[45.7896336348219,40.16111343473883,2016.273995324881]},"properties":{"071B6E57F135E8CAD65B":0,"name":"Şabanov Tavariş","description":"<div><br></div>","extrude":true}},
{"type":"Feature","id":"00C1CB84D735E8CC4878","geometry":{"type":"Point","coordinates":[45.78940732520552,40.16101019543348,2016.967987506948]},"properties":{"06CD8C7C5035E8CC4880":0,"name":"Şabanov Mehbalı","description":"<div><br></div>","extrude":true}},
{"type":"Feature","id":"078C83CA8B35E8CDD054","geometry":{"type":"Point","coordinates":[45.78999710827644,40.16122212985576,2016.445665109223]},"properties":{"0BFEC0102D35E8CDD058":0,"name":"Ələkbərov Maksim","description":"<div><br></div>","extrude":true}},
{"type":"Feature","id":"05C569FE8A35E8D2B44A","geometry":{"type":"Point","coordinates":[45.78809144098969,40.15956674711613,2030.515410860151]},"properties":{"09C598801B35E8D2B452":0,"name":"Əhmədov Vahid","extrude":true}},
{"type":"Feature","id":"0A7FF0148535E8D509A2","geometry":{"type":"Point","coordinates":[45.78882033757716,40.16046693988159,2020.504836074665]},"properties":{"00BA7ADB7635E8D509A6":0,"name":"Nağıyev Mikayıl","extrude":true}},
{"type":"Feature","id":"039A745D8035E8E3CDAA","geometry":{"type":"Point","coordinates":[45.78875232691225,40.1602372554955,2022.853074558044]},"properties":{"name":"Süleymanov Ğülalı","description":"<div><br></div>"}},
{"type":"Feature","id":"0E16EAAD6335E8E68AB3","geometry":{"type":"Point","coordinates":[45.78871436077694,40.15996796797923,2024.424456261988]},"properties":{"name":"Abdıyev Qurban"}},
{"type":"Feature","id":"0422177EC535E8E89240","geometry":{"type":"Point","coordinates":[45.78822569037014,40.15850205449668,2031.349680468634]},"properties":{"name":"Əhmədov Rəcəb"}},
{"type":"Feature","id":"0D9C17EDA035E8EA3267","geometry":{"type":"Point","coordinates":[45.78844219116401,40.15768590602441,2033.502009542246]},"properties":{"name":"İmanov Məhərrəm"}},
{"type":"Feature","id":"0C3C6B511835E8EAFBB3","geometry":{"type":"Point","coordinates":[45.78840037398344,40.15755691723877,2034.25984703885]},"properties":{"name":"İmanov Müseyib"}},
{"type":"Feature","id":"088DF7456F35E8F12F2C","geometry":{"type":"Point","coordinates":[45.78984797993616,40.16291064746495,2014.752777156414]},"properties":{"name":"Qasımov Əlaslan"}},
{"type":"Feature","id":"039F07652335E8F22718","geometry":{"type":"Point","coordinates":[45.79023399889572,40.16325918558884,2016.441595143146]},"properties":{"name":"Mehdiyev Bəhman"}},
{"type":"Feature","id":"0DAD22292F35E8F40D6A","geometry":{"type":"Point","coordinates":[45.79002740954523,40.16368616428815,2015.416387325272]},"properties":{"name":"Mağaza"}},
{"type":"Feature","id":"02527E418B35E8F6982D","geometry":{"type":"Point","coordinates":[45.79260428168178,40.1637123545358,2017.121961866136]},"properties":{"name":"Əliyev Allahverdi"}},
{"type":"Feature","id":"0A8E3A26A935E8F82430","geometry":{"type":"Point","coordinates":[45.79116134529907,40.16412132241414,2017.207140255352]},"properties":{"name":"Əliyev Haqverdi"}},
{"type":"Feature","id":"0A1880FD0F35E8FABA0C","geometry":{"type":"Point","coordinates":[45.78972937702687,40.16415345144727,2014.229533410919]},"properties":{"name":"Haqverdiyev İbrahim"}},
{"type":"Feature","id":"053A95960235E8FBA16E","geometry":{"type":"Point","coordinates":[45.79020732564645,40.16413663040848,2015.043558024368]},"properties":{"name":"Qasımov Heydar"}},
{"type":"Feature","id":"094E3E9BAE35E8FEB707","geometry":{"type":"Point","coordinates":[45.79059399708276,40.16414388924794,2015.785557335358]},"properties":{"name":"Salmanov Ğülalı"}},
{"type":"Feature","id":"082BE743CA35E8FFC60A","geometry":{"type":"Point","coordinates":[45.78915574796386,40.16468078930754,2013.069019866375]},"properties":{"name":"Abbasov Elbəyi"}},
{"type":"Feature","id":"0845D208A635E900DE16","geometry":{"type":"Point","coordinates":[45.78927622437735,40.1642327897586,2012.339757083359]},"properties":{"name":"Salmanov Qoşnəli"}},
{"type":"Feature","id":"0472A7B8B135E9036B6F","geometry":{"type":"Point","coordinates":[45.79200335331056,40.1638586615309,2017.182303314445]},"properties":{"0B51EEF85535E9036B72":0,"name":"Orta məktəb","extrude":true}},
{"type":"Feature","id":"0B139B02DD35E904F9CE","geometry":{"type":"Point","coordinates":[45.78840077754938,40.16463506990107,2008.203923040637]},"properties":{"name":"Abbasov Oruc"}},
{"type":"Feature","id":"0011D9A64235E90D5D59","geometry":{"type":"Point","coordinates":[45.79073970958119,40.16152928048027,2018.383051640828]},"properties":{"name":"Əliyev Musa"}},
{"type":"Feature","id":"02AA12D3D935EB6AE431","geometry":{"type":"Point","coordinates":[45.79300454882804,40.15699470938775,2057.45392459946]},"properties":{"0640E6703135EB6AE43B":0,"name":"Kənd qəbristanlığı.","extrude":true}},
{"type":"Feature","id":"0CFF4A6B3235EC4C689B","geometry":{"type":"Point","coordinates":[45.79579137051721,40.16505155408683,2015.043638814938]},"properties":{"name":"Nağıyev Cavad"}},
{"type":"Feature","id":"07949172E735EC4E8AFF","geometry":{"type":"Point","coordinates":[45.79587009628504,40.16470719693732,2015.023631848643]},"properties":{"name":"Nağıyev Saat"}},
{"type":"Feature","id":"02BAC3B97D35EC507501","geometry":{"type":"Point","coordinates":[45.79501470025197,40.16506941279499,2015.45169071777]},"properties":{"name":"Məhərrəmov Musa"}},
{"type":"Feature","id":"0509148CF235EC51B2D0","geometry":{"type":"Point","coordinates":[45.79561452403095,40.16575346621455,2014.172128001702]},"properties":{"name":"Xomayev Behrəm"}},
{"type":"Feature","id":"06818659E135ED3DB1F6","geometry":{"type":"Point","coordinates":[45.78959094092853,40.15858174102282,2023.877330279351]},"properties":{"0CE53882CE35ED3DB1FD":0,"name":"Mövlayev Nurəli","extrude":true}},
{"type":"Feature","id":"013577254935ED3E7DD7","geometry":{"type":"Point","coordinates":[45.78941096741197,40.15812757896943,2027.02587693399]},"properties":{"name":"Şamilov Oktay"}},
{"type":"Feature","id":"073276DA5B35ED47B6BE","geometry":{"type":"Point","coordinates":[45.7891020431239,40.15802510402412,2030.443817125894]},"properties":{"name":"Əhmədov Əhməd"}},
{"type":"Feature","id":"0E99771C2135ED4C0775","geometry":{"type":"Point","coordinates":[45.78999788837027,40.16075034737615,2017.581706682244]},"properties":{"0E4428528435ED4C077F":0,"name":"Ələkbərov Bəhrəm","extrude":true}},
{"type":"Feature","id":"059BD8DF1A35ED696BD1","geometry":{"type":"Point","coordinates":[45.788160805379,40.1624347903639,2016.734044354053]},"properties":{"name":"Məhərrəmov Ziyəddin"}},
{"type":"Feature","id":"024036F83335ED6A2757","geometry":{"type":"Point","coordinates":[45.78832829284696,40.16262510397279,2014.665097494829]},"properties":{"name":"Məhərrəmov Faxrəddin"}},
{"type":"Feature","id":"09E992CDA235ED6B8364","geometry":{"type":"Point","coordinates":[45.78852069504365,40.16267736253594,2013.98301142798]},"properties":{"name":"Məhərrəmov Hidayət"}},
{"type":"Feature","id":"03D6AD5BB535ED6EAAF1","geometry":{"type":"Point","coordinates":[45.78803898402187,40.16307969638203,2014.552381325058]},"properties":{"name":"Məhərrəmov Əlaslan"}},
{"type":"Feature","id":"0F4E37101835ED712C85","geometry":{"type":"Point","coordinates":[45.78825070352644,40.16322998609852,2012.355820970466]},"properties":{"name":"Məhərrəmov Zaman"}},
{"type":"Feature","id":"064E7A2BC835ED725B2F","geometry":{"type":"Point","coordinates":[45.78767938382823,40.1632156455384,2015.981065374008]},"properties":{"name":"Məmmədov Cümşüd"}},
{"type":"Feature","id":"05F1EF81FF35ED7391CB","geometry":{"type":"Point","coordinates":[45.78678311036385,40.1636396870181,2018.106641540875]},"properties":{"name":"Əliyev Tavariş"}},
{"type":"Feature","id":"0C7AC73C9935ED740E70","geometry":{"type":"Point","coordinates":[45.78741530046258,40.16398271004113,2015.824232113676]},"properties":{"name":"Məmmədov Məhəmməd"}},
{"type":"Feature","id":"0473F2EDAE35ED75F193","geometry":{"type":"Point","coordinates":[45.78628969773939,40.16489440208969,2009.602654679631]},"properties":{"name":"Vəliyev Xıdır"}},
{"type":"Feature","id":"0A0B622B4235ED785349","geometry":{"type":"Point","coordinates":[45.78647207741282,40.16441073916955,2012.38756759879]},"properties":{"name":"Şabanov Paşa"}},
{"type":"Feature","id":"07BFA6E8D635ED78FB45","geometry":{"type":"Point","coordinates":[45.78644227416303,40.1640740889783,2015.649520306199]},"properties":{"name":"Vəliyev Arif"}},
{"type":"Feature","id":"0E46AA8C2535ED799DF5","geometry":{"type":"Point","coordinates":[45.7866405303613,40.16419723831838,2013.608127860966]},"properties":{"name":"Vəliyev Müşfiq"}},
{"type":"Feature","id":"06F04EB81635ED7ACFDE","geometry":{"type":"Point","coordinates":[45.78668900142986,40.16444415374725,2011.214596236055]},"properties":{"name":"Məmmədov Əhməd"}},
{"type":"Feature","id":"0015D597A235ED80CF51","geometry":{"type":"Point","coordinates":[45.78921802864857,40.16347475329675,2012.101758089653]},"properties":{"name":"Allahverdiyev Bəhrəm"}},
{"type":"Feature","id":"0F4718CBE735ED837BA3","geometry":{"type":"Point","coordinates":[45.78910774134688,40.16251818946735,2013.388327765777]},"properties":{"name":"Məmmədov Bəhrəm"}},
{"type":"Feature","id":"0E489F94FF35ED85338D","geometry":{"type":"Point","coordinates":[45.78938606200936,40.16324346120145,2013.02523188952]},"properties":{"name":"Məhərrəmov İsrafil"}},
{"type":"Feature","id":"01478D67E135ED8685B4","geometry":{"type":"Point","coordinates":[45.78957471522101,40.1633957778575,2013.821860008583]},"properties":{"name":"Bədəlov Həsən"}},
{"type":"Feature","id":"0E9C06C74335ED87D02C","geometry":{"type":"Point","coordinates":[45.78969732700357,40.16370432073415,2014.267479331259]},"properties":{"name":"Salmanov Şahmalı"}},
{"type":"Feature","id":"00D97357F535ED8AC0A2","geometry":{"type":"Point","coordinates":[45.78965584187014,40.16482228432856,2012.870723100215]},"properties":{"0D56539B5135ED8AC0A8":0,"name":"Abbasov İbrahim","extrude":true}},
{"type":"Feature","id":"080720E74235ED8BA768","geometry":{"type":"Point","coordinates":[45.79051934802551,40.16507421770212,2013.793799903058]},"properties":{"name":"Mürsəlov Əsğər"}},
{"type":"Feature","id":"005CE6A6C535ED8C738D","geometry":{"type":"Point","coordinates":[45.79004403925488,40.16479993129478,2013.437125608179]},"properties":{"name":"Abdullayev Qərib"}},
{"type":"Feature","id":"09D5D5714035ED9276CB","geometry":{"type":"Point","coordinates":[45.78691722660676,40.16377432347367,2015.348019532588]},"properties":{"name":"Əliyev Bəhman"}},
{"type":"Feature","id":"00A5350E6C35ED94525E","geometry":{"type":"Point","coordinates":[45.78727201918492,40.16444801312557,2009.019154538732]},"properties":{"name":"Əhmədov İsə"}},
{"type":"Feature","id":"0124040CB935ED9684A8","geometry":{"type":"Point","coordinates":[45.78715994986537,40.16473363660756,2007.999766755542]},"properties":{"name":"İsayev Maksim"}},
{"type":"Feature","id":"081CED79F035ED96F303","geometry":{"type":"Point","coordinates":[45.78699970307929,40.16490605924912,2007.472971870514]},"properties":{"name":"Abbasov Abbas"}},
{"type":"Feature","id":"06B9E4EB1635ED99DF94","geometry":{"type":"Point","coordinates":[45.78877659223335,40.16503704956651,2010.136713071202]},"properties":{"name":"Əliyeva Firəngiz"}},
{"type":"Feature","id":"07F30C254B35ED9BB579","geometry":{"type":"Point","coordinates":[45.78824126778566,40.16557083215908,2008.044967084822]},"properties":{"name":"Həsənov Əli"}},
{"type":"Feature","id":"08345885EE35ED9C4D85","geometry":{"type":"Point","coordinates":[45.78808992663475,40.16575050625259,2007.412773410621]},"properties":{"name":"Davidov Əvəz"}},
{"type":"Feature","id":"019E858DB135ED9DBD2D","geometry":{"type":"Point","coordinates":[45.78798849404954,40.16590023732413,2006.86225565991]},"properties":{"name":"Qasımov Hilal"}},
{"type":"Feature","id":"03B0B819CF35ED9ECC7C","geometry":{"type":"Point","coordinates":[45.78776238017761,40.16624971914078,2005.535401202614]},"properties":{"name":"Kərimov Şahbaz"}},
{"type":"Feature","id":"0292A0294535EDA0079B","geometry":{"type":"Point","coordinates":[45.78839363649536,40.16488444345342,2007.946444219653]},"properties":{"name":"Abbasov Vladimir"}},
{"type":"Feature","id":"0063F8BC5335EDA0B4F7","geometry":{"type":"Point","coordinates":[45.7883658943724,40.16503225840368,2008.221583787099]},"properties":{"name":"Əliyev Haqverdi"}},
{"type":"Feature","id":"07A9B75ACE35EDB39FB8","geometry":{"type":"Point","coordinates":[45.788146190921,40.16527183634378,2007.431076894095]},"properties":{"name":"Əhmədov İmran"}},
{"type":"Feature","id":"00D5515A5835EDB4858E","geometry":{"type":"Point","coordinates":[45.78799795822684,40.1654916664647,2006.847123782779]},"properties":{"name":"Məhərrəmova Şəfiqə"}},
{"type":"Feature","id":"0F653BC29F35EDB7089B","geometry":{"type":"Point","coordinates":[45.78660036482161,40.16535191975804,2006.279824820613]},"properties":{"name":"Əhmədov Fərman"}},
{"type":"Feature","id":"0D95D8367735EDB78F64","geometry":{"type":"Point","coordinates":[45.78639564204428,40.1656681921032,2006.02850148423]},"properties":{"name":"Nəbiyev Knyaz"}},
{"type":"Feature","id":"09812FFC5C35EDBD7EB6","geometry":{"type":"Point","coordinates":[45.79097381135477,40.164874237025,2015.043617828629]},"properties":{"name":"Allahverdiyev İbrahim"}},
{"type":"Feature","id":"0079DBDB0935EDC07769","geometry":{"type":"Point","coordinates":[45.79125006874734,40.16522570405336,2014.607877278648]},"properties":{"name":"Həsənov İsa"}},
{"type":"Feature","id":"0E236ECD1535EDC15B5B","geometry":{"type":"Point","coordinates":[45.7919321717454,40.16528602599634,2015.068871809298]},"properties":{"name":"Abdullayev Şaban"}},
{"type":"Feature","id":"0EE0DC1AC835EDC20CFA","geometry":{"type":"Point","coordinates":[45.79218637283302,40.16529890167824,2014.622331843346]},"properties":{"name":"Abdullayev Şakir"}},
{"type":"Feature","id":"0EFDF46F2635EDC2B028","geometry":{"type":"Point","coordinates":[45.79257935182477,40.16542958638692,2013.390753592119]},"properties":{"name":"Abdullayev Səlim"}},
{"type":"Feature","id":"03B221182B35EDC3398F","geometry":{"type":"Point","coordinates":[45.79259072333434,40.16516047962894,2014.321721651732]},"properties":{"name":"Rzayev Şahmar"}},
{"type":"Feature","id":"0CFF9DDE6B35EDC4009C","geometry":{"type":"Point","coordinates":[45.79221833716884,40.16471540719095,2015.743459410651]},"properties":{"name":"Ələkbərov Qəzənfər"}},
{"type":"Feature","id":"0B05AC87B935EDC49ACD","geometry":{"type":"Point","coordinates":[45.79276687264644,40.16466655370082,2014.961394232499]},"properties":{"name":"Ələkbərov Surxay"}},
{"type":"Feature","id":"0818ED188635EDC530D3","geometry":{"type":"Point","coordinates":[45.79184813096906,40.16466117662009,2015.936818349405]},"properties":{"name":"Həsənov Yusif"}},
{"type":"Feature","id":"0A1195FDB935EDC98C1B","geometry":{"type":"Point","coordinates":[45.79135439590421,40.16478826625806,2015.081536251034]},"properties":{"name":"Həsənov Nəsib"}},
{"type":"Feature","id":"097D368B2235EDCBA8C8","geometry":{"type":"Point","coordinates":[45.79043439602771,40.16361633371733,2016.678322512237]},"properties":{"name":"Əliyev Xıdır"}},
{"type":"Feature","id":"02BF398E5735EDCC350A","geometry":{"type":"Point","coordinates":[45.79042026347156,40.16340204528056,2017.002610273906]},"properties":{"name":"İmanov Şiraslan"}},
{"type":"Feature","id":"04DB83048F35EDCD22A4","geometry":{"type":"Point","coordinates":[45.79065744744107,40.16332462798751,2017.318122438238]},"properties":{"name":"İmanov Zeynalabdin"}},
{"type":"Feature","id":"0FD5C7343135EDCE28B1","geometry":{"type":"Point","coordinates":[45.79148105064594,40.16336714583936,2017.981153519359]},"properties":{"name":"Hüseyinov Ənvər"}},
{"type":"Feature","id":"0EA3C94B3735EDD00F85","geometry":{"type":"Point","coordinates":[45.79097970954639,40.16338580625122,2017.871285895506]},"properties":{"name":"Mamedov Abbas"}},
{"type":"Feature","id":"0A159CD0B135EDD15E57","geometry":{"type":"Point","coordinates":[45.79181802654371,40.16340936294376,2017.860085024954]},"properties":{"name":"Əliyev Sədir"}},
{"type":"Feature","id":"09E976D9C535EDD21044","geometry":{"type":"Point","coordinates":[45.79219362003516,40.16316118483074,2018.232991030923]},"properties":{"name":"Mövlayev Əvəz"}},
{"type":"Feature","id":"0906268DD435EDD468BE","geometry":{"type":"Point","coordinates":[45.78987357996863,40.16041264968297,2018.400199745589]},"properties":{"name":"Əliyev Firudin"}},
{"type":"Feature","id":"07E9A51C5B35EDD5888C","geometry":{"type":"Point","coordinates":[45.79022349539331,40.16029080120826,2018.343553160846]},"properties":{"name":"Mürsəlov Köçəri"}},
{"type":"Feature","id":"00F1D6D37F35EDD690E2","geometry":{"type":"Point","coordinates":[45.79022874048452,40.16059668132044,2017.969571378429]},"properties":{"name":"Musayeva Mahal"}},
{"type":"Feature","id":"0324A5B7BF35EDD9839F","geometry":{"type":"Point","coordinates":[45.78896922017768,40.15823821239922,2027.320019815717]},"properties":{"name":"Səfərova Hərdəm"}},
{"type":"Feature","id":"0252B4B1C835EDDD9529","geometry":{"type":"Point","coordinates":[45.78862770448475,40.1596270333951,2026.153320074557]},"properties":{"0D8274554235EDDD9531":0,"name":"Mehdiyev Məhər","extrude":true}},
{"type":"Feature","id":"0B9517D04435EDDF62B0","geometry":{"type":"Point","coordinates":[45.78854725628841,40.15858276569224,2028.746535002133]},"properties":{"name":"Əhmədov Süleyman"}},
{"type":"Feature","id":"0C743CD89235EDE05AC5","geometry":{"type":"Point","coordinates":[45.78892225587791,40.15897110980152,2025.412567281003]},"properties":{"name":"Əhmədova Bafta"}},
{"type":"Feature","id":"051257107435EDE17D0C","geometry":{"type":"Point","coordinates":[45.7896819025948,40.15932930400066,2021.386566518714]},"properties":{"name":"Davidov Həmid"}},
{"type":"Feature","id":"06A5819B8135EDE20F55","geometry":{"type":"Point","coordinates":[45.7895960718586,40.15974184547054,2020.493383403771]},"properties":{"name":"Həsənov Azad"}},
{"type":"Feature","id":"0A862AACC435EDE2EDA9","geometry":{"type":"Point","coordinates":[45.79024389194936,40.15973072152419,2019.233946392511]},"properties":{"name":"Xamayev Əli"}},
{"type":"Feature","id":"02BA84BAD835EDE6B187","geometry":{"type":"Point","coordinates":[45.79054805917532,40.15938388003893,2020.154733582677]},"properties":{"name":"Davidov İdris"}},
{"type":"Feature","id":"007137414935EDE8A001","geometry":{"type":"Point","coordinates":[45.79005625410107,40.1586090527238,2022.322911796939]},"properties":{"name":"Davidov Əli"}},
{"type":"Feature","id":"019D09B48B35EDE94107","geometry":{"type":"Point","coordinates":[45.7913804941455,40.15848906747716,2027.441361847951]},"properties":{"name":"Davidov Yunus"}},
{"type":"Feature","id":"00EB57506335EDE9EE63","geometry":{"type":"Point","coordinates":[45.79067028951194,40.15886932644059,2021.464732896164]},"properties":{"name":"Xamoyev Mübariz"}},
{"type":"Feature","id":"0160E1508935EDEA7569","geometry":{"type":"Point","coordinates":[45.79123873596358,40.15913247700913,2022.611832175905]},"properties":{"name":"Yusibov Şirin"}},
{"type":"Feature","id":"0D304201C035EDEAFD54","geometry":{"type":"Point","coordinates":[45.79160050782907,40.15901991892866,2026.249565280827]},"properties":{"name":"Yusibov Cavanşir"}},
{"type":"Feature","id":"01C8F2EE9835EDEC509B","geometry":{"type":"Point","coordinates":[45.79182162073148,40.15934807112854,2026.218649109114]},"properties":{"name":"Məhərrəmov Elyaz"}},
{"type":"Feature","id":"016556A21735EDECF007","geometry":{"type":"Point","coordinates":[45.79196876704417,40.15972000899861,2026.184044060627]},"properties":{"name":"Məmmədov Səfyar"}},
{"type":"Feature","id":"0B4064171A35EDF4C120","geometry":{"type":"Point","coordinates":[45.79134765160671,40.15972749853016,2022.399237327794]},"properties":{"name":"Məmmədov Nadir"}},
{"type":"Feature","id":"0244D3F64F35EDF52B19","geometry":{"type":"Point","coordinates":[45.79152999884975,40.15994126935855,2023.462009424994]},"properties":{"name":"Məmmədov Yadigar"}},
{"type":"Feature","id":"08961A6C2935EDF6CFAA","geometry":{"type":"Point","coordinates":[45.79220472781104,40.16054538615589,2024.461411471518]},"properties":{"name":"Bədirov Cahangir"}},
{"type":"Feature","id":"0F4E65732835EDF7A121","geometry":{"type":"Point","coordinates":[45.79172697845704,40.16071364508802,2022.850285918242]},"properties":{"name":"Məhərrəmov İmran"}},
{"type":"Feature","id":"0A61946EB235EDF830AB","geometry":{"type":"Point","coordinates":[45.79236857073157,40.16088850961758,2023.881579960945]},"properties":{"name":"Xamoyev Xalid"}},
{"type":"Feature","id":"0CCD3BE83635EDF8FB69","geometry":{"type":"Point","coordinates":[45.7927298040003,40.16119058758019,2023.093734274801]},"properties":{"name":"Köhnə məktəb"}},
{"type":"Feature","id":"04E1A0B79C35EDF9A4FD","geometry":{"type":"Point","coordinates":[45.79232753205807,40.16178378573672,2021.336175531823]},"properties":{"name":"Cəfərov Elman"}},
{"type":"Feature","id":"00B32DA1CE35EDFA9B31","geometry":{"type":"Point","coordinates":[45.79263682456195,40.16178025323207,2021.220192470652]},"properties":{"name":"Cəfərov Yunis"}},
{"type":"Feature","id":"0FEBCA673935EDFB5920","geometry":{"type":"Point","coordinates":[45.79160799207819,40.16201707486502,2019.785509124188]},"properties":{"name":"Mövlayev Həmid"}},
{"type":"Feature","id":"06FCA6752F35EDFCCF5E","geometry":{"type":"Point","coordinates":[45.79194584616198,40.16173212686297,2020.874276858357]},"properties":{"name":"Cəfərov Məhəmməd"}},
{"type":"Feature","id":"07C79FF0AE35EDFE6CE0","geometry":{"type":"Point","coordinates":[45.79135006416848,40.16184957049894,2019.732127557852]},"properties":{"name":"Əliyev Paşa"}},
{"type":"Feature","id":"035AB68B5B35EDFF2645","geometry":{"type":"Point","coordinates":[45.79106271310152,40.16153641036809,2019.856029607145]},"properties":{"name":"Cəfərov Məhəmmədəli"}},
{"type":"Feature","id":"0255FBB89A35EDFFEF4C","geometry":{"type":"Point","coordinates":[45.79056972435539,40.16232200142856,2016.935423383022]},"properties":{"name":"Cəfərov Tapdıq"}},
{"type":"Feature","id":"0811C042DF35EE0082FA","geometry":{"type":"Point","coordinates":[45.79050202390383,40.16193306501712,2016.771360860541]},"properties":{"name":"Zeynalov Sabir"}},
{"type":"Feature","id":"0A3BAADED435EE0188BB","geometry":{"type":"Point","coordinates":[45.78997358993928,40.16266843872167,2015.043643470546]},"properties":{"name":"Bayramov Məcid"}},
{"type":"Feature","id":"033505DCAB35EE0200CB","geometry":{"type":"Point","coordinates":[45.79023395977165,40.16262025114085,2015.725311266888]},"properties":{"name":"Bayramov Alıbaba","description":"<div><br></div>"}},
{"type":"Feature","id":"0F2101A24135EE037A34","geometry":{"type":"Point","coordinates":[45.79170557908089,40.16123779358849,2021.744915822371]},"properties":{"name":"Əzizov Allahverdi"}},
{"type":"Feature","id":"0371797D8435EE04C7AD","geometry":{"type":"Point","coordinates":[45.79114072982502,40.16115432906864,2020.399417623294]},"properties":{"name":"Mehdiyev Abbas"}},
{"type":"Feature","id":"0424A87D1F35EE066FC6","geometry":{"type":"Point","coordinates":[45.79081034345533,40.16081767809877,2019.432561431926]},"properties":{"name":"Əzizov Qərib"}},
{"type":"Feature","id":"0F7D1C25A835EE070DB5","geometry":{"type":"Point","coordinates":[45.79122732962385,40.16070716414244,2020.862200691085]},"properties":{"name":"Mamedov Ələkbər"}},
{"type":"Feature","id":"0F06618E3935EE081248","geometry":{"type":"Point","coordinates":[45.79094452723756,40.16039672021923,2019.996530390982]},"properties":{"name":"Mürsəlov Vaqif"}},
{"type":"Feature","id":"09F8A92A7B35EE0A0E6F","geometry":{"type":"Point","coordinates":[45.79491312602826,40.15869580361476,2037.652327189569]},"properties":{"name":"Bulaqlar"}},
{"type":"Feature","id":"022E67D5AA35EE0AC585","geometry":{"type":"Point","coordinates":[45.79457242728482,40.15934923970418,2028.469267376272]},"properties":{"name":"Nadirov Dünyamalı"}},
{"type":"Feature","id":"0DD306335F35EE0CAD33","geometry":{"type":"Point","coordinates":[45.79413826001786,40.1597499491542,2027.463737106837]},"properties":{"name":"Nadirov Qasım"}},
{"type":"Feature","id":"014E40BDCD35EE0D5673","geometry":{"type":"Point","coordinates":[45.79403045204767,40.16002549387957,2026.348703361023]},"properties":{"name":"Əliyev Əsgərxan"}},
{"type":"Feature","id":"0DA6DA07AD35EE0DFE7A","geometry":{"type":"Point","coordinates":[45.79373161592564,40.16014817760158,2026.896026323547]},"properties":{"name":"Səfərov Məhəmməd"}},
{"type":"Feature","id":"00FDC3FF0135EE1047BC","geometry":{"type":"Point","coordinates":[45.79336897519506,40.16035780864311,2025.929920968134]},"properties":{"name":"Yusibov Xıdır"}},
{"type":"Feature","id":"0A0ECF700A35EE111620","geometry":{"type":"Point","coordinates":[45.79321486395577,40.16171179314184,2021.324202955009]},"properties":{"name":"Ələkbərov Xasay"}},
{"type":"Feature","id":"0B95EA074135EE1190AC","geometry":{"type":"Point","coordinates":[45.79333548905194,40.16150859880113,2021.660927134069]},"properties":{"name":"Mövlayev Məcid"}},
{"type":"Feature","id":"072274A9AE35EE122D57","geometry":{"type":"Point","coordinates":[45.79338036190929,40.16130509236871,2022.30802914266]},"properties":{"name":"Mövlayev Eyvaz"}},
{"type":"Feature","id":"0F0106329935EE12D022","geometry":{"type":"Point","coordinates":[45.79340273538304,40.16113403320917,2022.741730725953]},"properties":{"name":"Bəxtiyarov Yusif"}},
{"type":"Feature","id":"003F0E6C6735EE13EFA5","geometry":{"type":"Point","coordinates":[45.79350771421297,40.1610534793156,2022.991086265195]},"properties":{"name":"Hüseynov Allahverdi"}},
{"type":"Feature","id":"0DDD164CA035EE14D031","geometry":{"type":"Point","coordinates":[45.79346956185955,40.16077296653994,2024.01939150525]},"properties":{"name":"Abdullayev Səlim"}},
{"type":"Feature","id":"07E2780F9935EE159384","geometry":{"type":"Point","coordinates":[45.79353615231061,40.16210425412046,2019.807709904585]},"properties":{"name":"Cəlilov Ələmdar"}},
{"type":"Feature","id":"0B6DC681C535EE162515","geometry":{"type":"Point","coordinates":[45.79299448914051,40.16231024935494,2019.310803959897]},"properties":{"name":"Ələkbərov Qaçay"}},
{"type":"Feature","id":"046D122EE335EE172036","geometry":{"type":"Point","coordinates":[45.79301950918715,40.16282326021113,2017.649545817992]},"properties":{"name":"Mövlayev Sərdar"}},
{"type":"Feature","id":"01B3C6680735EE17DC74","geometry":{"type":"Point","coordinates":[45.7930460972987,40.16305219946224,2017.690341981828]},"properties":{"name":"Bahadurun un dəyirmanı"}},
{"type":"Feature","id":"00013C8D3E35EE1A732B","geometry":{"type":"Point","coordinates":[45.79415792720522,40.16280074228938,2018.721416469685]},"properties":{"name":"KOLXOZ İDARƏSİ"}},
{"type":"Feature","id":"01D49BA77C35EE1B05FE","geometry":{"type":"Point","coordinates":[45.79434722860469,40.16284454331488,2018.845491270183]},"properties":{"name":"Kənd Yeməkxanası."}},
{"type":"Feature","id":"068F7D333235EE1BB431","geometry":{"type":"Point","coordinates":[45.79466022814712,40.16259533070228,2019.43323089872]},"properties":{"name":"Taxıl anbarı"}},
{"type":"Feature","id":"0D31FCC19135EE1C56B5","geometry":{"type":"Point","coordinates":[45.79505491829187,40.16275942946476,2020.149913886901]},"properties":{"name":"Sübay Mal Ferması"}},
{"type":"Feature","id":"0F529D320735EE1D3271","geometry":{"type":"Point","coordinates":[45.79572081886055,40.16251367475043,2020.266950138244]},"properties":{"name":"Sağmal mal ferması"}},
{"type":"Feature","id":"04D387BB4135EE1EE519","geometry":{"type":"Point","coordinates":[45.7961575583103,40.1628987450237,2019.429871282775]},"properties":{"name":"Ot saman xırmanı"}},
{"type":"Feature","id":"087576CB3C35EE210560","geometry":{"type":"Point","coordinates":[45.79496798401487,40.16364613224064,2019.323115296905]},"properties":{"name":"Qoyun fermaları"}},
{"type":"Feature","id":"062B6F305535EE225C09","geometry":{"type":"Point","coordinates":[45.79659033830454,40.16011344641041,2025.176201329114]},"properties":{"name":"Əhaliyə ev tikmək üçün ayrılan həyətyanı torpaqlar"}},
{"type":"Feature","id":"0C71BF051335EE287D3F","geometry":{"type":"Point","coordinates":[45.79268748175528,40.16421933705508,2016.052000757779]},"properties":{"name":"Rzayev Kamil"}},
{"type":"Feature","id":"0B1E73CBAD35EE295F54","geometry":{"type":"Point","coordinates":[45.7929376631494,40.16419571055782,2015.391963127841]},"properties":{"name":"Kənd hamamı"}},
{"type":"Feature","id":"07A9F45F2F35EE29F81A","geometry":{"type":"Point","coordinates":[45.79412632370303,40.1634307652688,2018.158141466401]},"properties":{"name":"Tat oğlu Hüseynin yem ambarı"}},
{"type":"Feature","id":"07A247266635EE2B83A9","geometry":{"type":"Point","coordinates":[45.79401618028754,40.16386671519821,2017.049608574617]},"properties":{"name":"Mamedov Saleh"}},
{"type":"Feature","id":"0694209C6B35EE2C6A41","geometry":{"type":"Point","coordinates":[45.79370852431344,40.16437575987803,2014.861368751851]},"properties":{"name":"Hacıyev Bəhrəm"}},
{"type":"Feature","id":"0741D17E6A35EE2D8437","geometry":{"type":"Point","coordinates":[45.79445032603097,40.16402282127926,2017.864494553329]},"properties":{"name":"Hüseyinov Hüseyin"}},
{"type":"Feature","id":"0B7DDF309F35EE2E30FD","geometry":{"type":"Point","coordinates":[45.7948654120508,40.16406224255998,2018.265354660975]},"properties":{"name":"Ələkbərov Yunis"}},
{"type":"Feature","id":"01078DBA0735EE2EFA21","geometry":{"type":"Point","coordinates":[45.79395056865437,40.16487250619085,2014.140153936111]},"properties":{"name":"Orucov Fərrux"}},
{"type":"Feature","id":"0FB03B557C35EE2F8023","geometry":{"type":"Point","coordinates":[45.79391387151446,40.16541270515942,2013.189261578012]},"properties":{"name":"Orucov Bakı"}},
{"type":"Feature","id":"00A8D28BB835EE306C5F","geometry":{"type":"Point","coordinates":[45.79451095458463,40.1652365262384,2014.619088944382]},"properties":{"name":"Sadıqov Abbasəli"}},
{"type":"Feature","id":"0FB18C236635EE316F70","geometry":{"type":"Point","coordinates":[45.79471906734717,40.16512021560303,2015.125473886373]},"properties":{"name":"Nadirov Çərkəz"}},
{"type":"Feature","id":"01C02A9A0435EE3A8285","geometry":{"type":"Point","coordinates":[45.7903564920781,40.15765394230296,2034.222044668541]},"properties":{"name":"Su Hovuzu"}},
{"type":"Feature","id":"01FE0433E335EE3C02B7","geometry":{"type":"Point","coordinates":[45.79177815510334,40.15857372666088,2030.827735633493]},"properties":{"name":"Musayev İsmayıl"}},
{"type":"Feature","id":"0450F48CAE35EE3E667A","geometry":{"type":"Point","coordinates":[45.79262126885487,40.15882681440608,2034.40953917953]},"properties":{"name":"Həsənov Məmməd"}},
{"type":"Feature","id":"0ED71F5D5635EE3EEDAD","geometry":{"type":"Point","coordinates":[45.79281750121158,40.15878366348225,2035.946868816802]},"properties":{"name":"Musayev Əsğər"}},
{"type":"Feature","id":"08066C659035EE3F8AF0","geometry":{"type":"Point","coordinates":[45.79314976419474,40.1591372471221,2033.378400634979]},"properties":{"name":"Nadirov Əli"}},
{"type":"Feature","id":"0DAA2AE4B735EE409741","geometry":{"type":"Point","coordinates":[45.7922301114358,40.15864803873558,2033.835344496771]},"properties":{"name":"Nadirov Əli"}},
{"type":"Feature","id":"0B01725A5335EE410D85","geometry":{"type":"Point","coordinates":[45.79238426778134,40.15904055434145,2031.289861537687]},"properties":{"name":"Davidov İsmayıl"}},
{"type":"Feature","id":"0215F337E335EE426214","geometry":{"type":"Point","coordinates":[45.79234106232657,40.1594143864873,2028.534961162358]},"properties":{"name":"Davidov Tapdıq"}},
{"type":"Feature","id":"0B81BE092135EE4305F6","geometry":{"type":"Point","coordinates":[45.79271290574233,40.15941653894912,2030.173922913439]},"properties":{"name":"Xamoyev Zal"}},
{"type":"Feature","id":"051CBEDF9F35EE43DD45","geometry":{"type":"Point","coordinates":[45.79304006071181,40.15974130606698,2029.41028800521]},"properties":{"name":"Məhərrəmov Əvəz"}},
{"type":"Feature","id":"020EA6423335EE447A80","geometry":{"type":"Point","coordinates":[45.79348914890034,40.15975630917607,2028.879968471355]},"properties":{"name":"Əliyev Əmirxan"}},
{"type":"Feature","id":"05107F998E35EE46998B","geometry":{"type":"Point","coordinates":[45.79352505277256,40.15944248918606,2031.131519591619]},"properties":{"name":"Məhərrəmov Baxış"}},
{"type":"Feature","id":"0481F4242C35EE496F7B","geometry":{"type":"Point","coordinates":[45.79392170809936,40.1589773391475,2035.22331270562]},"properties":{"name":"Nadirov Xıdır"}},
{"type":"Feature","id":"0C1789D0B335EE4A0A15","geometry":{"type":"Point","coordinates":[45.79359313345003,40.15898420154932,2035.485677633049]},"properties":{"name":"Məhərrəmov Abdulla"}},
{"type":"Feature","id":"0874F7959835EE4AB120","geometry":{"type":"Point","coordinates":[45.79332316203983,40.15893081862242,2036.024454004347]},"properties":{"name":"Məhərrəm Məcid"}},
{"type":"Feature","id":"0915E9A41635EE4E728E","geometry":{"type":"Point","coordinates":[45.79417670240947,40.15913397884915,2031.578475332637]},"properties":{"name":"Nadirov Nizami"}},
{"type":"Feature","id":"08E72FBB6935EE500F22","geometry":{"type":"Point","coordinates":[45.79230740710892,40.15801441576586,2040.101811281345]},"properties":{"name":"Qəbristanlıq yolu"}},
{"type":"Feature","id":"014DAF5F7535EE51709D","geometry":{"type":"Point","coordinates":[45.79445196569282,40.16100606472996,2021.379474645802]},"properties":{"name":"Şamilov Nürəddin"}},
{"type":"Feature","id":"018393F0D435EE524803","geometry":{"type":"Point","coordinates":[45.79539112289986,40.16063230563635,2022.073089575093]},"properties":{"name":"Məhərrəmov Paşa"}},
{"type":"Feature","id":"06FD3DF12635EE52F723","geometry":{"type":"Point","coordinates":[45.79548698295309,40.16128859417842,2021.400735403656]},"properties":{"name":"Mövlayev Məşədi"}},
{"type":"Feature","id":"059B1E6CDF35EE54435F","geometry":{"type":"Point","coordinates":[45.79529226958614,40.16161014694529,2020.665245492587]},"properties":{"name":"Dülğərxana"}},
{"type":"Feature","id":"09DB512E3035EE557270","geometry":{"type":"Point","coordinates":[45.79477423841639,40.16205353094769,2019.616584988484]},"properties":{"name":"Meyvə bağı"}},
{"type":"Feature","id":"0C73784B5B35EE58EF21","geometry":{"type":"Point","coordinates":[45.79530614013336,40.16012651109846,2023.481653381192]},"properties":{"name":"Məhərrəmov Əli"}},
{"type":"Feature","id":"01C0F3C75435EE5C054E","geometry":{"type":"Point","coordinates":[45.79548902050784,40.16199752006735,2020.575974607605]},"properties":{"name":"Ətlik Kökəlmək üçün ferma məntəqəsi "}},
{"type":"Feature","id":"0BD3CFFDD535F28D960A","geometry":{"type":"Point","coordinates":[45.78885821030481,40.16027277480055,2021.84903493192]},"properties":{"name":"Süleymanov Telman"}},
{"type":"Feature","id":"0CC3A178BA35F28F03AD","geometry":{"type":"Point","coordinates":[45.78906719708559,40.15919079486192,2024.433119232094]},"properties":{"name":"Xamoyev Baxış"}},
{"type":"Feature","id":"06C2F09FE935F2921E57","geometry":{"type":"Point","coordinates":[45.78878951989691,40.15694970087611,2035.631972992143]},"properties":{"name":"Ələkbərov Qaçay"}},
{"type":"Feature","id":"035D6D489B35F2937208","geometry":{"type":"Point","coordinates":[45.78926514063149,40.15769513737832,2030.337243629667]},"properties":{"name":"Şor axan bulaq"}},
{"type":"Feature","id":"0B3A4940A335F295B9D6","geometry":{"type":"Point","coordinates":[45.79047076703973,40.15767499352793,2034.804060205263]},"properties":{"name":"Bulaqlar"}},
{"type":"Feature","id":"05448F0F2035F297B9AF","geometry":{"type":"Point","coordinates":[45.79039324363487,40.15760192623495,2035.417642984405]},"properties":{"name":"Tarixi Mağara(Zağa)"}},
{"type":"Feature","id":"0FD258788035F29A722C","geometry":{"type":"Point","coordinates":[45.7900538117882,40.15925693877533,2020.56012930631]},"properties":{"name":"Əhmədov Nəriman"}},
{"type":"Feature","id":"0F87470DE735F29F9DC8","geometry":{"type":"Point","coordinates":[45.78948930375761,40.15993860734219,2020.300003958273]},"properties":{"name":"Əliyev Yasin"}},
{"type":"Feature","id":"0D89923D0735F2A79E4D","geometry":{"type":"Point","coordinates":[45.79539525017884,40.15879351547823,2037.033244280089]},"properties":{"name":"Zod qızıl mədəninin su hovuzu"}},
{"type":"Feature","id":"04A2F426F835F2B11162","geometry":{"type":"Point","coordinates":[45.79384566128184,40.16608858434101,2011.966612035763]},"properties":{"name":"Qasımov Məhəbbət"}},
{"type":"Feature","id":"0FBF8F931135F2B2DBE9","geometry":{"type":"Point","coordinates":[45.79430340901597,40.16631103010906,2011.923716636972]},"properties":{"name":"Məhərrəmov Həmid"}},
{"type":"Feature","id":"0917F47CDB35F2B3C683","geometry":{"type":"Point","coordinates":[45.79453584012899,40.16656729904583,2011.533194895823]},"properties":{"name":"Nağıyev Bəhman"}},
{"type":"Feature","id":"0E669733A835F2B52719","geometry":{"type":"Point","coordinates":[45.79488456334587,40.16671603201764,2011.634443163181]},"properties":{"name":"Xamoyev Mamed"}},
{"type":"Feature","id":"03330EE0EF35F2B59C69","geometry":{"type":"Point","coordinates":[45.79516107994284,40.16690158014962,2011.673874506779]},"properties":{"name":"Salmanov Mehbalı"}},
{"type":"Feature","id":"0F52C318A835F2B68156","geometry":{"type":"Point","coordinates":[45.79471920904203,40.16701897834001,2010.463154459643]},"properties":{"name":"Xamoyev Elbəyi"}},
{"type":"Feature","id":"0743B244B135F2B7C99A","geometry":{"type":"Point","coordinates":[45.794142036658,40.16842885512792,2007.461979645039]},"properties":{"name":"Şükürov Rəşid"}},
{"type":"Feature","id":"02FD7CED9D35F2B98CE9","geometry":{"type":"Point","coordinates":[45.79527123367521,40.16570907046209,2014.363444012753]},"properties":{"name":"Xamoyev Zakir"}},
{"type":"Feature","id":"0D5C1F1FCF35F2BA43F0","geometry":{"type":"Point","coordinates":[45.79510286055422,40.16614274499122,2013.592453901885]},"properties":{"name":"Mövlayev Dilqəm"}},
{"type":"Feature","id":"0292AF85E435F2BABF18","geometry":{"type":"Point","coordinates":[45.79544712712877,40.16622771215633,2012.928429109485]},"properties":{"name":"Xamoyev Bilal"}},
{"type":"Feature","id":"0B9821D49A35F2BB8286","geometry":{"type":"Point","coordinates":[45.79390426131904,40.16680261224339,2009.923010287442]},"properties":{"name":"Davidov Telman"}},
{"type":"Feature","id":"054999359635F2BEC3ED","geometry":{"type":"Point","coordinates":[45.79336426687063,40.16641727445634,2010.237738204653]},"properties":{"name":"Qasımov Məsim"}},
{"type":"Feature","id":"0C194758C635F2BF9144","geometry":{"type":"Point","coordinates":[45.79291032982985,40.16632077644774,2010.027286698819]},"properties":{"name":"Qasımov İsbi"}},
{"type":"Feature","id":"0DD1FE9C1435F2C02D56","geometry":{"type":"Point","coordinates":[45.79178630945484,40.16755849626551,2007.167853574994]},"properties":{"name":"Abdullayev Feodor"}},
{"type":"Feature","id":"0692197EEC35F2C40906","geometry":{"type":"Point","coordinates":[45.79172297059108,40.16792263999589,2005.675881824882]},"properties":{"name":"Köhnə su dəyirmanı"}},
{"type":"Feature","id":"0C1A7CC0B035F2C56250","geometry":{"type":"Point","coordinates":[45.78719625479201,40.1674785978774,2004.742229076661]},"properties":{"name":"Kolxozun maşın_traktor parkı"}},
{"type":"Feature","id":"07ACB68D1435F2C6A239","geometry":{"type":"Point","coordinates":[45.78715263877432,40.16595890538776,2003.84687192723]},"properties":{"name":"Əhmədov Slavik"}},
{"type":"Feature","id":"0133C7CA8335F2C87F06","geometry":{"type":"Point","coordinates":[45.78618414723959,40.16590399330786,2005.551425899715]},"properties":{"name":"Salmanov Əkbər"}},
{"type":"Feature","id":"0561C14C9235F2CA6075","geometry":{"type":"Point","coordinates":[45.78845366804406,40.1665768966897,2007.977801454688]},"properties":{"name":"Abbasov Əli"}},
{"type":"Feature","id":"0AA5EBA8E235F2CAD7B0","geometry":{"type":"Point","coordinates":[45.78898076475424,40.16670346269243,2008.960482357143]},"properties":{"name":"Gülməmmədov Çərkəz"}},
{"type":"Feature","id":"064349D2B135F2CBCD6F","geometry":{"type":"Point","coordinates":[45.78886510716119,40.16609328837733,2009.703483213736]},"properties":{"name":"Abbasov Bayram"}},
{"type":"Feature","id":"0FAD96EE0B35F2CC4DBE","geometry":{"type":"Point","coordinates":[45.78947517017666,40.16601996355359,2011.542030250739]},"properties":{"name":"Abbasov Kamil"}},
{"type":"Feature","id":"0AE5E1D3D235F2CCE35F","geometry":{"type":"Point","coordinates":[45.78900597352277,40.16532597229738,2011.025783149684]},"properties":{"name":"Abbasov Bəylər"}},
{"type":"Feature","id":"0FA0304CDD35F2CD9A70","geometry":{"type":"Point","coordinates":[45.78934490688746,40.16538635925454,2011.551274635678]},"properties":{"name":"Abbasov Tavariş"}},
{"type":"Feature","id":"0684BE58E535F2CE2111","geometry":{"type":"Point","coordinates":[45.78960423465554,40.16528954251625,2012.05873887942]},"properties":{"name":"Abbasov Hidayət"}},
{"type":"Feature","id":"0A1F64597F35F2D15B96","geometry":{"type":"Point","coordinates":[45.78985354749466,40.16576858488592,2012.262048105591]},"properties":{"name":"Nağıyev Saleh"}},
{"type":"Feature","id":"003888738F35F2D24216","geometry":{"type":"Point","coordinates":[45.79010798916553,40.16582507934019,2012.309410337334]},"properties":{"name":"Nağıyev Hüseyin"}},
{"type":"Feature","id":"0EA309692035F2D2FEBA","geometry":{"type":"Point","coordinates":[45.7905637209255,40.16583779479718,2012.302506322657]},"properties":{"name":"Alıyev Adil"}},
{"type":"Feature","id":"06D3A3EE2735F2D381B9","geometry":{"type":"Point","coordinates":[45.79102312317876,40.16608335934194,2011.946754926002]},"properties":{"name":"Həsənov Qəşəm"}},
{"type":"Feature","id":"08C7C7243735F2D3FD56","geometry":{"type":"Point","coordinates":[45.79059483099955,40.16622054569016,2011.713550994799]},"properties":{"name":"Xəlilov Şahbaz"}},
{"type":"Feature","id":"052790C02635F2D48DF9","geometry":{"type":"Point","coordinates":[45.79093925013163,40.16633364824259,2011.674181083722]},"properties":{"name":"Gülməmmədov Eyvaz"}},
{"type":"Feature","id":"004F68CAE835F2D59C5B","geometry":{"type":"Point","coordinates":[45.79167877008832,40.16703310086609,2009.23396126459]},"properties":{"name":"Əsgərov Hüseyin"}},
{"type":"Feature","id":"0AF404013935F2D6AD9C","geometry":{"type":"Point","coordinates":[45.79198587844497,40.1661065245859,2011.779354327012]},"properties":{"name":"Ələkbərov Xalıqverdi"}},
{"type":"Feature","id":"0D3775F69835F2D8471D","geometry":{"type":"Point","coordinates":[45.79210100285164,40.16653850763467,2009.403693990685]},"properties":{"name":"Ələkbərov Bəhman"}},
{"type":"Feature","id":"062717C49D35F2D936DC","geometry":{"type":"Point","coordinates":[45.79071177879568,40.16731207323992,2009.044969435979]},"properties":{"name":"Əsgərov Yelmar"}},
{"type":"Feature","id":"071B8FBCB835F2DCF20B","geometry":{"type":"Point","coordinates":[45.79007947124872,40.166255186489,2011.483171431757]},"properties":{"name":"Nağıyev Talıb"}},
{"type":"Feature","id":"04CC0375FC35F2DE73E8","geometry":{"type":"Point","coordinates":[45.78959011325701,40.1668259009468,2009.514528175886]},"properties":{"name":"Kərimov Mirzəli"}},
{"type":"Feature","id":"0288C6DDE435F2DEE060","geometry":{"type":"Point","coordinates":[45.78998011635917,40.16689278747065,2009.861976408352]},"properties":{"name":"İsmayılov Bəhrəm"}},
{"type":"Feature","id":"04ABA923A335F2E15F43","geometry":{"type":"Point","coordinates":[45.79319653012143,40.16080043971431,2024.187329468336]},"properties":{"name":"Hüseyinin Su Dəyirmanı"}},
{"type":"Feature","id":"04F57F7F1E35F2E46C83","geometry":{"type":"Point","coordinates":[45.79707276134619,40.16504095374017,2015.363274662375]},"properties":{"name":"Qayabaşı kənd yolu"}},
{"type":"Feature","id":"023C2222E835F2E71D39","geometry":{"type":"Point","coordinates":[45.79342492393973,40.16961056464921,2004.112540126573]},"properties":{"name":"Cinni tütün yeri"}},
{"type":"Feature","id":"0AD70C8CE735F2E9009E","geometry":{"type":"Point","coordinates":[45.78600909394191,40.16536413876211,2008.443833046084]},"properties":{"name":"Kartof yeri"}},
{"type":"Feature","id":"097CCABB9035F2EAA908","geometry":{"type":"Point","coordinates":[45.78084428794936,40.17348601786322,1986.825031593384]},"properties":{"name":"Daşlı tütün yeri"}},
{"type":"Feature","id":"0D4C97100F35F2EB4439","geometry":{"type":"Point","coordinates":[45.78334923200211,40.17331714778076,1990.506338653006]},"properties":{"name":"Armudlu tütün yeri"}},
{"type":"Feature","id":"00CA3FD4C335F2EC1A26","geometry":{"type":"Point","coordinates":[45.77534402644188,40.18317879264274,1964.425421424946]},"properties":{"name":"Arteziyan bulaq "}},
{"type":"Feature","id":"0933CC29A635F2ED83E4","geometry":{"type":"Point","coordinates":[45.77318344746273,40.1853268238817,1959.063745354835]},"properties":{"name":"Orta yol"}},
{"type":"Feature","id":"0915AAB0A835F2EE010C","geometry":{"type":"Point","coordinates":[45.78043022298551,40.1802439385791,1974.766681723728]},"properties":{"name":"Basarkeçər yolu"}},
{"type":"Feature","id":"07A85AF6C535F2EE9A33","geometry":{"type":"Point","coordinates":[45.78174254043856,40.18632375921897,1964.00779479131]},"properties":{"name":"Zod yolu"}},
{"type":"Feature","id":"037347978635F2EFFFAC","geometry":{"type":"Point","coordinates":[45.7848168105714,40.16423103612095,2021.405719316062]},"properties":{"name":"Bazar yolu"}},
{"type":"Feature","id":"0E28D57C9D35F2F0CC0D","geometry":{"type":"Point","coordinates":[45.78750035287386,40.15951115592532,2035.230944562557]},"properties":{"name":"Material yolu"}},
{"type":"Feature","id":"045DF13DC335F2F1D201","geometry":{"type":"Point","coordinates":[45.78746905857488,40.15697394844411,2043.939304389176]},"properties":{"name":"Qədim yaşayış yerləri"}},
{"type":"Feature","id":"06D9F17DB435F2F3B5FB","geometry":{"type":"Point","coordinates":[45.7933746512821,40.1556053196916,2062.03346246161]},"properties":{"name":"Yaylaq yolu"}},
{"type":"Feature","id":"0505E2FBD935F2F5EE22","geometry":{"type":"Point","coordinates":[45.78910076952715,40.14798993564149,2076.200180184522]},"properties":{"name":"Seyid Qurban təpəsi"}},
{"type":"Feature","id":"0B0F19F9DD35F2F809EF","geometry":{"type":"Point","coordinates":[45.77918690066367,40.1542080557589,2057.96201295071]},"properties":{"name":"Göytəpə qədim yaşayış yeri"}},
{"type":"Feature","id":"000BBB1FF535F2FBDCA3","geometry":{"type":"Point","coordinates":[45.79608842544454,40.15764310440299,2057.365244467405]},"properties":{"name":"Qədim yaşayış yeri"}},
{"type":"Feature","id":"0B9D9696B435F2FD7D28","geometry":{"type":"Point","coordinates":[45.78241911645391,40.16707775248653,2012.203135275333]},"properties":{"name":"Pişik qayası"}},
{"type":"Feature","id":"0C3C50F91F35F2FFB36B","geometry":{"type":"Point","coordinates":[45.78690116196316,40.16066111730235,2037.487033831029]},"properties":{"name":"Qədim yaşayış yeri"}},
{"type":"Feature","id":"0299BF027235F3018CDE","geometry":{"type":"Point","coordinates":[45.79142057438834,40.15819447839311,2033.650007077025]},"properties":{"name":"Qədim alban məzarlığı"}},
{"type":"Feature","id":"0A5ACA954635F3026988","geometry":{"type":"Point","coordinates":[45.78854387953363,40.15651164646112,2038.488193545651]},"properties":{"name":"Mağaralar "}},
{"type":"Feature","id":"0B5796250335F30636D6","geometry":{"type":"Point","coordinates":[45.78554480645258,40.16728116810582,2000.686056329766]},"properties":{"name":"Çala futbol meydançası"}},
{"type":"Feature","id":"0F14BB10B635F30905C5","geometry":{"type":"Point","coordinates":[45.78987615746719,40.16732592846211,2008.531763694588]},"properties":{"name":"Suvarma arteziyan."}},
{"type":"Feature","id":"036422687535F30C0BF1","geometry":{"type":"Point","coordinates":[45.79017164342951,40.16167688548969,2015.828448473227]},"properties":{"name":"Dərə məhləsi."}},
{"type":"Feature","id":"022E3C54DA35F30CC62C","geometry":{"type":"Point","coordinates":[45.78921799466315,40.16489835502116,2011.750099461792]},"properties":{"name":"Axundlar məhləsi"}},
{"type":"Feature","id":"0E9FD3469A35F3122C5A","geometry":{"type":"Point","coordinates":[45.79108013541193,40.16252646804629,2018.218693973178]},"properties":{"name":"Davidov İslam"}},
{"type":"Feature","id":"019249EAD235F314AAD3","geometry":{"type":"Point","coordinates":[45.79242006839934,40.16267375980138,2018.880041201139]},"properties":{"name":"Mövlayev Tapdıq"}},
{"type":"Feature","id":"0DBEAF483A35F3152AFC","geometry":{"type":"Point","coordinates":[45.79221217964631,40.1626569874984,2018.905914437071]},"properties":{"name":"Abdullayev Hüseyin"}},
{"type":"Feature","id":"03C138CEA635F315A5B8","geometry":{"type":"Point","coordinates":[45.79199335213851,40.16265140204414,2018.912413962747]},"properties":{"name":"Abdullayev Həsənqulu"}},
{"type":"Feature","id":"0043F41FD935F31A0BA4","geometry":{"type":"Point","coordinates":[45.79227204352266,40.1630026878504,2018.412435345151]},"properties":{"name":"Mövlayev Xalıqverdi"}},
{"type":"Feature","id":"081CDF5E7035F5D9B7AB","geometry":{"type":"Point","coordinates":[45.79126333485982,40.16555394713181,2013.741672513064]},"properties":{"name":"Ələkbərov Məhərrəm"}},
{"type":"Feature","id":"0443FE0B8135F5DB0F04","geometry":{"type":"Point","coordinates":[45.79188407548948,40.16553995351887,2014.027887968291]},"properties":{"name":"Ələkbərov Bahadur"}},
{"type":"Feature","id":"052393A34A35F5DCE60F","geometry":{"type":"Point","coordinates":[45.79215402104515,40.16553399367331,2013.542925141779]},"properties":{"name":"Ələkbərov Qurban"}},
{"type":"Feature","id":"048E582EDE35F5E2A2F1","geometry":{"type":"Point","coordinates":[45.79048365263606,40.1672094938542,2009.779004891858]},"properties":{"name":"Əliyev Bilman"}},
{"type":"Feature","id":"0D7798219F35F5E59B58","geometry":{"type":"Point","coordinates":[45.78987336356548,40.16715912954668,2009.74094256293]},"properties":{"name":"Nağıyev Talıb"}},
{"type":"Feature","id":"0A281F774835F5F5284E","geometry":{"type":"Point","coordinates":[45.79266351208648,40.16578076622569,2011.941668481294]},"properties":{"name":"Kənd çayı"}},
{"type":"Feature","id":"074D4A026235F5F64629","geometry":{"type":"Point","coordinates":[45.79241711148595,40.16665075559016,2009.01058023313]},"properties":{"name":"Ələkbərov Mübariz"}},
{"type":"Feature","id":"0F2A3ED87935F5F74F38","geometry":{"type":"Point","coordinates":[45.79208512276919,40.16717852561482,2008.051533045215]},"properties":{"name":"Abdullayev Famil"}},
{"type":"Feature","id":"016420640335F60B270D","geometry":{"type":"Point","coordinates":[45.79453290851342,40.1674046999399,2010.372706319824]},"properties":{"name":"Nağıyev Sabir"}},
{"type":"Feature","id":"0A388AD48D35F60C2ED8","geometry":{"type":"Point","coordinates":[45.79483772597516,40.16751757607077,2009.505359330342]},"properties":{"name":"Mövlayev Nizami"}},
{"type":"Feature","id":"0CDB1423A935F6221764","geometry":{"type":"Point","coordinates":[45.79373332551575,40.16646234337841,2011.171680090031]},"properties":{"name":"Traktor parkı"}},
{"type":"Feature","id":"007E03ED3835F623063A","geometry":{"type":"Point","coordinates":[45.79347587754069,40.16665823331603,2009.844533448425]},"properties":{"name":"Abdullayev Novruz"}},
{"type":"Feature","id":"0820B46FE735F62497A7","geometry":{"type":"Point","coordinates":[45.79316785675638,40.16676474587563,2009.020644358717]},"properties":{"name":"Ələkbərov Zamir"}},
{"type":"Feature","id":"0DD6DB5A1E35F6251BA6","geometry":{"type":"Point","coordinates":[45.79310597348373,40.16701384608451,2008.600965445137]},"properties":{"name":"Abdullayev Sabir"}},
{"type":"Feature","id":"08BC1A8A0B35F625CA4F","geometry":{"type":"Point","coordinates":[45.79305509163661,40.16716306722974,2008.313968877651]},"properties":{"name":"Ələkbərov Məzahim"}},
{"type":"Feature","id":"03CCAC0A6235F627A76F","geometry":{"type":"Point","coordinates":[45.79288189164942,40.16786090969979,2006.87292608824]},"properties":{"name":"Mürsəlov Tofiq"}},
{"type":"Feature","id":"09B31BE4E035F628DAE3","geometry":{"type":"Point","coordinates":[45.79327204042558,40.16707299769779,2008.645890656426]},"properties":{"name":"Məhərrov Zakir"}},
{"type":"Feature","id":"0706A2BA9735F629FDAB","geometry":{"type":"Point","coordinates":[45.79324353251356,40.16720147641607,2008.38584440704]},"properties":{"name":"Ələkbərov Sulidin"}},
{"type":"Feature","id":"08B8C9189135F62E6CE8","geometry":{"type":"Point","coordinates":[45.79356437623331,40.16806596916211,2007.743501866983]},"properties":{"name":"Şükürov Rəşid"}},
{"type":"Feature","id":"0D21F203E035F62F35B5","geometry":{"type":"Point","coordinates":[45.7937267842498,40.16747445062271,2007.925552438883]},"properties":{"name":"Mamedov Şahmar"}},
{"type":"Feature","id":"00B759025835F62FE3B1","geometry":{"type":"Point","coordinates":[45.79375298157343,40.16729591994887,2008.260567937704]},"properties":{"name":"Mürsəlov Cəlil"}},
{"type":"Feature","id":"0E9E34398635F6305E59","geometry":{"type":"Point","coordinates":[45.79385660779506,40.16717274742106,2008.840083591241]},"properties":{"name":"Məmmədov Calal"}},
{"type":"Feature","id":"0E9D5E23CD35F6E160C6","geometry":{"type":"Point","coordinates":[45.80135211031912,40.16535531436569,2028.079080669133]},"properties":{"name":"Qayabaşı yolu"}},
{"type":"Feature","id":"0B8F2942D635F6E20D8A","geometry":{"type":"Point","coordinates":[45.8026408420282,40.16584123670282,2035.553408883466]},"properties":{"name":"Hüseynquluğalı kənd yolu"}},
{"type":"Feature","id":"0E76EBAA8535F6E503A5","geometry":{"type":"Point","coordinates":[45.79056939394919,40.14527008375928,2080.644375807927]},"properties":{"name":"Daşkənd yolu"}},
{"type":"Feature","id":"01705178F435F6EE6FF6","geometry":{"type":"Point","coordinates":[45.7910601937873,40.16664154739204,2011.020241431511]},"properties":{"name":"Əsgərov İsa"}},
{"type":"Feature","id":"01C48DA92A35F6EF3EF2","geometry":{"type":"Point","coordinates":[45.79054752315493,40.16674672209641,2010.814547671171]},"properties":{"name":"Xəlilov Rafiq"}},
{"type":"Feature","id":"067A1C0E6D35F6FFC766","geometry":{"type":"Point","coordinates":[45.79190674634821,40.16738744878806,2008.0738847304]},"properties":{"name":"Əsgərov Şahmar"}},
{"type":"Feature","id":"0EEC646C9935F706FA26","geometry":{"type":"Point","coordinates":[45.79224272911418,40.16693757395374,2008.198224207369]},"properties":{"name":"Mövlayev Zərbalı"}},
{"type":"Feature","id":"0F2B231C7135F70A5810","geometry":{"type":"Point","coordinates":[45.79299521888561,40.16746933739513,2007.832631748301]},"properties":{"name":"Qasımov Hilal"}},
{"type":"Feature","id":"076C6F386B35F70E7895","geometry":{"type":"Point","coordinates":[45.79489669802916,40.16725073388671,2010.020121806001]},"properties":{"name":"Abdalov Abdal"}},
{"type":"Feature","id":"016B71DD6C35F7187F5C","geometry":{"type":"Point","coordinates":[45.7905327952806,40.16749691330136,2008.692149319539]},"properties":{"name":"Əhmədov Asdan"}},
{"type":"Feature","id":"022E75793135F719E721","geometry":{"type":"Point","coordinates":[45.79011543310999,40.16741552056066,2008.635837112408]},"properties":{"name":"Məmmədov Əjdər"}},
{"type":"Feature","id":"0DECDEB5BF35F71EBA42","geometry":{"type":"Point","coordinates":[45.79291178414869,40.1614359513059,2022.172894087662]},"properties":{"name":"Poçt şöbəsi","description":"<div><br></div>"}},
{"type":"Feature","id":"07E50A4BE535F7201020","geometry":{"type":"Point","coordinates":[45.79297546690842,40.1613696765083,2022.482190970206]},"properties":{"name":"Tibb məntəqəsi"}},
{"type":"Feature","id":"0EFE2AF7D635F7217B64","geometry":{"type":"Point","coordinates":[45.79060653422238,40.16364230015094,2016.796007180405]},"properties":{"name":"Tarixi tikili"}},
{"type":"Feature","id":"03AA9CCD9235F72400C0","geometry":{"type":"Point","coordinates":[45.79158629817773,40.16421879351161,2016.507217512122]},"properties":{"name":"Dağıdılmış Qədim Alban kilsəsi"}},
{"type":"Feature","id":"0EA853B72F35F7254792","geometry":{"type":"Point","coordinates":[45.78986961206433,40.16354565803411,2014.871268015729]},"properties":{"name":"Dağüstü kitabələr"}},
{"type":"Feature","id":"07DACF376135F72837E5","geometry":{"type":"Point","coordinates":[45.7912923732714,40.16092394377853,2020.974757878424]},"properties":{"name":"Kolxozun tütün qəbulu məntəqəsi"}},
{"type":"Feature","id":"0A6DB4935335F729F165","geometry":{"type":"Point","coordinates":[45.79281703816226,40.15696360715226,2057.384812099079]},"properties":{"name":"Qasımov Hüseynin Gümbəzi"}},
{"type":"Feature","id":"05C890454E35F72D25EA","geometry":{"type":"Point","coordinates":[45.7929096346727,40.15708657382513,2056.755783458765]},"properties":{"name":"Həsənova Güllüzarın Gümbəzi"}},
{"type":"Feature","id":"03F5FC462B35F7566784","geometry":{"type":"Point","coordinates":[5.249190576015543,13.58755966196857,-34036.98575312683]},"properties":{"name":"Метка без названия"}},
{"type":"Feature","id":"04B44482F636025E03F5","geometry":{"type":"Point","coordinates":[45.81540351611105,40.03788714252519,2490.234169659363]},"properties":{"name":"Qoşabulaq kənd yaylaq yeri(oba)"}},
{"type":"Feature","id":"0576F44DCC3602604544","geometry":{"type":"Point","coordinates":[45.82765918828012,40.04315232319182,2570.076947340554]},"properties":{"name":"Ay Güneyi."}},
{"type":"Feature","id":"0B23FE4DDB36026130CC","geometry":{"type":"Point","coordinates":[45.8200743952936,40.03826403689932,2607.211586333973]},"properties":{"name":"Qara Daş ocaq bulağı"}},
{"type":"Feature","id":"0A5A8B341A3602629B83","geometry":{"type":"Point","coordinates":[45.8274370795648,40.03776777075733,2661.104476992213]},"properties":{"name":"Şaravannı dərə"}},
{"type":"Feature","id":"0E3E9218B93602640C60","geometry":{"type":"Point","coordinates":[45.81871299035506,40.06738554209026,2387.70456593072]},"properties":{"name":"Dəllək biçən"}},
{"type":"Feature","id":"00A82071F5360264B5E2","geometry":{"type":"Point","coordinates":[45.81674115066297,40.06233719481812,2410.772260738655]},"properties":{"name":"Yanıq dağ"}},
{"type":"Feature","id":"048FC8EFB936026539F7","geometry":{"type":"Point","coordinates":[45.81870534843114,40.0594754136848,2410.992831636146]},"properties":{"name":"Ceyran bulağı"}},
{"type":"Feature","id":"09558B727F360265F73B","geometry":{"type":"Point","coordinates":[45.82217233604117,40.05482177866342,2418.221113115841]},"properties":{"name":"Yaylaq yolu"}},
{"type":"Feature","id":"095DB71468360266BFAE","geometry":{"type":"Point","coordinates":[45.8174084337236,40.04583247844779,2531.046364470855]},"properties":{"name":"Diliklər"}},
{"type":"Feature","id":"08C547D6183602673F5A","geometry":{"type":"Point","coordinates":[45.80845308923996,40.04699802268797,2667.920258910267]},"properties":{"name":"Camış uçan dağı"}},
{"type":"Feature","id":"06BE204252360267E601","geometry":{"type":"Point","coordinates":[45.81296511040811,40.04139164365225,2571.404861635455]},"properties":{"name":"Sarı bulaq"}},
{"type":"Feature","id":"0B4D4ED84236026881B9","geometry":{"type":"Point","coordinates":[45.81935187969955,40.04056118201206,2478.59111366106]},"properties":{"name":"Yurd"}},
{"type":"Feature","id":"0800E2AE7C360269434E","geometry":{"type":"Point","coordinates":[45.8174157049277,40.03563327692283,2513.794161477601]},"properties":{"name":"Məmmədəli bulağı"}},
{"type":"Feature","id":"081D858F3C360269D511","geometry":{"type":"Point","coordinates":[45.81289818799682,40.03353031033547,2523.892164253064]},"properties":{"name":"Daşağan çayı"}},
{"type":"Feature","id":"0962BD95B936026AA7FE","geometry":{"type":"Point","coordinates":[45.80147207648969,40.03227048216566,2684.046797546071]},"properties":{"name":"Qara Qaya"}},
{"type":"Feature","id":"0EC53D029E36026B90D0","geometry":{"type":"Point","coordinates":[45.80597088466782,40.03130373869611,2593.993452108778]},"properties":{"name":"Kəfəkli dağı"}},
{"type":"Feature","id":"06CCE7113436026C1F4B","geometry":{"type":"Point","coordinates":[45.81225356461691,40.03051010584239,2555.927766945935]},"properties":{"name":"Ağ Bulaq"}},
{"type":"Feature","id":"0234EC3A5436026CE49D","geometry":{"type":"Point","coordinates":[45.82685622405713,40.03254458595556,2593.289129141315]},"properties":{"name":"Köhnə Kom"}},
{"type":"Feature","id":"0DBEE8EE7936026D95CF","geometry":{"type":"Point","coordinates":[45.82556129260916,40.03030971488934,2837.952614990957]},"properties":{"name":"Güneylər"}},
{"type":"Feature","id":"068619F33036026E7C20","geometry":{"type":"Point","coordinates":[45.81913151185192,40.00851466551792,3042.877833845524]},"properties":{"name":"Tunellər"}},
{"type":"Feature","id":"04357A6A6F360272B82D","geometry":{"type":"Point","coordinates":[45.8266278076097,40.01539062658866,2619.156832428685]},"properties":{"name":"Boğaz(Yuxarı oba)"}},
{"type":"Feature","id":"040B72F0F13602752BB0","geometry":{"type":"Point","coordinates":[45.8292895851235,40.01659911010129,2611.364375737028]},"properties":{"name":"Qatar qaya"}},
{"type":"Feature","id":"07E51FA9EA36027BC779","geometry":{"type":"Point","coordinates":[45.81436431076111,40.04522977186755,2575.322740182646]},"properties":{"name":"Yumru təpə"}},
{"type":"Feature","id":"0BE9B34A4736027EC2CA","geometry":{"type":"Point","coordinates":[45.83513549261522,39.99641681422803,3115.259818149083]},"properties":{"name":"Mərzili göl"}},
{"type":"Feature","id":"048DD9E65936027F6E5C","geometry":{"type":"Point","coordinates":[45.82705914872079,40.00286319431109,3013.014928247612]},"properties":{"name":"Bayda çuxuru"}},
{"type":"Feature","id":"01F56F686C360281F0EC","geometry":{"type":"Point","coordinates":[45.83994695147216,40.01370338941446,2820.04563807499]},"properties":{"name":"Əvəlikli bulaq"}},
{"type":"Feature","id":"06ED5448F13602857EEE","geometry":{"type":"Point","coordinates":[45.82743374383767,40.01419382204615,2720.076364280863]},"properties":{"name":"Ayı Zağası"}},
{"type":"Feature","id":"02474A81E7360286A469","geometry":{"type":"Point","coordinates":[45.82566686544453,40.01612463316108,2685.038800674492]},"properties":{"name":"Naməlum tək qəbir"}},
{"type":"Feature","id":"07648E57DE3602885F26","geometry":{"type":"Point","coordinates":[45.82492857845872,40.01610767466514,2670.297081721184]},"properties":{"name":"Daşağan çayı."}},
{"type":"Feature","id":"00140445C23602897ADF","geometry":{"type":"Point","coordinates":[45.84120316230121,40.01739113073318,3085.280583540562]},"properties":{"name":"Tərsə Güney dağı"}},
{"type":"Feature","id":"0142177F8036028F9DEF","geometry":{"type":"Point","coordinates":[45.82772655147401,40.01465572933295,2708.149766067192]},"properties":{"name":"Ağsu bulağı"}},
{"type":"Feature","id":"0254AE23473602905A3B","geometry":{"type":"Point","coordinates":[45.8317237341698,40.01510736989414,2746.942773961408]},"properties":{"name":"Arxac."}},
{"type":"Feature","id":"04F07B446E3602915B5B","geometry":{"type":"Point","coordinates":[45.83610476568251,40.011745205842,2876.406352111237]},"properties":{"name":"Quzey"}},
{"type":"Feature","id":"09FFA0938436029875B4","geometry":{"type":"Point","coordinates":[45.81731346824999,40.06873067174836,2377.715159502498]},"properties":{"name":"Lilparlı bulaq"}},
{"type":"Feature","id":"09D7A9E1B8360299441E","geometry":{"type":"Point","coordinates":[45.82254075913734,40.067265340604,2388.337447194775]},"properties":{"name":"Hacı Xıdır oğlu İsgəndərin ğüneyi"}},
{"type":"Feature","id":"06AB9E9DBA36029AF957","geometry":{"type":"Point","coordinates":[45.82562423227452,40.03767062860992,2648.27996779548]},"properties":{"name":"Şarabanı bulağı"}},
{"type":"Feature","id":"0E29B657D936029BEBB5","geometry":{"type":"Point","coordinates":[45.82924929782308,40.02319456133114,3004.31372571149]},"properties":{"name":"Orta ğüney"}},
{"type":"Feature","id":"0B17CA86B436029D1650","geometry":{"type":"Point","coordinates":[45.82404765371452,40.00076299515629,3157.157864769123]},"properties":{"name":"İldırım vuran çuxur"}},
{"type":"Feature","id":"0684C0B8B936029E8858","geometry":{"type":"Point","coordinates":[45.83065049051901,40.00684984713918,2897.080540255732]},"properties":{"name":"Yasdana"}},
{"type":"Feature","id":"06474A77FD36029F32BE","geometry":{"type":"Point","coordinates":[45.810108808245,40.01958209196612,2724.966356398925]},"properties":{"name":"İrmaqlar"}},
{"type":"Feature","id":"0D20CC7F733602A076F9","geometry":{"type":"Point","coordinates":[45.81507754517487,40.03097632443412,2524.63123726906]},"properties":{}},
{"type":"Feature","id":"0333A5530F3602A113F8","geometry":{"type":"Point","coordinates":[45.81439076318745,40.02498761135405,2585.839749309645]},"properties":{"name":"Məmməd ölən biçənəyi"}},
{"type":"Feature","id":"01D20695DA3602A1F881","geometry":{"type":"Point","coordinates":[45.81854277024465,40.02630830846483,2622.023138791513]},"properties":{"name":"Haqqıxlı biçənəyi"}},
{"type":"Feature","id":"079C1C58FE3602A2A86E","geometry":{"type":"Point","coordinates":[45.81760530700817,40.02150397470166,2644.862509370576]},"properties":{"name":"Mərciməklər biçənəyi"}},
{"type":"Feature","id":"0D666E7BDD3602A38DD7","geometry":{"type":"Point","coordinates":[45.8069516090473,40.02641533309207,2597.606284416981]},"properties":{"name":"Dəvə yeyən biçənəyi"}},
{"type":"Feature","id":"06499DB2343602A45EFE","geometry":{"type":"Point","coordinates":[45.7969413059316,40.03384199560176,2789.4567374003]},"properties":{"name":"Xram arxı"}},
{"type":"Feature","id":"01A393D0D73602A54C96","geometry":{"type":"Point","coordinates":[45.83037072372614,40.01277463639179,2795.043111559335]},"properties":{"name":"Domba quzey"}},
{"type":"Feature","id":"08D3CE3AF73602A61686","geometry":{"type":"Point","coordinates":[45.80102537043403,40.02303619994627,2800.888277809804]},"properties":{"name":"Ağılı quzey"}},
{"type":"Feature","id":"01EF4112F63602A6BA19","geometry":{"type":"Point","coordinates":[45.80204933494059,40.02618089440623,2800.888277809804]},"properties":{"name":"Davalı dərə"}},
{"type":"Feature","id":"0E83A8DE993602A9B63F","geometry":{"type":"Point","coordinates":[45.79558441805566,40.03233004703564,2782.378703207512]},"properties":{"name":"Çuxur yurd"}},
{"type":"Feature","id":"076FA3EA3D3602AB5BFB","geometry":{"type":"Point","coordinates":[45.8314361795799,40.00242791430891,3000.021555346125]},"properties":{"name":"Qiblə bulğı"}},
{"type":"Feature","id":"09DB45BFC53602AD7BCA","geometry":{"type":"Point","coordinates":[45.83136757124149,40.02653362593783,2941.063881216667]},"properties":{"name":"Gəlin qaya"}}
]}
