{"type":"FeatureCollection", "features":[
{"type":"Feature","id":"02C72CA97830DBC9AD79","geometry":{"type":"Point","coordinates":[46.38967391499763,39.37927499731738,1524.624149771027]},"properties":{"0F5A6AD21D30DBC9AD89":0,"name":"Şurnuxu","extrude":true}},
{"type":"Feature","id":"0C8BEFFD2130DBCF13EA","geometry":{"type":"Point","coordinates":[46.3942686895672,39.38272719691268,1444.722530770054]},"properties":{"029C2AE45B30DBCF1401":0,"name":"Gorus yolu","extrude":true}},
{"type":"Feature","id":"071886563030DBD017E2","geometry":{"type":"Point","coordinates":[46.40380110072889,39.37329859007509,1538.968529406355]},"properties":{"034F5D1CF330DBD017FC":0,"name":"Qafan yolu","extrude":true}},
{"type":"Feature","id":"07357BB07A30DBD29D23","geometry":{"type":"Point","coordinates":[46.39985992074219,39.38377763542051,1405.663786754982]},"properties":{"0790F3B2B030DBD29D34":0,"name":"Zavodun dərəsi","extrude":true}},
{"type":"Feature","id":"0FC4D6960F30DBD570BE","geometry":{"type":"Point","coordinates":[46.39699623408272,39.38441818605276,1414.038408745115]},"properties":{"0980D238D030DBD570D1":0,"name":"Niftalı güneyi","extrude":true}},
{"type":"Feature","id":"0C9512415830DBD64DFB","geometry":{"type":"Point","coordinates":[46.39545448545682,39.38561346624309,1432.964717411465]},"properties":{"095CFD20B230DBD64E0A":0,"name":"Oyuq","extrude":true}},
{"type":"Feature","id":"02B6A2C5C630DBDA7B26","geometry":{"type":"Point","coordinates":[46.39834189830253,39.38324613900346,1428.531737700568]},"properties":{"0EDE68AE2C30DBDA7B3B":0,"name":"Kötüklü yer","extrude":true}},
{"type":"Feature","id":"0FD6732AC730DC149170","geometry":{"type":"Point","coordinates":[46.37765194524258,39.36570756861099,2027.419154981737]},"properties":{"07F413F33A30DC149184":0,"name":"Kəpəs dağı","extrude":true}},
{"type":"Feature","id":"07BB4154C232DCEFFEA5","geometry":{"type":"Point","coordinates":[46.40376919038952,39.36031696793917,1768.306625509924]},"properties":{"0483DF6D5532DCEFFEBA":0,"name":"Kəpəsə gedən yol","extrude":true}},
{"type":"Feature","id":"0763BD403E32DCF12EDB","geometry":{"type":"Point","coordinates":[46.40135497645397,39.34407467643888,1429.791670780924]},"properties":{"0CF56BA30032DCF12EFF":0,"name":"Şamsız kəndi","extrude":true}},
{"type":"Feature","id":"064CA6D38232DCF2545E","geometry":{"type":"Point","coordinates":[46.40782595432012,39.33922840271793,1362.079284434205]},"properties":{"00A160C4D832DCF25470":0,"name":"Çay Zəmi","extrude":true}},
{"type":"Feature","id":"0D3292603F32DCF64662","geometry":{"type":"Point","coordinates":[46.43016208527703,39.34198047189852,1304.925841911401]},"properties":{"0E5BF2309232DCF6467D":0,"name":"Qurd qalaq kəndi","extrude":true}},
{"type":"Feature","id":"0C800C105832DCFADB8E","geometry":{"type":"building","coordinates":[46.39976617694928,39.34606543955479,1511.962978349766]},"properties":{"0F6673650532DCFADB9F":0,"name":"Ağbulaq kəndi","extrude":true}},
{"type":"Feature","id":"0F0B63F0F732DCFD6C2D","geometry":{"type":"Point","coordinates":[46.41289758574995,39.36579336531823,1638.227694888343]},"properties":{"062F68D74832DCFD6C44":0,"name":"Xarab körpü","extrude":true}},
{"type":"Feature","id":"06E897765E32DD057581","geometry":{"type":"Point","coordinates":[46.41968188465111,39.36278374132106,1618.024201893448]},"properties":{"0E4B1D93EE32DD0575A5":0,"name":"Cibikliyə gedən yol","extrude":true}},
{"type":"Feature","id":"0E9B48731332DD0EE177","geometry":{"type":"Point","coordinates":[46.4025226830167,39.37677839996167,1505.730045349123]},"properties":{"03DAA9A67A32DD0EE188":0,"name":"Soyuq bulaq kafesi","extrude":true}},
{"type":"Feature","id":"0C570AE9B732DD0F8811","geometry":{"type":"Point","coordinates":[46.40230706123379,39.37672580862903,1508.915318195864]},"properties":{"01B88FDE6E32DD0F8822":0,"name":"Soyuq bulaq","extrude":true}},
{"type":"Feature","id":"0C1D19680D32DD10163F","geometry":{"type":"Point","coordinates":[46.40169591740639,39.37798521456678,1492.41530957197]},"properties":{"08282DF52232DD101653":0,"name":"Yalın düzü","extrude":true}},
{"type":"Feature","id":"03F64921B632DD11508E","geometry":{"type":"Point","coordinates":[46.39811433106398,39.37768538836812,1492.897720942875]},"properties":{"00A0721ABA32DD11509D":0,"name":"Bulağın başına gedən yol","extrude":true}},
{"type":"Feature","id":"0592425D3332DD1231C4","geometry":{"type":"Point","coordinates":[46.40223118904724,39.37959389269847,1453.948148871428]},"properties":{"001A9DB09132DD1231D9":0,"name":"Əbdüləli bulağına gedən yol","extrude":true}},
{"type":"Feature","id":"07697F93D732DD141FFF","geometry":{"type":"Point","coordinates":[46.39819252472155,39.37897365999155,1444.779714830651]},"properties":{"038A0A7EA632DD142012":0,"name":"Fındıqlıq","extrude":true}},
{"type":"Feature","id":"0562C0AD1332DD149CE8","geometry":{"type":"Point","coordinates":[46.39868160664233,39.37898096469363,1442.979892435492]},"properties":{"066BF3FA2732DD149CFD":0,"name":"Balaca yastan","extrude":true}},
{"type":"Feature","id":"00C5CF04AB32DD153063","geometry":{"type":"Point","coordinates":[46.39966242703947,39.37914582034173,1446.507061537497]},"properties":{"01A613DBDD32DD15307E":0,"name":"Böyük yastan","extrude":true}},
{"type":"Feature","id":"088C111F4032DD1741B0","geometry":{"type":"Point","coordinates":[46.39800308779874,39.37952599416068,1438.953319542707]},"properties":{"0E06C7300332DD1741BD":0,"name":"Kəndə qalxan köhnə yol","extrude":true}},
{"type":"Feature","id":"0658924C9F32DD17CB15","geometry":{"type":"Point","coordinates":[46.39798207010322,39.37927193942542,1439.144240441046]},"properties":{"0EE9185F5032DD17CB27":0,"name":"Bulağın dərəsi","extrude":true}},
{"type":"Feature","id":"0F4D54A6E632DD187A35","geometry":{"type":"Point","coordinates":[46.39863657100209,39.37968378844716,1435.074271784089]},"properties":{"0ED7275A1232DD187A49":0,"name":"Alçalıq","extrude":true}},
{"type":"Feature","id":"0A82F36CA032DD1B66C7","geometry":{"type":"Point","coordinates":[46.3987418525239,39.38317125185995,1429.834274950292]},"properties":{"030648380D32DD1B66DA":0,"name":"Böyük daşın yanı","extrude":true}},
{"type":"Feature","id":"048BDCDABF32DD1D0EBB","geometry":{"type":"Point","coordinates":[46.39858329977434,39.38292371093466,1437.149178228817]},"properties":{"07722E90AF32DD1D0ECF":0,"name":"Xəşdaş","extrude":true}},
{"type":"Feature","id":"0C7DAA8D7E32DD1E03EF","geometry":{"type":"Point","coordinates":[46.39851679202526,39.38318531701042,1430.024267556351]},"properties":{"03D01FB46132DD1E03FF":0,"name":"Qoyun yuyulan","extrude":true}},
{"type":"Feature","id":"03ECD6690C32DD2062A3","geometry":{"type":"Point","coordinates":[46.40019267764762,39.38237343773222,1424.734367240478]},"properties":{"030EA7564B32DD2062B8":0,"name":"Poçt","extrude":true}},
{"type":"Feature","id":"057327DFA732DD26B55D","geometry":{"type":"Point","coordinates":[46.40128586473995,39.3846791504137,1386.278230392704]},"properties":{"0FC672777F32DD26B570":0,"name":"Kərim yeri","extrude":true}},
{"type":"Feature","id":"06FEDE547E32DD274E89","geometry":{"type":"Point","coordinates":[46.39978591174296,39.38522004189984,1391.780782387358]},"properties":{"0B3895B9A532DD274EA0":0,"name":"Qoyun damı","extrude":true}},
{"type":"Feature","id":"035B0EDE1F32DD2A330D","geometry":{"type":"Point","coordinates":[46.39581995447664,39.38252522543431,1443.354319379467]},"properties":{"0172A15CDB32DD2A3323":0,"name":"Kəndin əsas yolu","extrude":true}},
{"type":"Feature","id":"0CC15CE4EC32DD2D4249","geometry":{"type":"Point","coordinates":[46.39944601492842,39.38437244220819,1399.417117498586]},"properties":{"0C218B5C2D32DD2D4262":0,"name":"Çaxmaqlı yer","extrude":true}},
{"type":"Feature","id":"0275A40B233348D434A7","geometry":{"type":"Point","coordinates":[46.3983203058562,39.3836623871783,1418.738094382005]},"properties":{"01238062F73348D434D4":0,"name":"Zavodun düzü","extrude":true}},
{"type":"Feature","id":"09642B61023348D7ECFF","geometry":{"type":"Point","coordinates":[46.39292827779833,39.3861625762782,1454.941474594248]},"properties":{"051E3A70893348D7ED29":0,"name":"Yol aşan","extrude":true}},
{"type":"Feature","id":"0713A8CA9D3348D85284","geometry":{"type":"Point","coordinates":[46.39482403157412,39.38858766929719,1454.8162802113]},"properties":{"0402B901DE3348D852F6":0,"name":"Uzun meşə","extrude":true}},
{"type":"Feature","id":"052C9800743348DCBDFE","geometry":{"type":"Point","coordinates":[46.39177880628828,39.38576751463631,1469.709647182604]},"properties":{"0465EDD09E3348DCBE39":0,"name":"Sarı bulaq","extrude":true}},
{"type":"Feature","id":"02101F52BA3348DF82F7","geometry":{"type":"Point","coordinates":[46.38805684287067,39.3855624334567,1523.009938395687]},"properties":{"01265821143348DF8323":0,"name":"Eşşək meydanı","extrude":true}},
{"type":"Feature","id":"080BC8B4C03348E0470A","geometry":{"type":"Point","coordinates":[46.39146081404164,39.38473172045452,1463.346291880978]},"properties":{"0B02CBA4773348E04735":0,"name":"Almalıq","extrude":true}},
{"type":"Feature","id":"000898964D3348E0C7F5","geometry":{"type":"Point","coordinates":[46.38960016605366,39.38446293609803,1496.786941268369]},"properties":{"02568975083348E0C826":0,"name":"Daşlı Güney","extrude":true}},
{"type":"Feature","id":"05643706723348E3E223","geometry":{"type":"Point","coordinates":[46.38588438055483,39.39205121456307,1560.380860088936]},"properties":{"0A25C200893348E3E252":0,"name":"Cəhənnəm dərəsi","extrude":true}},
{"type":"Feature","id":"0D7D496A993348E8EB35","geometry":{"type":"Point","coordinates":[46.36309863590726,39.36512939051631,1781.988092915817]},"properties":{"08D78C412D3348E8EB6F":0,"name":"Böyük yurdlar","extrude":true}},
{"type":"Feature","id":"012CC3E0233348EC4E0C","geometry":{"type":"Point","coordinates":[46.35955803902971,39.361853819038,1708.674687488862]},"properties":{"09682CDD3A3348EC4E3E":0,"name":"Mərcimək yurdu","extrude":true}},
{"type":"Feature","id":"093668022D3348F976A9","geometry":{"type":"Point","coordinates":[46.38603631357451,39.38616289553725,1543.967602813129]},"properties":{"0E4CE03F683348F976E2":0,"name":"Yurdlar","extrude":true}},
{"type":"Feature","id":"0E57E186D93348FAA8A3","geometry":{"type":"Point","coordinates":[46.39768584211464,39.40542221625295,1355.092572256235]},"properties":{"03D6A0EFFC3348FAA8D9":0,"name":"Məzrə düzü","extrude":true}},
{"type":"Feature","id":"04114C225A3348FDF01D","geometry":{"type":"Point","coordinates":[46.38629979186138,39.39162450741026,1549.000994745503]},"properties":{"0703BE633D3348FDF04D":0,"name":"Göy bulaq","extrude":true}},
{"type":"Feature","id":"099056B5553348FEEAB9","geometry":{"type":"Point","coordinates":[46.3837186633218,39.39122880466111,1576.533248023406]},"properties":{"042E2DB1333348FEEAE6":0,"name":"Yurdlar","extrude":true}},
{"type":"Feature","id":"03840CD37D3349001C99","geometry":{"type":"Point","coordinates":[46.38424338091697,39.39162525628394,1578.126539682914]},"properties":{"07D9374CD83349001CCC":0,"name":"Açıqlı güney","extrude":true}},
{"type":"Feature","id":"067E99D2F833490220DB","geometry":{"type":"Point","coordinates":[46.3833294588413,39.39121590834603,1582.520126667285]},"properties":{"0823522DCA334902210B":0,"name":"Həşimbəy bulağı","extrude":true}},
{"type":"Feature","id":"0D699A4B7D3349121790","geometry":{"type":"Point","coordinates":[46.38744073662727,39.3847599967568,1512.727070176697]},"properties":{"03EBFDA00033491217C7":0,"name":"Qərəməlik bulağı","extrude":true}},
{"type":"Feature","id":"0118F2AD8F33491397EE","geometry":{"type":"Point","coordinates":[46.3869523855364,39.38409941898976,1502.145208006131]},"properties":{"0616D8BA773349139821":0,"name":"Kolavat","extrude":true}},
{"type":"Feature","id":"0F4EDEB07E3349143B24","geometry":{"type":"Point","coordinates":[46.38486254643477,39.3840152676124,1521.246398021324]},"properties":{"08B488B1273349143B58":0,"name":"Böyük kolavat","extrude":true}},
{"type":"Feature","id":"01BC948181334921B931","geometry":{"type":"Point","coordinates":[46.3312532371252,39.39973535699323,1527.895366998065]},"properties":{"0017E6E55D334921B964":0,"name":"Kürdük","extrude":true}},
{"type":"Feature","id":"091BE7F6463349291BC9","geometry":{"type":"Point","coordinates":[46.38109401521287,39.3677215077489,1909.935097292556]},"properties":{"07B6993AB03349291C01":0,"name":"Qəhrəman çəməni","extrude":true}},
{"type":"Feature","id":"01EBD27B8133492D40F8","geometry":{"type":"Point","coordinates":[46.3704435864687,39.37002054127816,1889.150685319986]},"properties":{"0F24DE8FF233492D412D":0,"name":"Gürcülü düşən","extrude":true}},
{"type":"Feature","id":"07436854B23349321A5C","geometry":{"type":"Point","coordinates":[46.37108469917536,39.37627208871565,1880.585939759888]},"properties":{"071E980C1B3349321A8B":0,"name":"Xallava düşən","extrude":true}},
{"type":"Feature","id":"0AD8BFC4A43349338AA8","geometry":{"type":"Point","coordinates":[46.37467539600927,39.37681869444334,1836.899840940489]},"properties":{"02566543B13349338AE8":0,"name":"Quş bulağı","extrude":true}},
{"type":"Feature","id":"09CC500A323349369843","geometry":{"type":"Point","coordinates":[46.37591762083891,39.37619427935709,1796.391995792285]},"properties":{"05C0D4CFDA3349369879":0,"name":"Gab","extrude":true}},
{"type":"Feature","id":"06FDCEDE2033493982E4","geometry":{"type":"Point","coordinates":[46.37727422395951,39.37638766662091,1741.272737109261]},"properties":{"023B572CED334939831A":0,"name":"Kalbalı düşən","extrude":true}},
{"type":"Feature","id":"0828160B4C33493A97BE","geometry":{"type":"Point","coordinates":[46.38139415023053,39.37791227830582,1586.830212487971]},"properties":{"0E76228C4933493A97F6":0,"name":"Huseyn dəhnəsi","extrude":true}},
{"type":"Feature","id":"04483481E733493D87CE","geometry":{"type":"Point","coordinates":[46.38945173409378,39.37837814460964,1524.397193245447]},"properties":{"01EDBA259533493D8803":0,"name":"Armudlq","extrude":true}},
{"type":"Feature","id":"055A997930334947416C","geometry":{"type":"Point","coordinates":[46.38638708713046,39.37307020786767,1630.350793944915]},"properties":{"0542AC2DFC334947419C":0,"name":"Qoşunalı buağı","extrude":true}},
{"type":"Feature","id":"0361EE358033494D38B8","geometry":{"type":"Point","coordinates":[46.34833256820749,39.36541005607265,1744.607444401501]},"properties":{"02E654A78833494D38FC":0,"name":"Gəlin qayası","extrude":true}},
{"type":"Feature","id":"014E3C054533494FE834","geometry":{"type":"Point","coordinates":[46.38902778436709,39.37988796692856,1526.936537284049]},"properties":{"08B8F6380E33494FE86D":0,"name":"Ağıl yeri","extrude":true}},
{"type":"Feature","id":"028CA25EE3334950B9FE","geometry":{"type":"Point","coordinates":[46.37599620460476,39.3849618232109,1776.006027395258]},"properties":{"0E11090CD4334950BA36":0,"name":"Üç hektarlıq","extrude":true}},
{"type":"Feature","id":"07F146F170334952EB36","geometry":{"type":"Point","coordinates":[46.38230584007199,39.36640842289543,1915.624901340196]},"properties":{"0076448D81334952EB72":0,"name":"Kəpəsin çalası","extrude":true}},
{"type":"Feature","id":"0CA17494913349584F88","geometry":{"type":"Point","coordinates":[46.40221613293476,39.37768610989549,1495.364920371816]},"properties":{"0A74A523B83349584FC1":0,"name":"Çimən bulağı","extrude":true}},
{"type":"Feature","id":"06F0582CAD33495BA2C5","geometry":{"type":"Point","coordinates":[46.38259692739304,39.36760851355773,1886.453041653107]},"properties":{"0D772FDA8F33495BA308":0,"name":"Məşədi Həsən bulağı","extrude":true}},
{"type":"Feature","id":"011EADCB7733495ECA4E","geometry":{"type":"Point","coordinates":[46.39502654582623,39.37783485023692,1497.723970094798]},"properties":{"000FF75B0C33495ECA87":0,"name":"Hürü yurdu","extrude":true}},
{"type":"Feature","id":"0F04088FB03390EEF4D5","geometry":{"type":"Point","coordinates":[46.39926414052177,39.38062347398771,1430.801756086639]},"properties":{"0B1D4957173390EEF50F":0,"name":"Qafarov Əlirza","extrude":true}},
{"type":"Feature","id":"013A74265C3390F03FD4","geometry":{"type":"Point","coordinates":[46.39941154820804,39.38072438006851,1429.489768384388]},"properties":{"0EBC9F87233390F04005":0,"name":"Qafarov Filman","extrude":true}},
{"type":"Feature","id":"058E914F4C3390F0DFF0","geometry":{"type":"Point","coordinates":[46.39947083106794,39.38099003256482,1429.546361191272]},"properties":{"0FCDC393683390F0E027":0,"name":"Qafarov Sahib","extrude":true}},
{"type":"Feature","id":"03C5E7952D3390F1C3A4","geometry":{"type":"Point","coordinates":[46.39971391580329,39.38144628958415,1427.502115821785]},"properties":{"06F8068EE73390F1C3DA":0,"name":"Rüstəmov Tofiq","extrude":true}},
{"type":"Feature","id":"0348086FF03390F23852","geometry":{"type":"Point","coordinates":[46.39984363235843,39.38173766578625,1427.004874602597]},"properties":{"06C098F3AD3390F2387F":0,"name":"Həsənov Filman","extrude":true}},
{"type":"Feature","id":"0EA2CD3F603390F5E379","geometry":{"type":"Point","coordinates":[46.40019737410132,39.3820187195555,1423.256730916205]},"properties":{"01AE8BAE7F3390F5E3A5":0,"name":"Ələsgərov Tapdıq","extrude":true}},
{"type":"Feature","id":"014E4D75D63390F6928F","geometry":{"type":"Point","coordinates":[46.40002011392994,39.38220629278246,1426.371497897551]},"properties":{"087059D2743390F692C4":0,"name":"Həsənov Fərman","extrude":true}},
{"type":"Feature","id":"0B7A379F383390FBFF0A","geometry":{"type":"Point","coordinates":[46.40069244812006,39.38214929772586,1418.039131445176]},"properties":{"030CDEC08E3390FBFF3F":0,"name":"Ağayev Canbaxış","extrude":true}},
{"type":"Feature","id":"0A1B0DB9103390FC7FD3","geometry":{"type":"Point","coordinates":[46.40048605400287,39.38184017813416,1419.104211191819]},"properties":{"082104055F3390FC8007":0,"name":"Yusifov Sahib","extrude":true}},
{"type":"Feature","id":"07B8DE2F133390FCD23A","geometry":{"type":"Point","coordinates":[46.40040101687688,39.38169026868537,1419.732146477264]},"properties":{"0F09A865D43390FCD29F":0,"name":"Dadaşov Cənnət","extrude":true}},
{"type":"Feature","id":"09706D75473391059119","geometry":{"type":"Point","coordinates":[46.39948829119615,39.3828838786497,1430.19396506053]},"properties":{"04D04FD165339105914B":0,"name":"Şahbazov Əhməd","extrude":true}},
{"type":"Feature","id":"0A3788F19B339106189C","geometry":{"type":"Point","coordinates":[46.39998723426491,39.3826540793228,1427.234780643209]},"properties":{"019EE5928633910618CF":0,"name":"Adıgözəlov Hidayət","extrude":true}},
{"type":"Feature","id":"049D057645339106B1C6","geometry":{"type":"Point","coordinates":[46.40024940162831,39.38285318749763,1422.206861597875]},"properties":{"09DC8EEEBD339106B1F2":0,"name":"Quliyev İsa","extrude":true}},
{"type":"Feature","id":"09C9C17065339107A5A8","geometry":{"type":"Point","coordinates":[46.40073439788868,39.38269825682348,1418.286473847795]},"properties":{"01154FF930339107A5D2":0,"name":"İmanov Azad","extrude":true}},
{"type":"Feature","id":"09EFB5700033910809EE","geometry":{"type":"Point","coordinates":[46.40119175877528,39.38310441161597,1409.715165230162]},"properties":{"0994D879A03391080A5A":0,"name":"İmanov Bəbəş","extrude":true}},
{"type":"Feature","id":"0B0BF00E0433910FD274","geometry":{"type":"Point","coordinates":[46.40030271681533,39.38121776087719,1419.434197237872]},"properties":{"016FF9C61333910FD2A7":0,"name":"Quliyev Həsənqulu","extrude":true}},
{"type":"Feature","id":"02B6B7E94F339116F6FB","geometry":{"type":"Point","coordinates":[46.39859465326921,39.38110950141337,1441.958889952814]},"properties":{"072F296531339116F72E":0,"name":"Alverdiyev Əyyub","extrude":true}},
{"type":"Feature","id":"0D82420986339117BCCF","geometry":{"type":"Point","coordinates":[46.39817685630153,39.38125902621113,1449.048340799547]},"properties":{"052B453EEE339117BD05":0,"name":"Niftəliyev Bayram","extrude":true}},
{"type":"Feature","id":"01B99C23F4339118E81D","geometry":{"type":"Point","coordinates":[46.39804065690966,39.38094512182375,1448.701378800125]},"properties":{"0700996FC7339118E853":0,"name":"Ağayev İsa","extrude":true}},
{"type":"Feature","id":"08E53E43E133911B496E","geometry":{"type":"Point","coordinates":[46.3980614596698,39.38074047518015,1446.581315853339]},"properties":{"0FC2C96C6133911B499B":0,"name":"Kazımov Əziz","extrude":true}},
{"type":"Feature","id":"033EC9E7CB33911E68AF","geometry":{"type":"Point","coordinates":[46.39834114838357,39.38146120359282,1447.886347865221]},"properties":{"0E7596BAED33911E68E4":0,"name":"Quliyev Əsəd","extrude":true}},
{"type":"Feature","id":"0ACFB958D033911FFB58","geometry":{"type":"Point","coordinates":[46.39861092821051,39.3816308371869,1445.359636499596]},"properties":{"04FA05444233911FFB84":0,"name":"Şahbazov Əbdüləli","extrude":true}},
{"type":"Feature","id":"0B0258CD7F339121E9E4","geometry":{"type":"Point","coordinates":[46.39903635188779,39.38147319418531,1437.969086666275]},"properties":{"071986FDF8339121EA14":0,"name":"Məsiməliyev Hidayət","extrude":true}},
{"type":"Feature","id":"02555EF1D233912298DD","geometry":{"type":"Point","coordinates":[46.39899412824349,39.38187084724714,1441.146106495284]},"properties":{"07E98825043391229911":0,"name":"Şükürov Ülkar","extrude":true}},
{"type":"Feature","id":"0534844448339123EF03","geometry":{"type":"Point","coordinates":[46.39907458820063,39.38200249812817,1440.31252105462]},"properties":{"0B73F3FE4C339123EF37":0,"name":"Cabbarov İsmixan","extrude":true}},
{"type":"Feature","id":"08D952D8F83391246AA0","geometry":{"type":"Point","coordinates":[46.39896526005076,39.38197723951345,1441.919349487482]},"properties":{"0500B5D8763391246AD7":0,"name":"Həsənov Mədəd","extrude":true}},
{"type":"Feature","id":"0084AD555A33912643AC","geometry":{"type":"Point","coordinates":[46.39824915260294,39.3816734403924,1450.281936506319]},"properties":{"0161B3C6C433912643E2":0,"name":"Təndir","extrude":true}},
{"type":"Feature","id":"029022300D339126E5F0","geometry":{"type":"Point","coordinates":[46.39880881231795,39.38113850455656,1439.082173488085]},"properties":{"01D06E502B339126E62A":0,"name":"Təndir","extrude":true}},
{"type":"Feature","id":"020958871F3391279BCE","geometry":{"type":"Point","coordinates":[46.39816576483766,39.38187076755927,1452.157623047587]},"properties":{"06651E574D3391279C02":0,"name":"Anbar","extrude":true}},
{"type":"Feature","id":"0D5DCE1A7D339127F442","geometry":{"type":"Point","coordinates":[46.39790826113508,39.38195748426623,1454.117300875867]},"properties":{"0E5D72DE5A339127F46C":0,"name":"Dükan","extrude":true}},
{"type":"Feature","id":"0105FDEF093391288636","geometry":{"type":"Point","coordinates":[46.39774589374547,39.38223489109173,1452.622251560994]},"properties":{"02A00ECF42339128866C":0,"name":"Baytar məntəqəsi","extrude":true}},
{"type":"Feature","id":"0129C9D046339128E575","geometry":{"type":"Point","coordinates":[46.39794262473396,39.3822457842423,1452.332432041409]},"properties":{"0122034E6E339128E599":0,"name":"Kənd soveti","extrude":true}},
{"type":"Feature","id":"06BF432CDA33912986D4","geometry":{"type":"Point","coordinates":[46.39838951313579,39.38221487359544,1449.255074719733]},"properties":{"03922244233391298701":0,"name":"Həsənov Ələkbər","extrude":true}},
{"type":"Feature","id":"0EB658E0E2339129DB0C","geometry":{"type":"Point","coordinates":[46.39849645227621,39.3823163754133,1448.325994117964]},"properties":{"07D9D3A672339129DB3D":0,"name":"Həsənov Əsgər","extrude":true}},
{"type":"Feature","id":"0715E375F833912B42E7","geometry":{"type":"Point","coordinates":[46.39861024231605,39.38251048540992,1447.518583816177]},"properties":{"058DDA238233912B434B":0,"name":"Həsənov İmran","extrude":true}},
{"type":"Feature","id":"0037117E0F33912D9DE2","geometry":{"type":"Point","coordinates":[46.39897836259664,39.38243685640531,1442.635810767722]},"properties":{"03762598D233912D9E5D":0,"name":"Quliyev Bayram","extrude":true}},
{"type":"Feature","id":"03C8E0F50F33912F6BD1","geometry":{"type":"Point","coordinates":[46.397143376289,39.381610163316,1460.314180011622]},"properties":{"09FD4EF01533912F6C08":0,"name":"Adıgözəlov Umud","extrude":true}},
{"type":"Feature","id":"010C2C542C33912FE0FB","geometry":{"type":"Point","coordinates":[46.39686873187739,39.38163936485767,1462.273876078963]},"properties":{"0369B925EA33912FE133":0,"name":"Həsənov Əsgər","extrude":true}},
{"type":"Feature","id":"080D6244FF339136DAF7","geometry":{"type":"Point","coordinates":[46.3966568384033,39.38154998666468,1464.647801661667]},"properties":{"0EA1FFD7E7339136DB25":0,"name":"Məmmədov Tofiq","extrude":true}},
{"type":"Feature","id":"008F5444D63391373B7E","geometry":{"type":"Point","coordinates":[46.39654421921339,39.38158224668047,1464.781785813901]},"properties":{"0848FC4B7C3391373BB1":0,"name":"Quliyev Qulu","extrude":true}}
]}
