{"type":"FeatureCollection", "features":[
{"type":"Feature","id":"090C74113D30ACD5D09E","geometry":{"type":"Point","coordinates":[46.14348401159432,39.48424646955451,1404.003716459386]},"properties":{"0F89555B0E30ACD5D0AC":0,"name":"Tahirov Şəmil","extrude":true}},
{"type":"Feature","id":"0DEC0FD9B830ACC23A16","geometry":{"type":"Point","coordinates":[46.1395787918932,39.49285332299176,4.219474322632322E-303]},"properties":{"045BEB8D6D30ACC23A27":0,"name":"Urud","extrude":true}},
{"type":"Feature","id":"0CA54D084430ACC8B9AE","geometry":{"type":"Point","coordinates":[46.14148437315809,39.483622790631,1385.052863231661]},"properties":{"024470FFF830ACC8B9C2":0,"name":"Mirismayıl ağa ocağı","extrude":true}},
{"type":"Feature","id":"04D8AB927030ACD2064A","geometry":{"type":"Point","coordinates":[46.13984010067246,39.48687229773901,1362.962245523335]},"properties":{"0A1377804A30ACD2065C":0,"name":"İstisu","extrude":true}},
{"type":"Feature","id":"0445F9DEE030ACD4BE89","geometry":{"type":"Point","coordinates":[46.14054131950451,39.48751526766145,1365.579600575627]},"properties":{"0088847E8D30ACD4BE9D":0,"name":"Su dəyirmanı","extrude":true}},
{"type":"Feature","id":"09C5A4818030ACD792B9","geometry":{"type":"Point","coordinates":[46.14386434993656,39.48548533675991,1401.948565453638]},"properties":{"0D212B27F530ACD792C9":0,"name":"Gur-gur məhləsi","extrude":true}},
{"type":"Feature","id":"0276FABEDF30ACD6338E","geometry":{"type":"Point","coordinates":[46.14192667437929,39.48373838260884,1383.563443660042]},"properties":{"00D83998BC30ACD6339B":0,"name":"Əliş bağı","extrude":true}},
{"type":"Feature","id":"02C83FE00330ACD714D8","geometry":{"type":"Point","coordinates":[46.14393694505987,39.4852917517536,1406.969884558724]},"properties":{"0433C7488B30ACD714ED":0,"name":"Uzun qaya","extrude":true}},
{"type":"Feature","id":"08A31A989730ACDA7684","geometry":{"type":"Point","coordinates":[46.14404868709524,39.48581989865869,1402.761389849678]},"properties":{"03CF83961130ACDA7696":0,"name":"Quliyev Əlastan","extrude":true}},
{"type":"Feature","id":"0813C20F6C30ACDADDED","geometry":{"type":"Point","coordinates":[46.14412890895309,39.4859516649605,1403.247140438711]},"properties":{"0EE48D23B030ACDADDF9":0,"name":"Quliyev Surxay","extrude":true}},
{"type":"Feature","id":"0165C6F57E30ACDC0621","geometry":{"type":"Point","coordinates":[46.1449544770167,39.48647475045341,1418.122216050078]},"properties":{"007809B0FD30ACDC0633":0,"name":"Tahirov Çingiz","extrude":true}},
{"type":"Feature","id":"0F2B815B6130ACDC6B25","geometry":{"type":"Point","coordinates":[46.14454702747805,39.48670128016453,1405.685869190138]},"properties":{"0D98F46F0130ACDC6B32":0,"name":"Əkbərov Əsgər","extrude":true}},
{"type":"Feature","id":"0A99C9382C30ACDD5B67","geometry":{"type":"Point","coordinates":[46.14468280004019,39.48709491509197,1405.101125054121]},"properties":{"002C02595630ACDD5B73":0,"name":"Musayev Tapdıq","extrude":true}},
{"type":"Feature","id":"01E3A3DE9C30ACDE0B14","geometry":{"type":"Point","coordinates":[46.14580789892375,39.48979575010777,1456.219999982597]},"properties":{"0E7B21F4D930ACDE0B20":0,"name":"Şirvan əkən","extrude":true}},
{"type":"Feature","id":"04A219E12530ACE0A3AA","geometry":{"type":"Point","coordinates":[46.14212421865711,39.48917549544989,1391.580079222223]},"properties":{"0F2EF81E9730ACE0A3B8":0,"name":"Tahitov Həmzə","extrude":true}},
{"type":"Feature","id":"0DF76E690430ACE118F9","geometry":{"type":"Point","coordinates":[46.14159699586934,39.48848394388965,1382.942908705933]},"properties":{"0437E82F3430ACE11909":0,"name":"Qalaça","extrude":true}},
{"type":"Feature","id":"017EF5F78B30ACE1FB3D","geometry":{"type":"Point","coordinates":[46.14242778495611,39.48993105713195,1401.119307372912]},"properties":{"06383B16CA30ACE1FB4A":0,"name":"Kəhriz","extrude":true}},
{"type":"Feature","id":"0A1B6339A130ACE2A6F9","geometry":{"type":"Point","coordinates":[46.14096994521778,39.4901041343808,1400.02828145248]},"properties":{"0DF6AB490E30ACE2A708":0,"name":"Klub","extrude":true}},
{"type":"Feature","id":"096B0DF2E130ACE30EC2","geometry":{"type":"Point","coordinates":[46.14151688171061,39.48992172863742,1399.134367746616]},"properties":{"0DD0EB70F330ACE30ED2":0,"name":"Anbar","extrude":true}},
{"type":"Feature","id":"0E34F33B3430ACE36E57","geometry":{"type":"Point","coordinates":[46.14104471915702,39.48964973010902,1393.062283086854]},"properties":{"067DC1DD7530ACE36E68":0,"name":"Mağaza","extrude":true}},
{"type":"Feature","id":"0F3DBABF6030ACE4D974","geometry":{"type":"Point","coordinates":[46.13771705842843,39.49002507866573,1441.648051559032]},"properties":{"06EF82769A30ACE4D987":0,"name":"Vəli qayası","extrude":true}},
{"type":"Feature","id":"0A1FFBF5CE30ACE592D7","geometry":{"type":"Point","coordinates":[46.1406022062945,39.49623459156236,1487.413266388156]},"properties":{"028342C29630ACE592E7":0,"name":"Qara güney","extrude":true}},
{"type":"Feature","id":"0B93BE707030ACE60125","geometry":{"type":"Point","coordinates":[46.13765924261565,39.4970936525183,1515.933391240271]},"properties":{"043DCDDAEC30ACE60134":0,"name":"İlan qayası","extrude":true}},
{"type":"Feature","id":"03BA114B2730ACF7DE20","geometry":{"type":"Point","coordinates":[46.15154992763996,39.49435304057496,1646.641090300227]},"properties":{"031B6D769530ACF7DE32":0,"name":"Gıı dərəsi","extrude":true}},
{"type":"Feature","id":"07C96161A530ACF9D2D6","geometry":{"type":"Point","coordinates":[46.15240286137631,39.52875849946368,2049.009387666617]},"properties":{"0A8B45CADF30ACF9D2E7":0,"name":"Gorus-İrəvan yolu","extrude":true}},
{"type":"Feature","id":"073CB6E7B130ACFB9C6D","geometry":{"type":"Point","coordinates":[46.18432209214104,39.50197352547339,2154.286358752306]},"properties":{"0A56B53EE930ACFB9C7D":0,"name":"Yan təpə","extrude":true}},
{"type":"Feature","id":"0B8F85D55F30ACFEB38D","geometry":{"type":"Point","coordinates":[46.21166603264587,39.58403569572902,2788.821610132934]},"properties":{"00BE1B3F9030ACFEB39D":0,"name":"Nəbi səngəri","extrude":true}},
{"type":"Feature","id":"0E65CFA54830AD0640B7","geometry":{"type":"Point","coordinates":[46.18824513289585,39.51542306814118,2264.167053802348]},"properties":{"0F85505A4830AD0640FD":0,"name":"Palan tökülən","extrude":true}},
{"type":"Feature","id":"07F26DAB5830AD07AC2D","geometry":{"type":"Point","coordinates":[46.14464677967619,39.48689018962862,1405.604856906504]},"properties":{"046944FBB630AD07AC46":0,"name":"Səlim Orucov","extrude":true}},
{"type":"Feature","id":"08B7B5818F30AD083739","geometry":{"type":"Point","coordinates":[46.14475514585411,39.48767697027599,1403.990291803991]},"properties":{"0CEC19B2E030AD08374E":0,"name":"Musa Hüseynov","extrude":true}},
{"type":"Feature","id":"090D15618730AD093028","geometry":{"type":"Point","coordinates":[46.14541957177072,39.48960683982194,1441.123145890257]},"properties":{"0D99549DB330AD09303D":0,"name":"Vəli Əzimov","extrude":true}},
{"type":"Feature","id":"0BDF582E9030AD099BB9","geometry":{"type":"Point","coordinates":[46.14539783023288,39.48975227933195,1442.905952197058]},"properties":{"04858F04B930AD099BC6":0,"name":"Əzimov Əbil","extrude":true}},
{"type":"Feature","id":"05D51761C430AD0A5042","geometry":{"type":"Point","coordinates":[46.14475286322844,39.48843009443375,1406.558062029416]},"properties":{"051CE0FA1530AD0A5052":0,"name":"Qasımov Vəli","extrude":true}},
{"type":"Feature","id":"0C61F18ED730AD0BB0E8","geometry":{"type":"Point","coordinates":[46.14464940499142,39.48870790437205,1406.02946827607]},"properties":{"042158F60630AD0BB0F9":0,"name":"Qasımov Telman","extrude":true}},
{"type":"Feature","id":"0FB313B39A30AD0C2C93","geometry":{"type":"Point","coordinates":[46.14462002289926,39.48899757271964,1407.931903385357]},"properties":{"00741DBBBE30AD0C2CA6":0,"name":"Bayramov Səməd","extrude":true}},
{"type":"Feature","id":"09D57A2AE030AD0C97F9","geometry":{"type":"Point","coordinates":[46.1444996536511,39.48927740001845,1410.665417158541]},"properties":{"04241EFCEB30AD0C980A":0,"name":"Quliyev Sahib","extrude":true}},
{"type":"Feature","id":"0436B3D61330AD0CF56B","geometry":{"type":"Point","coordinates":[46.14476660790186,39.48933299766256,1417.876758738597]},"properties":{"0C625EA1A830AD0CF57F":0,"name":"Tahirov Muradxan","extrude":true}},
{"type":"Feature","id":"023024C4C230AD0DCD7D","geometry":{"type":"Point","coordinates":[46.14406217855736,39.48977513896996,1411.251640033602]},"properties":{"0FDF8F614730AD0DCD8C":0,"name":"Şəmistan Gəncəliyev","extrude":true}},
{"type":"Feature","id":"0742900AA330AD0E51E2","geometry":{"type":"Point","coordinates":[46.14366993523894,39.48996629012341,1409.855197974747]},"properties":{"00680D717C30AD0E51F3":0,"name":"Məhərromov Alış","extrude":true}},
{"type":"Feature","id":"08C342016A30AD0FB1AE","geometry":{"type":"Point","coordinates":[46.1437137634219,39.49033332301786,1416.846947234684]},"properties":{"0536743FB230AD0FB1BE":0,"name":"Abdullayev İsrafil","extrude":true}},
{"type":"Feature","id":"031FEC9EF330AD104478","geometry":{"type":"Point","coordinates":[46.14337262814116,39.4901495634706,1409.903297023279]},"properties":{"089B3A288E30AD10448B":0,"name":"Əkbərov Əkbər","extrude":true}},
{"type":"Feature","id":"030FFA905E30AD10CB3E","geometry":{"type":"Point","coordinates":[46.14298705949199,39.49015804394264,1407.133143928724]},"properties":{"05D6493B1E30AD10CB52":0,"name":"Həsənov Təmleyxa","extrude":true}},
{"type":"Feature","id":"00265230D730AD11ED14","geometry":{"type":"Point","coordinates":[46.14234787686834,39.4902216028817,1404.849158612916]},"properties":{"098E4D005730AD11ED25":0,"name":"İsmayılov Ağaqulu","extrude":true}},
{"type":"Feature","id":"03FB0AE54830AD125E1E","geometry":{"type":"Point","coordinates":[46.1420542934508,39.49025431013429,1405.066930557819]},"properties":{"0EF09CA2C530AD125E34":0,"name":"Nəriman İsmayılov","extrude":true}},
{"type":"Feature","id":"028CAB949630AD12FF09","geometry":{"type":"Point","coordinates":[46.1423069795333,39.48998643237698,1401.720051649149]},"properties":{"0DEDC7AE9330AD12FF1C":0,"name":"Nübar","extrude":true}},
{"type":"Feature","id":"0B48EE4F3A30AD1394CA","geometry":{"type":"Point","coordinates":[46.14186033165762,39.49006254748375,1402.016481786749]},"properties":{"06F9F86FCE30AD1394DB":0,"name":"Göyüş","extrude":true}},
{"type":"Feature","id":"008FD7212130AD140C34","geometry":{"type":"Point","coordinates":[46.14162689311082,39.49027646754794,1404.489499306647]},"properties":{"050C4D26BE30AD140C45":0,"name":"Quliyev Famil","extrude":true}},
{"type":"Feature","id":"099898AEBF30AD14CC29","geometry":{"type":"Point","coordinates":[46.14194560723885,39.49070713380036,1411.786393761642]},"properties":{"008B9A554630AD14CC35":0,"name":"Tahirov Əsədulla","extrude":true}},
{"type":"Feature","id":"0C5E92EAAC30AD15E169","geometry":{"type":"Point","coordinates":[46.14150253116608,39.4905536412119,1409.022785338436]},"properties":{"02A815140A30AD15E17B":0,"name":"Yadigar Hüseynov","extrude":true}},
{"type":"Feature","id":"04DEE150A830AD18FF62","geometry":{"type":"Point","coordinates":[46.14058069072092,39.4905093683664,1405.860275675466]},"properties":{"03153E098B30AD18FF73":0,"name":"Miriş Seyidov","extrude":true}},
{"type":"Feature","id":"022E4388D130AD19EE00","geometry":{"type":"Point","coordinates":[46.14128986034345,39.49092315360613,1415.671931001933]},"properties":{"0E1C970EF130AD19EE10":0,"name":"Tahirov Rəfi","extrude":true}},
{"type":"Feature","id":"0C6CDA6ED330AD1AC10B","geometry":{"type":"Point","coordinates":[46.1409986228273,39.49088118708891,1414.767258778997]},"properties":{"061F87C3F830AD1AC11D":0,"name":"Mehdiyev Əbilfəz","extrude":true}},
{"type":"Feature","id":"085ECD421930AD1BA76F","geometry":{"type":"Point","coordinates":[46.14080759758782,39.49082497201678,1413.446850133177]},"properties":{"064DFEC94030AD1BA77F":0,"name":"Tahirov İsmayıl","extrude":true}},
{"type":"Feature","id":"01E2FB7F1B30AD1C692A","geometry":{"type":"Point","coordinates":[46.1407568998612,39.49143887031563,1430.079617772863]},"properties":{"000928E61D30AD1C6939":0,"name":"Əli Kətanov","extrude":true}},
{"type":"Feature","id":"090681EC9730AD1D4458","geometry":{"type":"Point","coordinates":[46.14088447564988,39.49073845742495,1411.61648715404]},"properties":{"0F0397276A30AD1D4468":0,"name":"Hüseyn Tahirov","extrude":true}},
{"type":"Feature","id":"0B9FC66D1A30AD1DA7DE","geometry":{"type":"Point","coordinates":[46.14054516454934,39.49083396472678,1413.356996360712]},"properties":{"06B172474730AD1DA7F3":0,"name":"Yusub Quliyev","extrude":true}},
{"type":"Feature","id":"0CC42FE2D930AD21AC78","geometry":{"type":"Point","coordinates":[46.13810753489113,39.49178038115933,1443.749662361188]},"properties":{"090FFE88FE30AD21AC88":0,"name":"Şirinov Məhəmməd","extrude":true}},
{"type":"Feature","id":"0E36AB203830AD22B64C","geometry":{"type":"Point","coordinates":[46.13751624038855,39.49219751303534,1454.884355446207]},"properties":{"051406F05430AD22B65C":0,"name":"Cəfərov Cəmil","extrude":true}},
{"type":"Feature","id":"062C3F7B9330AD24FA3E","geometry":{"type":"Point","coordinates":[46.14141712030671,39.49158958894051,1431.441127194516]},"properties":{"0CE582FC3A30AD24FA51":0,"name":"Quliyev Fətulla","extrude":true}},
{"type":"Feature","id":"01C5E1230130AD25A5D9","geometry":{"type":"Point","coordinates":[46.14280754307873,39.49061519184293,1412.424126204473]},"properties":{"0C7EF0478D30AD25A5E9":0,"name":"Zakir Quliyev","extrude":true}},
{"type":"Feature","id":"0A23A1D84730AD27AC41","geometry":{"type":"Point","coordinates":[46.14358495506033,39.49058845516868,1419.281321149456]},"properties":{"05B717D95030AD27AC50":0,"name":"Bahadur Tahirov","extrude":true}},
{"type":"Feature","id":"06CC8A396830AD2AFEDF","geometry":{"type":"Point","coordinates":[46.14441098816101,39.49109293394081,1440.494867463452]},"properties":{"0595059A9330AD2AFEF1":0,"name":"Ağayev Ağasən","extrude":true}},
{"type":"Feature","id":"03FFC2788430AD2BBAB4","geometry":{"type":"Point","coordinates":[46.14436601669933,39.49118880393106,1440.423072022968]},"properties":{"0ABE266C8E30AD2BBAC6":0,"name":"Nəcəfov İsmayıl","extrude":true}},
{"type":"Feature","id":"05852E332630AD2D3C5F","geometry":{"type":"Point","coordinates":[46.14387053520456,39.49102491030177,1428.794506238502]},"properties":{"075B68C6B030AD2D3C6D":0,"name":"Həsənov Ağasən","extrude":true}},
{"type":"Feature","id":"088708177930AD2DCED9","geometry":{"type":"Point","coordinates":[46.14370514756901,39.49128306897267,1430.277491450224]},"properties":{"054A3723D430AD2DCEE8":0,"name":"Həsənov Müseyib","extrude":true}},
{"type":"Feature","id":"0B65CC486230AD30B5C8","geometry":{"type":"Point","coordinates":[46.14415966364966,39.49173880952115,1442.426482335691]},"properties":{"036BD0E2FC30AD30B5D6":0,"name":"Bayramov Dursun","extrude":true}},
{"type":"Feature","id":"08D97A854E30AD31CB0C","geometry":{"type":"Point","coordinates":[46.14447364097906,39.49150698854796,1445.547079540018]},"properties":{"093B7F69F230AD31CB1D":0,"name":"Qara qaya","extrude":true}},
{"type":"Feature","id":"05BA66583E30AD36C9E0","geometry":{"type":"Point","coordinates":[46.14308463422928,39.4935264677634,1464.546153341645]},"properties":{"09501A8B0230AD36C9EE":0,"name":"Kəhriz","extrude":true}},
{"type":"Feature","id":"00C124BA0330AD38C4CB","geometry":{"type":"Point","coordinates":[46.14288845166585,39.49287475312256,1452.72508464622]},"properties":{"0CB8F1BAA030AD38C4E0":0,"name":"Rafiq Şahverənov","extrude":true}},
{"type":"Feature","id":"0E8CCC8D3D30AD3999A5","geometry":{"type":"Point","coordinates":[46.14291243530182,39.49311703934242,1457.184198021331]},"properties":{"00EF11764330AD3999B4":0,"name":"Tofiq Şahverənov","extrude":true}},
{"type":"Feature","id":"064098557430AD3C9CDD","geometry":{"type":"Point","coordinates":[46.14265645276094,39.49124728348171,1420.680064384324]},"properties":{"08E549F73130AD3C9CED":0,"name":"Fazil Quliyev","extrude":true}},
{"type":"Feature","id":"0F2115DD3F30ADC355C7","geometry":{"type":"Point","coordinates":[46.14874247075375,39.50393497459659,1965.025725200892]},"properties":{"0A4AE5AAE230ADC355ED":0,"name":"Baydar başı","extrude":true}},
{"type":"Feature","id":"01954E103F30ADC5D49E","geometry":{"type":"Point","coordinates":[46.141584559968,39.48344437012338,1387.1519277247]},"properties":{"0869F720C630ADC5D4B1":0,"name":"Qəbirstanlıq","extrude":true}},
{"type":"Feature","id":"0FD2904EE830BB852F61","geometry":{"type":"Point","coordinates":[46.09417178837919,39.4913325892684,1774.397532969173]},"properties":{"0C7EC33D8E30BB852F79":0,"name":"Gen dərə","extrude":true}},
{"type":"Feature","id":"0EA551F40130BB860F69","geometry":{"type":"Point","coordinates":[46.10502114526948,39.49333908192818,1679.893757063516]},"properties":{"031E4CC80D30BB860F81":0,"name":"Armudlu dərə-bulaq","extrude":true}},
{"type":"Feature","id":"04EAFAC12930BB8703D9","geometry":{"type":"Point","coordinates":[46.11187644810262,39.49339551703329,1657.556108391659]},"properties":{"07A0D0BAB130BB8703F2":0,"name":"Əriştəlik","extrude":true}},
{"type":"Feature","id":"0AD16C880930BB89E2C8","geometry":{"type":"Point","coordinates":[46.10951695893367,39.49138631982429,1794.937021048905]},"properties":{"03710FC5BC30BB89E2E1":0,"name":"Əriştəli bulaq","extrude":true}},
{"type":"Feature","id":"06DC55120530BB8AA0A1","geometry":{"type":"Point","coordinates":[46.10408273308968,39.48174026782305,2008.912383130365]},"properties":{"0B333B973730BB8AA0B5":0,"name":"Təəzzür dağı","extrude":true}},
{"type":"Feature","id":"0A96C0A9D930BB8B28FC","geometry":{"type":"Point","coordinates":[46.11064961629881,39.48471976277009,1760.896792914093]},"properties":{"062602BE6630BB8B290B":0,"name":"Dəvlət çedi","extrude":true}},
{"type":"Feature","id":"06A1B9BBFB30BB8C7F7F","geometry":{"type":"Point","coordinates":[46.11314720696343,39.48348516399235,1698.455632846772]},"properties":{"03E2B7031530BB8C7F95":0,"name":"Şırlan bulaq","extrude":true}},
{"type":"Feature","id":"0A2C7F62BB30BB8D29E6","geometry":{"type":"Point","coordinates":[46.11556321925988,39.4831376305848,1684.56388181137]},"properties":{"0551D26EF430BB8D29F6":0,"name":"Pambıqlı","extrude":true}},
{"type":"Feature","id":"0A8A1ABF5730BB8DBB12","geometry":{"type":"Point","coordinates":[46.11813280466883,39.48812076455091,1623.910853680065]},"properties":{"09A6CD74A730BB8DBB29":0,"name":"Sarı güney","extrude":true}},
{"type":"Feature","id":"03EE1A404D30BB8F492B","geometry":{"type":"Point","coordinates":[46.12122028944104,39.48909759660466,1506.85935063667]},"properties":{"0AC71F0DEE30BB8F493E":0,"name":"Sarı güneyin kahası","extrude":true}},
{"type":"Feature","id":"0802B969CD30BB901E25","geometry":{"type":"Point","coordinates":[46.12238565847701,39.4898573954132,1457.591010578995]},"properties":{"0EAF246D7D30BB901E39":0,"name":"Çömçə yer","extrude":true}},
{"type":"Feature","id":"05E4A767EF30BB912D6F","geometry":{"type":"Point","coordinates":[46.1268100212753,39.48871942419188,1387.141128295998]},"properties":{"02D7A1BEC530BB912D82":0,"name":"Şam-Darabas yolu","extrude":true}},
{"type":"Feature","id":"00F30E714E30BB91B788","geometry":{"type":"Point","coordinates":[46.1247202739715,39.49075874221855,1399.075912922924]},"properties":{"067A2248E430BB91B79C":0,"name":"Mirəhməd","extrude":true}},
{"type":"Feature","id":"0F38ADED8830BB92E621","geometry":{"type":"Point","coordinates":[46.12615549118259,39.49226780079426,1388.817449966296]},"properties":{"0EFBE83E5030BB92E632":0,"name":"Baldırğanlı bulaq","extrude":true}},
{"type":"Feature","id":"025CB13D1C30BB9376D1","geometry":{"type":"Point","coordinates":[46.12394260596263,39.49485744435733,1407.083379778197]},"properties":{"0787B5F7C330BB9376E3":0,"name":"Şamdalı","extrude":true}},
{"type":"Feature","id":"0B3849BB2730BB93F5AC","geometry":{"type":"Point","coordinates":[46.11763632444528,39.49726725457904,1406.428076406345]},"properties":{"0D7C8C739E30BB93F5BD":0,"name":"Alıhüseyn adası","extrude":true}},
{"type":"Feature","id":"03DBF222FF30BB95015C","geometry":{"type":"Point","coordinates":[46.1300913256084,39.48455610096362,1462.931291155895]},"properties":{"0C578AA71130BB95016C":0,"name":"Taxtalar","extrude":true}},
{"type":"Feature","id":"0B169154EC30BB9572A1","geometry":{"type":"Point","coordinates":[46.13145481882484,39.4819808838434,1409.717747631203]},"properties":{"08214A0E6430BB9572B1":0,"name":"Xəşdər","extrude":true}},
{"type":"Feature","id":"0AB32AD09C30BB95E99D","geometry":{"type":"Point","coordinates":[46.12896903187941,39.48004807905074,1449.369398804336]},"properties":{"005DDFB44330BB95E9B1":0,"name":"Pambıqlı","extrude":true}},
{"type":"Feature","id":"0A93519C2830BB967C07","geometry":{"type":"Point","coordinates":[46.13247367703466,39.47954915570973,1352.700112903688]},"properties":{"0ADEE1EE6930BB967C18":0,"name":"Ərikli","extrude":true}},
{"type":"Feature","id":"0B279E242C30BB972220","geometry":{"type":"Point","coordinates":[46.13058417597286,39.47316832045051,1351.354681436406]},"properties":{"0DE406D08330BB972231":0,"name":"Su elektrik stansiyası","extrude":true}},
{"type":"Feature","id":"0F510CE74F30BB9941AB","geometry":{"type":"Point","coordinates":[46.13871139679222,39.48462710109791,1392.155140988255]},"properties":{"0C4DE0909F30BB9941C1":0,"name":"Babək qalası","extrude":true}},
{"type":"Feature","id":"04DED5B38230BB9A0455","geometry":{"type":"Point","coordinates":[46.13438070324553,39.48372214441922,1357.228085237407]},"properties":{"0AA59E529330BB9A0467":0,"name":"Qəz damı","extrude":true}},
{"type":"Feature","id":"03E1D2F37230BB9AA390","geometry":{"type":"Point","coordinates":[46.13861185418346,39.48320974752578,1383.080965800663]},"properties":{"057BFEDD2230BB9AA3A2":0,"name":"Dəvə batan","extrude":true}},
{"type":"Feature","id":"0DAF59235F30BB9B3BD7","geometry":{"type":"Point","coordinates":[46.13888792901798,39.48402647481625,1385.562155984849]},"properties":{"078915737E30BB9B3BEC":0,"name":"Şam yolu","extrude":true}},
{"type":"Feature","id":"05B42C858930BB9B7AAC","geometry":{"type":"Point","coordinates":[46.13936532949662,39.48410318073839,1383.225820210215]},"properties":{"0601A0F45B30BB9B7ABF":0,"name":"Qədim körpü","extrude":true}},
{"type":"Feature","id":"023F55A7A930BB9BEC5A","geometry":{"type":"Point","coordinates":[46.13954160247486,39.48427273373387,1380.822741162874]},"properties":{"0B2282904130BB9BEC6A":0,"name":"Boz qaya","extrude":true}},
{"type":"Feature","id":"0B3653999D30BB9CC04A","geometry":{"type":"Point","coordinates":[46.13959566197556,39.4841616051534,1381.944025409562]},"properties":{"00CDA6C5FE30BB9CC05A":0,"name":"Ələddinin bostanı","extrude":true}},
{"type":"Feature","id":"035205826530BB9D77A1","geometry":{"type":"Point","coordinates":[46.13977023842717,39.48389458454976,1383.72207845389]},"properties":{"01239866F930BB9D77B2":0,"name":"Bədir qayası","extrude":true}},
{"type":"Feature","id":"0AEB09C8DF30BBA09DFC","geometry":{"type":"Point","coordinates":[46.14053636099541,39.48203735754401,1414.069838933568]},"properties":{"001E7DBBE130BBA09E14":0,"name":"Meydanların almalığı","extrude":true}},
{"type":"Feature","id":"069E1E982130BBA1ACE0","geometry":{"type":"Point","coordinates":[46.13981199724257,39.47905347121183,1419.334060141466]},"properties":{"06C85FACCF30BBA1ACF5":0,"name":"Aşağı meydanlar","extrude":true}},
{"type":"Feature","id":"0F31FA37E730BBA24137","geometry":{"type":"Point","coordinates":[46.13709900086094,39.47939926246779,1407.333589602387]},"properties":{"0DE7D1806730BBA2414A":0,"name":"Sarıdığa yeri","extrude":true}},
{"type":"Feature","id":"05832BBCF730BBA342D6","geometry":{"type":"Point","coordinates":[46.13470017209976,39.47971138165407,1360.331896263448]},"properties":{"08F8391B1330BBA342E3":0,"name":"Gəncəli adası","extrude":true}},
{"type":"Feature","id":"0AF01424B230BBA3A191","geometry":{"type":"Point","coordinates":[46.13489457054391,39.48205321559796,1357.71833707213]},"properties":{"024A3B65BC30BBA3A1A7":0,"name":"Gəncəli adası","extrude":true}},
{"type":"Feature","id":"0849E7E48E30BBA4862C","geometry":{"type":"Point","coordinates":[46.1399993514023,39.4733988131286,1439.998572328576]},"properties":{"0A9B1629E530BBA4863D":0,"name":"Yuxarı meydanlar","extrude":true}},
{"type":"Feature","id":"04A116E7A430BBA8D358","geometry":{"type":"Point","coordinates":[46.13827318727482,39.48735248584705,1372.851210490718]},"properties":{"0E720AAE3B30BBA8D36C":0,"name":"Bal bağı","extrude":true}},
{"type":"Feature","id":"019618E73130BBA9B7DE","geometry":{"type":"Point","coordinates":[46.13073455033515,39.48753394050913,1378.406199312728]},"properties":{"09A657D95330BBA9B7F6":0,"name":"Otay","extrude":true}},
{"type":"Feature","id":"043A6FBF5E30BBAB066A","geometry":{"type":"Point","coordinates":[46.1276227606468,39.49041979151116,1380.448197707042]},"properties":{"0080C2EB4F30BBAB0678":0,"name":"Yuxarı Qəz bağı","extrude":true}},
{"type":"Feature","id":"0BC4F6A06B30BBAB7D42","geometry":{"type":"Point","coordinates":[46.13259884925922,39.48825092446352,1373.046678552819]},"properties":{"0DBB37322C30BBAB7D58":0,"name":"Aşağı Qəz bağı","extrude":true}},
{"type":"Feature","id":"010816248330BBACD382","geometry":{"type":"Point","coordinates":[46.14080222909313,39.48680708143613,1363.111512805492]},"properties":{"02CAEE0A2F30BBACD396":0,"name":"Tipain tövləsi","extrude":true}},
{"type":"Feature","id":"0DFB8E6A6130BBAD4D3C","geometry":{"type":"Point","coordinates":[46.13841268543579,39.48854436643265,1380.013653566237]},"properties":{"0870510EBE30BBAD4D4A":0,"name":"Yadullah Cavadov","extrude":true}},
{"type":"Feature","id":"056CB0827F30BBADE093","geometry":{"type":"Point","coordinates":[46.13862740650453,39.48879367291986,1386.304346741622]},"properties":{"01CFBD95DF30BBADE0A6":0,"name":"Kərimov Məhəmməd","extrude":true}},
{"type":"Feature","id":"0F418FA49230BBAEC5EB","geometry":{"type":"Point","coordinates":[46.13857078842489,39.49063667190038,1424.255558915385]},"properties":{"0B02A5886F30BBAEC5FE":0,"name":"Süleymanov Rəhim","extrude":true}},
{"type":"Feature","id":"02BBBD2AC730BBAF4FC2","geometry":{"type":"Point","coordinates":[46.13908003433041,39.49028013413368,1410.242655901517]},"properties":{"0DE3A30CE630BBAF4FD1":0,"name":"Tahirov Bəşir","extrude":true}},
{"type":"Feature","id":"02B48CCA9E30BBAF9CAA","geometry":{"type":"Point","coordinates":[46.13905955527454,39.49013974172453,1408.219105049983]},"properties":{"08F69CBE9830BBAF9CBB":0,"name":"Quliyev Sabir","extrude":true}},
{"type":"Feature","id":"05C289CCC530BBAFFBDB","geometry":{"type":"Point","coordinates":[46.13901081429871,39.48969303387338,1401.980833869365]},"properties":{"0BB8C1185730BBAFFBEF":0,"name":"Novruzov İbrahim","extrude":true}},
{"type":"Feature","id":"0CA40CD17530BBB150B9","geometry":{"type":"Point","coordinates":[46.13895837435534,39.48951396146273,1399.122710878299]},"properties":{"0D2DEE20E330BBB150CB":0,"name":"Həsənov Eyvaz","extrude":true}},
{"type":"Feature","id":"0B69E0267830BBB1F720","geometry":{"type":"Point","coordinates":[46.13899781677215,39.48934643734861,1394.293623057534]},"properties":{"046AE7431B30BBB1F731":0,"name":"İsmayılov Süleyman","extrude":true}},
{"type":"Feature","id":"02837D02FE30BBB2569C","geometry":{"type":"Point","coordinates":[46.13917101082145,39.48945227510639,1393.086169443451]},"properties":{"094D8CFBBF30BBB256B1":0,"name":"Vəliyev Fərrux","extrude":true}},
{"type":"Feature","id":"0FEDA2AE9F30BBB2CF6E","geometry":{"type":"Point","coordinates":[46.139302491544,39.48899969258949,1383.069354390658]},"properties":{"0244D5272630BBB2CF7C":0,"name":"Quliyev Fərrux","extrude":true}},
{"type":"Feature","id":"0CCA7D477C30BBB33692","geometry":{"type":"Point","coordinates":[46.13946179111539,39.48914770643354,1385.249720973616]},"properties":{"065BBD691430BBB336A1":0,"name":"Quliyev Məcid","extrude":true}},
{"type":"Feature","id":"04F167481430BBB41DE3","geometry":{"type":"Point","coordinates":[46.14043850179115,39.48781946256284,1368.808872519935]},"properties":{"04F59AE71830BBB41DF9":0,"name":"Mehdiyev Bayram","extrude":true}},
{"type":"Feature","id":"012D9FF77730BBB6456F","geometry":{"type":"Point","coordinates":[46.14212833667226,39.48753662609205,1374.42318894004]},"properties":{"0788C8EB5E30BBB6457E":0,"name":"Cavadov Vidadi","extrude":true}},
{"type":"Feature","id":"0DB1B334A030BBB6CEB9","geometry":{"type":"Point","coordinates":[46.14170494818335,39.48801294156411,1377.913999975409]},"properties":{"04F0F6F97A30BBB6CECA":0,"name":"Məmmədov Oqtay","extrude":true}},
{"type":"Feature","id":"0F5F7427CE30BBB749C1","geometry":{"type":"Point","coordinates":[46.14260387969106,39.48819070250489,1381.204711842508]},"properties":{"052526C87030BBB749D5":0,"name":"Hamam bulağı","extrude":true}},
{"type":"Feature","id":"0C6BAB4F8E30BBB92A82","geometry":{"type":"Point","coordinates":[46.14169612406509,39.50012193712429,1654.900230924341]},"properties":{"0F6295579930BBB92A97":0,"name":"Ağ yastan","extrude":true}},
{"type":"Feature","id":"07922A4F1630BBBAD619","geometry":{"type":"Point","coordinates":[46.15207000652475,39.5010237941927,1872.086983399667]},"properties":{"051DEDEF0730BBBAD62C":0,"name":"Baydar kahası","extrude":true}},
{"type":"Feature","id":"067BDE42EC30BBBBBD59","geometry":{"type":"Point","coordinates":[46.15355422330722,39.49659079980331,1806.957414422309]},"properties":{"0F0476C2AD30BBBBBD73":0,"name":"Ağzıaçığın kahası","extrude":true}},
{"type":"Feature","id":"064391418830BBBCBFBB","geometry":{"type":"Point","coordinates":[46.15028303027432,39.5010407458898,1860.471329095573]},"properties":{"061FD9D2C930BBBCBFCE":0,"name":"Keçilik kahası","extrude":true}},
{"type":"Feature","id":"0A25FBBE7E30BBBD91C4","geometry":{"type":"Point","coordinates":[46.14361872178137,39.50538065245277,1948.433674228874]},"properties":{"06C012A13330BBBD91D6":0,"name":"Seltökülən","extrude":true}},
{"type":"Feature","id":"087B11989730BBBEB2EE","geometry":{"type":"Point","coordinates":[46.15875521527457,39.49227440256786,1841.624179499406]},"properties":{"0D1BF4A47630BBBEB2FE":0,"name":"Dəriz yolu","extrude":true}},
{"type":"Feature","id":"05A1905C3930BBC0DF94","geometry":{"type":"Point","coordinates":[46.1611919637861,39.49020445293056,1915.244395373368]},"properties":{"0BA61177CB30BBC0DFA6":0,"name":"Kalafalıq","extrude":true}},
{"type":"Feature","id":"05D1773EE930BBC26B7B","geometry":{"type":"Point","coordinates":[46.14819489002254,39.49543836324818,1611.512049244546]},"properties":{"033532C49430BBC26B92":0,"name":"Çadır daş","extrude":true}},
{"type":"Feature","id":"0466E4CDDF30BBC33F65","geometry":{"type":"Point","coordinates":[46.14964061274249,39.49453592184242,1606.941321741889]},"properties":{"057E1CF2A830BBC33F79":0,"name":"Təndir torpağı","extrude":true}},
{"type":"Feature","id":"0CC8748B2230BBC3E9BB","geometry":{"type":"Point","coordinates":[46.15514481604061,39.49964869383781,1885.036773339388]},"properties":{"05DEF69F7F30BBC3E9CE":0,"name":"Qırağın başı","extrude":true}},
{"type":"Feature","id":"0733AA5E3530BBC47BB6","geometry":{"type":"Point","coordinates":[46.17516746341781,39.50806435599468,2072.833856488002]},"properties":{"0BC220F9E530BBC47BCE":0,"name":"Çaylaq","extrude":true}},
{"type":"Feature","id":"0084FE14EA30BBC648B4","geometry":{"type":"Point","coordinates":[46.17298554766455,39.50131805459117,2021.303586504427]},"properties":{"0FCF2B181230BBC648CC":0,"name":"Yan təpənin döşü","extrude":true}},
{"type":"Feature","id":"0FFAE4AAD130BBC732BD","geometry":{"type":"Point","coordinates":[46.18536113943522,39.4961214562562,2125.600237448664]},"properties":{"02FF37D2B430BBC732D8":0,"name":"Dərə yeri","extrude":true}},
{"type":"Feature","id":"01B5A8844B30BBC7B7EF","geometry":{"type":"Point","coordinates":[46.19150160200017,39.49122897844401,2102.780252492611]},"properties":{"014A67B33B30BBC7B804":0,"name":"Kalbayı Nəsib dərəsi","extrude":true}},
{"type":"Feature","id":"006E23C72D30BBC887DF","geometry":{"type":"Point","coordinates":[46.19138575752807,39.50711921952746,2193.979634404108]},"properties":{"0640655C8B30BBC887F6":0,"name":"Bitli bulaq","extrude":true}},
{"type":"Feature","id":"056465625230BBC9A82A","geometry":{"type":"Point","coordinates":[46.19409656392556,39.51231633277989,2263.108023635482]},"properties":{"0DEC35D2BC30BBC9A83D":0,"name":"Gülü yurdu","extrude":true}},
{"type":"Feature","id":"0E979192C830BBDA11C1","geometry":{"type":"Point","coordinates":[46.21737389394222,39.55643226352252,2686.405624058754]},"properties":{"099D198A0830BBDA11D5":0,"name":"Hacallı","extrude":true}},
{"type":"Feature","id":"01A4BAAF8430BBDB65F8","geometry":{"type":"Point","coordinates":[46.21812844625246,39.57840097218819,2980.659055410083]},"properties":{"057DAD7B5730BBDB660B":0,"name":"Azad düşən","extrude":true}},
{"type":"Feature","id":"05F60E807230BBDCE77A","geometry":{"type":"Point","coordinates":[46.15234323864031,39.48130224251967,1511.722928456812]},"properties":{"0E2DEA4F3330BBDCE78C":0,"name":"Qara bulaq","extrude":true}},
{"type":"Feature","id":"08240CB1F530BBE41677","geometry":{"type":"Point","coordinates":[46.13439426956915,39.49431147722692,1450.399035029069]},"properties":{"0967581E4130BBE41692":0,"name":"Pürül bağı","extrude":true}},
{"type":"Feature","id":"0725CCF8F630BBE5B769","geometry":{"type":"Point","coordinates":[46.13975994529262,39.49031542802766,1402.254916456796]},"properties":{"0D0AC8F41E30BBE5B77D":0,"name":"Tahirov Əvəz","extrude":true}},
{"type":"Feature","id":"0D4BCC63FB30BBE67440","geometry":{"type":"Point","coordinates":[46.14034958740861,39.49008088267553,1397.665769777889]},"properties":{"0748ACE85730BBE67451":0,"name":"Quliyev Məhəmməd","extrude":true}},
{"type":"Feature","id":"04CBF3AC7630BBE74D0A","geometry":{"type":"Point","coordinates":[46.14022066239129,39.48970876471044,1391.600808107645]},"properties":{"0BDA171BB030BBE74D20":0,"name":"Həsənov İsmayıl","extrude":true}},
{"type":"Feature","id":"082450167830BBE8B341","geometry":{"type":"Point","coordinates":[46.14149215792941,39.49316132758545,1455.496595899435]},"properties":{"0A6844120C30BBE8B353":0,"name":"İsmayılov Əli","extrude":true}},
{"type":"Feature","id":"08B4AFA34830BBE90C9B","geometry":{"type":"Point","coordinates":[46.14112747084388,39.49303204458467,1458.342283797221]},"properties":{"0F3F46A3BA30BBE90CAD":0,"name":"İsmayılov İsmayıl","extrude":true}},
{"type":"Feature","id":"0D6BEF76DF30BBE96A99","geometry":{"type":"Point","coordinates":[46.14087590311247,39.49309990402061,1463.28836616125]},"properties":{"0A1AD1861130BBE96AA6":0,"name":"İsmayılov Cavanşir","extrude":true}},
{"type":"Feature","id":"039BAEFB5C30BBE9DA7A","geometry":{"type":"Point","coordinates":[46.1404822778057,39.49334094255966,1469.762899474126]},"properties":{"068FCE5D4430BBE9DA8E":0,"name":"Şirinov Savalan","extrude":true}},
{"type":"Feature","id":"0B6B8DC81130BBEC6C66","geometry":{"type":"Point","coordinates":[46.13912783687899,39.49224092638374,1458.957373063735]},"properties":{"0D1667401630BBEC6C78":0,"name":"Qəhrəmanov Mürsəl","extrude":true}},
{"type":"Feature","id":"085C7D24F430BBEEB431","geometry":{"type":"Point","coordinates":[46.13905865011843,39.49168889227691,1439.999271681232]},"properties":{"095D261ACC30BBEEB444":0,"name":"İsgəndərov Cəbrayıl","extrude":true}},
{"type":"Feature","id":"0C3D60EBBF30BBEF1D68","geometry":{"type":"Point","coordinates":[46.13977996521384,39.49136863315525,1427.759013642427]},"properties":{"0E3146F78F30BBEF1D7B":0,"name":"Quliyev Mözən","extrude":true}},
{"type":"Feature","id":"0127FD5A7530BBEFA22A","geometry":{"type":"Point","coordinates":[46.1390337306588,39.49149569265226,1435.019017721228]},"properties":{"0699DE8B7A30BBEFA23B":0,"name":"Şor bulaq","extrude":true}},
{"type":"Feature","id":"0ABE7E601030BBF071F0","geometry":{"type":"Point","coordinates":[46.13865534969352,39.49179359495884,1443.903994139782]},"properties":{"056B34AF7530BBF07203":0,"name":"Quliyev Rahid","extrude":true}},
{"type":"Feature","id":"057CC0080430BBF0EB90","geometry":{"type":"Point","coordinates":[46.13871133218064,39.49178392631636,1443.58783450361]},"properties":{"000F1C001030BBF0EBA1":0,"name":"Süleymanov İxtiyar","extrude":true}},
{"type":"Feature","id":"00B8BDC68630BBF36564","geometry":{"type":"Point","coordinates":[46.14146375483276,39.49099794074529,1416.774018847565]},"properties":{"02D009B42930BBF36572":0,"name":"Quliyev İsa","extrude":true}},
{"type":"Feature","id":"0B2B2A90C330BBF5BCDB","geometry":{"type":"Point","coordinates":[46.14249686590757,39.49184976454666,1430.107345972166]},"properties":{"0E7D448F0130BBF5BCF0":0,"name":"Şirinov Tapdıq","extrude":true}},
{"type":"Feature","id":"080519821130BBF6147C","geometry":{"type":"Point","coordinates":[46.14271261667542,39.49179180597523,1429.451162662132]},"properties":{"0FDC3F616430BBF6148C":0,"name":"Bayramov Həbib","extrude":true}},
{"type":"Feature","id":"0FCB01893C30BBF97288","geometry":{"type":"Point","coordinates":[46.14441212054553,39.49289601794086,1462.816615006329]},"properties":{"01DE74710930BBF9729E":0,"name":"Babuşov Musa","extrude":true}},
{"type":"Feature","id":"07A15DBBB730BBFA1C71","geometry":{"type":"Point","coordinates":[46.14442854548512,39.49275396640061,1460.716210473448]},"properties":{"08A2C6D2A030BBFA1C81":0,"name":"Nəcəfov Şahsuvar","extrude":true}},
{"type":"Feature","id":"0F2730081530BBFA892F","geometry":{"type":"Point","coordinates":[46.14437382624246,39.4926354644455,1458.519553023048]},"properties":{"0135E5E3CF30BBFA8941":0,"name":"Mehdiyev Aydın","extrude":true}},
{"type":"Feature","id":"094777520330BBFAEEB0","geometry":{"type":"Point","coordinates":[46.14429737686397,39.49260568699727,1457.372802089158]},"properties":{"03EFF415BF30BBFAEEC6":0,"name":"Həsənov Mehdiqulu","extrude":true}},
{"type":"Feature","id":"083CE8CCA330BBFCF9DD","geometry":{"type":"Point","coordinates":[46.14387077888176,39.49162706064029,1436.691199031131]},"properties":{"062D2F3D9730BBFCF9ED":0,"name":"Gülsüm","extrude":true}},
{"type":"Feature","id":"04EA1562B230BBFED80E","geometry":{"type":"Point","coordinates":[46.14288941695136,39.49125874817968,1422.5764746334]},"properties":{"083443226A30BBFED823":0,"name":"Mamedov İsmayıl","extrude":true}},
{"type":"Feature","id":"0690E2B5AD30BBFFFE56","geometry":{"type":"Point","coordinates":[46.14318572825847,39.49086259482112,1418.94486646516]},"properties":{"06D16A52E730BBFFFE6B":0,"name":"Yolçuyev Ədil","extrude":true}},
{"type":"Feature","id":"0636D1C63930BC008124","geometry":{"type":"Point","coordinates":[46.1434114919878,39.49107011866164,1424.260787946749]},"properties":{"015B464DF130BC008131":0,"name":"Həsənov Lətif","extrude":true}},
{"type":"Feature","id":"0C7BC480FF30BC01A9DC","geometry":{"type":"Point","coordinates":[46.14167642831262,39.48924624685164,1391.185577217853]},"properties":{"06F70D46B430BC01A9EC":0,"name":"Şahverənov Yurin","extrude":true}},
{"type":"Feature","id":"0D8539460630BC04ED85","geometry":{"type":"Point","coordinates":[46.14107969323727,39.48827769556453,1379.007991220983]},"properties":{"021728AF7F30BC04ED99":0,"name":"Qurbanov Məclum","extrude":true}},
{"type":"Feature","id":"0AD197A75130BC05D0E7","geometry":{"type":"Point","coordinates":[46.14166168271032,39.48741053201256,1371.308678543377]},"properties":{"0F335E80CD30BC05D0F7":0,"name":"Tahirov Yaqub","extrude":true}},
{"type":"Feature","id":"049D93C64F30BC06440F","geometry":{"type":"Point","coordinates":[46.14113959261339,39.48795165582628,1374.699037351018]},"properties":{"0169D004E330BC064422":0,"name":"Məmmədov İbad","extrude":true}},
{"type":"Feature","id":"0A8154F2E230BC072783","geometry":{"type":"Point","coordinates":[46.14070861840343,39.48930339977236,1387.589875468527]},"properties":{"07A0E1AF8A30BC072794":0,"name":"Gəncəliyev Kamran","extrude":true}},
{"type":"Feature","id":"0A1676A18E30BC079F4F","geometry":{"type":"Point","coordinates":[46.14010942971658,39.48954793507605,1389.331331770986]},"properties":{"0CCD97F65130BC079F64":0,"name":"Cavadov Həmzə","extrude":true}},
{"type":"Feature","id":"038D26208130BC07F490","geometry":{"type":"Point","coordinates":[46.1399340271218,39.48932288240741,1386.084904463355]},"properties":{"0D2C8188CD30BC07F4A1":0,"name":"Quliyev Feyzulla","extrude":true}},
{"type":"Feature","id":"09BB38C68630BC08BFA9","geometry":{"type":"Point","coordinates":[46.14029669913354,39.48860203090727,1377.80918730619]},"properties":{"0E2804093E30BC08BFBA":0,"name":"Xalıqverdi","extrude":true}},
{"type":"Feature","id":"0A15FCC00A30BC093BB7","geometry":{"type":"Point","coordinates":[46.14014429396593,39.48895004672988,1381.708542762718]},"properties":{"0235B17DB430BC093BCD":0,"name":"Hüseyxan","extrude":true}},
{"type":"Feature","id":"0E2B23C16430BC0AF2BB","geometry":{"type":"Point","coordinates":[46.14124843218325,39.48951399358008,1392.299155965252]},"properties":{"0135E8EE9730BC0AF2CE":0,"name":"Quliyev Məcid","extrude":true}},
{"type":"Feature","id":"020E487D1E30BC0B5B6F","geometry":{"type":"Point","coordinates":[46.14137469985211,39.48952310725186,1393.04713470219]},"properties":{"0130C05BCF30BC0B5B80":0,"name":"Köhnə hamam yeri","extrude":true}},
{"type":"Feature","id":"075212C5B230BC0BCB17","geometry":{"type":"Point","coordinates":[46.14140383725268,39.48964382579427,1394.772616155512]},"properties":{"01B9B1851730BC0BCB25":0,"name":"Xəlilova Gözəl","extrude":true}},
{"type":"Feature","id":"093DEADD9B30BC0CADC7","geometry":{"type":"Point","coordinates":[46.1411791512961,39.4898636992523,1396.998460183225]},"properties":{"030E35C41730BC0CADD7":0,"name":"Abdullayev Azad","extrude":true}},
{"type":"Feature","id":"0B262E415830BC0D03C9","geometry":{"type":"Point","coordinates":[46.14139622342547,39.48981871301266,1397.198345453828]},"properties":{"0C7C28027630BC0D03DD":0,"name":"Qasımov Mayıl","extrude":true}},
{"type":"Feature","id":"0EF2BE8BD630BC0DE06A","geometry":{"type":"Point","coordinates":[46.13980910586054,39.48916439593365,1383.805731816766]},"properties":{"004D2DB9F730BC0DE078":0,"name":"Abdullayev Abdulla","extrude":true}},
{"type":"Feature","id":"006760ECE930BC0E4E76","geometry":{"type":"Point","coordinates":[46.14012237643628,39.48921151836505,1384.998399887938]},"properties":{"0B6CB3335C30BC0E4E88":0,"name":"Şamama","extrude":true}},
{"type":"Feature","id":"0A7DCF0D7030BC0FD40C","geometry":{"type":"Point","coordinates":[46.14088948089137,39.48862769657459,1381.424568143092]},"properties":{"08345BE70F30BC0FD41D":0,"name":"Yolçuyev Yamin","extrude":true}},
{"type":"Feature","id":"07E237D00A30BC1235F5","geometry":{"type":"Point","coordinates":[46.14395934775333,39.49028098651953,1418.826070859458]},"properties":{"078CE4D0DD30BC123606":0,"name":"Qəhrəmanov Fərrux","extrude":true}},
{"type":"Feature","id":"026B5EABED30BC185DE2","geometry":{"type":"Point","coordinates":[46.1322580604407,39.48170262631464,1396.390663526816]},"properties":{"030A03E38E30BC185DF4":0,"name":"Murad qəbirstanlğı","extrude":true}}
]}
