{"type":"FeatureCollection", "features":[
{"type":"Feature","id":"04A49BA989332998E81C","geometry":{"type":"Point","coordinates":[46.43104516641759,39.2363339915547,897.6249240670928]},"properties":{"0C2C9202D0332998E84D":0,"name":"Xələc","extrude":true}},
{"type":"Feature","id":"0EA352AAD6354C7E2DBD","geometry":{"type":"Point","coordinates":[46.43241119880533,39.23260923487498,830.7890510330818]},"properties":{"00FC054036354C7E2DCF":0,"name":"Sulu dərə","extrude":true}},
{"type":"Feature","id":"0B35868011354C7ECBE6","geometry":{"type":"Point","coordinates":[46.43917824762752,39.22826971853031,800.5329911748158]},"properties":{"0EEBA3ABB0354C7ECBFB":0,"name":"Devli dərə","extrude":true}},
{"type":"Feature","id":"0572F66EC5354C7FD069","geometry":{"type":"Point","coordinates":[46.43430028886334,39.2407479888715,904.4097011305402]},"properties":{"0FD7D32B29354C7FD081":0,"name":"Kənd güneyi","extrude":true}},
{"type":"Feature","id":"04BCD44945354C80C658","geometry":{"type":"Point","coordinates":[46.44466561266115,39.23840929122331,922.1091848222817]},"properties":{"08A231F078354C80C66F":0,"name":"Turabxan xarabalığı","extrude":true}},
{"type":"Feature","id":"0BDFB82B75354C814497","geometry":{"type":"Point","coordinates":[46.44480296920239,39.2355884015515,881.7282489065458]},"properties":{"09CE683387354C8144B0":0,"name":"Mədən tullantısı","extrude":true}},
{"type":"Feature","id":"01C9193DBE354C82A09C","geometry":{"type":"Point","coordinates":[46.4419881485486,39.24551813586759,1000.598506015927]},"properties":{"028286A6EE354C82A0B5":0,"name":"Yeməzli xarabalığı","extrude":true}},
{"type":"Feature","id":"0D596D2FBB354C837DA0","geometry":{"type":"Point","coordinates":[46.42771797357985,39.24910785825389,937.7895049667383]},"properties":{"04B84E81F9354C837DB6":0,"name":"İncəvar xarabalığı","extrude":true}},
{"type":"Feature","id":"0A2AAB20CA354C84A233","geometry":{"type":"Point","coordinates":[46.4251945688309,39.23888109679563,875.8181165736152]},"properties":{"name":"Qaranlıq dərə"}},
{"type":"Feature","id":"00A00218F2354C851EB1","geometry":{"type":"Point","coordinates":[46.42361516195004,39.24371313378175,888.0838044098354]},"properties":{"0C968DBDB3354C851EC5":0,"name":"Arpa dərəsi","extrude":true}},
{"type":"Feature","id":"029E93B12B354C85B89F","geometry":{"type":"Point","coordinates":[46.41489307346156,39.24054552221162,977.3717024673208]},"properties":{"0FE3EF2C4E354C85B8AF":0,"name":"İt qayası","extrude":true}},
{"type":"Feature","id":"00C69847D5354C86952C","geometry":{"type":"Point","coordinates":[46.41086635086964,39.24315550966993,909.99517909001]},"properties":{"07D015A896354C86953E":0,"name":"İşcəksu","extrude":true}},
{"type":"Feature","id":"022C9002DE354C87B124","geometry":{"type":"Point","coordinates":[46.41815922647673,39.24987588442251,857.7914435476057]},"properties":{"073ED8E151354C87B13C":0,"name":"Hasar dərəsi","extrude":true}},
{"type":"Feature","id":"0071B6B246354C8846A6","geometry":{"type":"Point","coordinates":[46.41940328841933,39.25112483310674,862.9886614053461]},"properties":{"name":"Hasar xarabalığı"}},
{"type":"Feature","id":"0678276DD7354C8B8DDA","geometry":{"type":"Point","coordinates":[46.42794480098365,39.23794149847685,896.0080716422184]},"properties":{"name":"Ağzəmi"}},
{"type":"Feature","id":"032A41D75A354C8C0C8F","geometry":{"type":"Point","coordinates":[46.42780819055933,39.23626374224421,869.0573263478268]},"properties":{"086FC803C7354C8C0CA5":0,"name":"Həzi palıdı","extrude":true}},
{"type":"Feature","id":"0F68A6522C354C8CA883","geometry":{"type":"Point","coordinates":[46.42573173873727,39.23672368928633,830.9295359120271]},"properties":{"05E1A8D7F0354C8CA898":0,"name":"Qəbristanlıq (Dağıdılmış)","extrude":true}},
{"type":"Feature","id":"089290B3F1354C913487","geometry":{"type":"Point","coordinates":[46.43068405593056,39.23650674433185,896.9581443997188]},"properties":{"name":"Məscid"}},
{"type":"Feature","id":"0F1830F9FA354C91B919","geometry":{"type":"Point","coordinates":[46.43033347058878,39.23666571191654,896.9581443997188]},"properties":{"name":"Dükan"}},
{"type":"Feature","id":"01CCC40211354C969E2D","geometry":{"type":"Point","coordinates":[46.43134573614019,39.23363481697484,859.1335191845427]},"properties":{"0001A890FE354C969E40":0,"name":"Məktəb","extrude":true}},
{"type":"Feature","id":"06C9176C88354C989838","geometry":{"type":"Point","coordinates":[46.43174261682478,39.23588903912865,896.4404039915698]},"properties":{"06982B237B354C989846":0,"name":"Əliyev Kamran","extrude":true}},
{"type":"Feature","id":"06339B17BF354C990D8E","geometry":{"type":"Point","coordinates":[46.43158242915386,39.23583647967288,896.9178757851487]},"properties":{"0705F8B8F1354C990D9F":0,"name":"Səlimov Müslüm","extrude":true}},
{"type":"Feature","id":"0662FC949B354C9A4959","geometry":{"type":"Point","coordinates":[46.43130890848725,39.23592999980813,896.0103047934483]},"properties":{"0592E9801A354C9A496D":0,"name":"Şıxıyev Eyvaz","extrude":true}},
{"type":"Feature","id":"097A38BE2B354C9AF4D9","geometry":{"type":"Point","coordinates":[46.43058922794394,39.23624730700439,894.8701820192124]},"properties":{"0F38E08E6E354C9AF4E7":0,"name":"Bəhrəmov İbrahim","extrude":true}},
{"type":"Feature","id":"033D48A206354C9B6977","geometry":{"type":"Point","coordinates":[46.43072547528859,39.23599806683135,893.6392694944483]},"properties":{"0DC71C3277354C9B6986":0,"name":"Allahverdiyev Müzəffər","extrude":true}},
{"type":"Feature","id":"0A003C95CA354C9C0AD0","geometry":{"type":"Point","coordinates":[46.43093144710897,39.2363793916853,897.5105650406734]},"properties":{"09B0250EC0354C9C0AE1":0,"name":"Rzayev Aslan","extrude":true}},
{"type":"Feature","id":"095336B5C3354C9CF207","geometry":{"type":"Point","coordinates":[46.42924603223283,39.23554239873526,879.830759212838]},"properties":{"0024F5AC99354C9CF216":0,"name":"Şıxaliyev Musa","extrude":true}},
{"type":"Feature","id":"076D4912BA354C9D6F8F","geometry":{"type":"Point","coordinates":[46.42957770829627,39.23544857167283,879.0081723211272]},"properties":{"01377CFCEC354C9D6FA1":0,"name":"Musayev Şirin","extrude":true}},
{"type":"Feature","id":"0BE9CA682C354C9DEBFD","geometry":{"type":"Point","coordinates":[46.42952271863619,39.23568550116414,884.2719713088195]},"properties":{"008C28ABB4354C9DEC16":0,"name":"Mehdiyev Fehruz","extrude":true}},
{"type":"Feature","id":"0D9E75BCAA354C9EB723","geometry":{"type":"Point","coordinates":[46.42951918269584,39.2350074856646,873.2108408161859]},"properties":{"0BE5FC560B354C9EB733":0,"name":"Zeynalov Gülmalı","extrude":true}},
{"type":"Feature","id":"05270F92AD354CA03C2E","geometry":{"type":"Point","coordinates":[46.42990277756909,39.23595735105381,889.6768322713688]},"properties":{"0E1E5FFFC1354CA03C41":0,"name":"Şıxıyev Eylaz","extrude":true}},
{"type":"Feature","id":"0178257CA7354CA1543A","geometry":{"type":"Point","coordinates":[46.42932024480631,39.2360738546429,887.8230493296494]},"properties":{"0B468B6C1B354CA1544A":0,"name":"Yahyayev İsa","extrude":true}},
{"type":"Feature","id":"0649780222354CA1CD78","geometry":{"type":"Point","coordinates":[46.42930257784244,39.23632860896759,891.3871885105538]},"properties":{"name":"Rüstəmov Zabud"}},
{"type":"Feature","id":"0FB0F78347354CA3E10A","geometry":{"type":"Point","coordinates":[46.4310465581943,39.23770526672683,903.8023879104159]},"properties":{"00C3C27B5A354CA3E123":0,"name":"Hacıyev Varaş","extrude":true}},
{"type":"Feature","id":"0649E11931354CA463A6","geometry":{"type":"Point","coordinates":[46.43019942615068,39.23761369812447,901.0931983501434]},"properties":{"0307D7F34B354CA463B9":0,"name":"Abbasov Süleyman","extrude":true}},
{"type":"Feature","id":"0D94EED1C1354CA5FE50","geometry":{"type":"Point","coordinates":[46.43152202572134,39.2368656566895,901.523844137284]},"properties":{"0B2076B925354CA5FE61":0,"name":"Vəliyev Hüseyn","extrude":true}},
{"type":"Feature","id":"0B4DC83541354CA66DBA","geometry":{"type":"Point","coordinates":[46.43197339225298,39.23666432704697,896.2629852020408]},"properties":{"0470B71B2B354CA66DCF":0,"name":"Mehdiyev Azad","extrude":true}},
{"type":"Feature","id":"0889CA217F354CA6FA3A","geometry":{"type":"Point","coordinates":[46.43141784128385,39.23743076112961,902.5251960262327]},"properties":{"0DE90DBFA2354CA6FA4D":0,"name":"Piriyev Xəlil","extrude":true}},
{"type":"Feature","id":"097B136EC5354CA77A5E","geometry":{"type":"Point","coordinates":[46.4316658811736,39.23733093887844,901.8699361845266]},"properties":{"0A4F1029D7354CA77A75":0,"name":"Piriyev Cəlil","extrude":true}},
{"type":"Feature","id":"01E734FBDA354CA82C62","geometry":{"type":"Point","coordinates":[46.43103101050249,39.23691224148369,901.502017662951]},"properties":{"06FDCF97E2354CA82C7B":0,"name":"Hacıyev Allahverdi","extrude":true}},
{"type":"Feature","id":"08D0455862354CA8BDA6","geometry":{"type":"Point","coordinates":[46.43108818964092,39.23716124910936,902.4540542367727]},"properties":{"0C4E0BF581354CA8BDB5":0,"name":"Piriyev Ziyad","extrude":true}},
{"type":"Feature","id":"037B4AAFB0354CA94BB9","geometry":{"type":"Point","coordinates":[46.43266788943263,39.23751727616525,886.9166574813406]},"properties":{"0ADC423923354CA94BD3":0,"name":"Mehdiyev Həsi","extrude":true}},
{"type":"Feature","id":"0E20D67D0B354CAA3054","geometry":{"type":"Point","coordinates":[46.43333439276176,39.23753228243119,880.2232666761386]},"properties":{"0AB333A362354CAA3069":0,"name":"Allahverdiyeva Güllər","extrude":true}},
{"type":"Feature","id":"04AA9EAE79354CAACC35","geometry":{"type":"Point","coordinates":[46.4333201155174,39.2373054141647,879.3257569510214]},"properties":{"0FB8BAB1EB354CAACC4B":0,"name":"Piriyev Tapdıq","extrude":true}},
{"type":"Feature","id":"0B372A368B354CAB4AF9","geometry":{"type":"Point","coordinates":[46.43311434513816,39.23732440833876,880.8859739371675]},"properties":{"0F40FCEF7A354CAB4B0A":0,"name":"Piriyeva Gözəl","extrude":true}},
{"type":"Feature","id":"016979C128354CAC5B15","geometry":{"type":"Point","coordinates":[46.43317903392531,39.23685194947269,878.5749208294424]},"properties":{"08B2EC8EF9354CAC5B26":0,"name":"Yahyayev Xanlar","extrude":true}},
{"type":"Feature","id":"002239F850354CACD103","geometry":{"type":"Point","coordinates":[46.43317804696696,39.23673257806929,878.1742449288233]},"properties":{"06080FD6D6354CACD117":0,"name":"Rzayev Musa","extrude":true}},
{"type":"Feature","id":"0DA31354F4354CAD9663","geometry":{"type":"Point","coordinates":[46.43258824193784,39.23689919795451,886.9077498506238]},"properties":{"0B4550317A354CAD9674":0,"name":"Mehdiyev Hüsü","extrude":true}},
{"type":"Feature","id":"0B1F60D5F0354CADFB71","geometry":{"type":"Point","coordinates":[46.43268942002636,39.23649791176013,884.406564818021]},"properties":{"0DA45AC050354CADFB7C":0,"name":"Cabbarov Oruc","extrude":true}},
{"type":"Feature","id":"086E2A5601354CAE7C2F","geometry":{"type":"Point","coordinates":[46.4334427924335,39.23658731385331,875.8741611349272]},"properties":{"071EF31608354CAE7C41":0,"name":"İmanov İsmayıl","extrude":true}},
{"type":"Feature","id":"060B71DDC8354CAF1E54","geometry":{"type":"Point","coordinates":[46.43397483779142,39.23692536665189,876.7520642930031]},"properties":{"0991C16525354CAF1E67":0,"name":"Kənd bulağı","extrude":true}},
{"type":"Feature","id":"0997A6A3C7354CB00808","geometry":{"type":"Point","coordinates":[46.43332460673897,39.23607708602142,874.8328750047771]},"properties":{"0F7D47D3CE354CB00816":0,"name":"Məmmədov İsmayıl","extrude":true}},
{"type":"Feature","id":"019F4996CA354CB08E5F","geometry":{"type":"Point","coordinates":[46.43324351584304,39.23579673793848,873.9366704569065]},"properties":{"08207BE967354CB08E70":0,"name":"Vəliyev Həsi","extrude":true}},
{"type":"Feature","id":"03F3E0A9C6354CB1635F","geometry":{"type":"Point","coordinates":[46.43310381238262,39.2354168494862,872.6214803641489]},"properties":{"0BBF50C688354CB16370":0,"name":"Vəliyev Mikayıl","extrude":true}},
{"type":"Feature","id":"01DCFEB1A5354CB22336","geometry":{"type":"Point","coordinates":[46.43322845394921,39.23516948969256,870.9513887162739]},"properties":{"0315649F96354CB22346":0,"name":"Vəliyev Yedigar","extrude":true}},
{"type":"Feature","id":"08990E641A354CB2E6F4","geometry":{"type":"Point","coordinates":[46.43267720909217,39.23573420022783,881.3564408926629]},"properties":{"0827FAFBBD354CB2E706":0,"name":"Vəliyev Nəsib","extrude":true}},
{"type":"Feature","id":"098B435FE4354CB3CC8F","geometry":{"type":"Point","coordinates":[46.43218813517339,39.23615409002479,891.6327423562267]},"properties":{"0426C68F7D354CB3CC9F":0,"name":"Rzayev Yunus","extrude":true}},
{"type":"Feature","id":"0098364F57354CB5A230","geometry":{"type":"Point","coordinates":[46.43143078454825,39.23646580004012,899.757621948879]},"properties":{"0EC870841E354CB5A246":0,"name":"Şıxıyev Mətləb","extrude":true}},
{"type":"Feature","id":"0B00FB87F8354CB613F2","geometry":{"type":"Point","coordinates":[46.43160249561855,39.23650090808479,900.5010622957042]},"properties":{"08368FF7EF354CB61402":0,"name":"Bəhrəmov Xəlil","extrude":true}},
{"type":"Feature","id":"0143EF68F7354CB72B7F","geometry":{"type":"Point","coordinates":[46.4317452115896,39.23575817149175,895.7549013069339]},"properties":{"06758DBDCC354CB72B95":0,"name":"Cəfərov Bəxtiyar","extrude":true}},
{"type":"Feature","id":"0B83540CB8354CB79E0A","geometry":{"type":"Point","coordinates":[46.43151024782653,39.23559871017262,895.0166524523623]},"properties":{"011D86FE46354CB79E1A":0,"name":"Usubov Cəfər","extrude":true}},
{"type":"Feature","id":"07152FBDB3354CB97347","geometry":{"type":"Point","coordinates":[46.4304141163263,39.23606471516538,892.594753055705]},"properties":{"00D1ADB5F2354CB97357":0,"name":"Şıxıyeva Firuzə","extrude":true}},
{"type":"Feature","id":"05ED33E970354CB9DE33","geometry":{"type":"Point","coordinates":[46.43042222784039,39.23584235429134,890.7662774665093]},"properties":{"08DFD4DC58354CB9DE48":0,"name":"Abbasov Umud","extrude":true}},
{"type":"Feature","id":"05E0E534F7354CBA412D","geometry":{"type":"Point","coordinates":[46.43039629365003,39.23565146641666,889.0504620227638]},"properties":{"08EF8FB2D5354CBA4141":0,"name":"İmanov Bahadur","extrude":true}},
{"type":"Feature","id":"04787141C3354CBBCAE0","geometry":{"type":"Point","coordinates":[46.43015631785637,39.23504641311803,880.2043635727209]},"properties":{"0645B84636354CBBCAF2":0,"name":"Zeynalov Şirin","extrude":true}},
{"type":"Feature","id":"0F2F7DD4F6354CBC35CC","geometry":{"type":"Point","coordinates":[46.43044618643264,39.23488918445084,880.5580089653291]},"properties":{"0AC8F63ECF354CBC35E0":0,"name":"Rəhimov Surxay","extrude":true}},
{"type":"Feature","id":"07E36BA827354CBF52E3","geometry":{"type":"Point","coordinates":[46.43168256109472,39.23437651717496,880.1101106539853]},"properties":{"0E8B3D252F354CBF5301":0,"name":"Şıxıyev İsmixan","extrude":true}},
{"type":"Feature","id":"01F75C0FC5354CBFF598","geometry":{"type":"Point","coordinates":[46.43142173897894,39.23474930628444,885.497804981294]},"properties":{"0ECD155FFC354CBFF5AE":0,"name":"Əmirov Rəşid","extrude":true}},
{"type":"Feature","id":"0E715966D6354CC062FD","geometry":{"type":"Point","coordinates":[46.43109404168986,39.23505509049702,887.258605876301]},"properties":{"0685F3FDFB354CC0630C":0,"name":"Bəşirov İsa","extrude":true}},
{"type":"Feature","id":"03C717BDB4354CC10875","geometry":{"type":"Point","coordinates":[46.43085943139631,39.23539628620084,889.1237790534069]},"properties":{"06E20B6FFC354CC10888":0,"name":"Niyazov Ələsgər","extrude":true}},
{"type":"Feature","id":"0D6C7C5788354CC1B5FF","geometry":{"type":"Point","coordinates":[46.4309886599033,39.23565435031428,892.4298935684138]},"properties":{"04E254AA4D354CC1B615":0,"name":"Musayev Əli","extrude":true}},
{"type":"Feature","id":"06736826DD354CC21AAB","geometry":{"type":"Point","coordinates":[46.4307834555919,39.2357742572309,892.1862054643179]},"properties":{"05DA7F3C45354CC21ABC":0,"name":"Klub","extrude":true}},
{"type":"Feature","id":"05330C9150354CC27317","geometry":{"type":"Point","coordinates":[46.43094773712537,39.23571549450972,892.6394770134538]},"properties":{"07258967C5354CC27324":0,"name":"Kitabxana","extrude":true}},
{"type":"Feature","id":"0C38A60ADD354CC3360F","geometry":{"type":"Point","coordinates":[46.43150303257212,39.2352095154416,891.4732094459647]},"properties":{"021EA9C65F354CC3362E":0,"name":"Bəşirova Qəndab","extrude":true}},
{"type":"Feature","id":"06CAAF5B1F354CC41160","geometry":{"type":"Point","coordinates":[46.4316670200126,39.23512399023056,891.6423326594797]},"properties":{"0E84074A32354CC41177":0,"name":"Səfiyarov Cümşüd","extrude":true}},
{"type":"Feature","id":"0B52541861354CC48984","geometry":{"type":"Point","coordinates":[46.43183438476665,39.2349521665322,888.2784199468107]},"properties":{"07770497AC354CC48997":0,"name":"İmanov Əmir","extrude":true}},
{"type":"Feature","id":"0A7077BCBD354CC4FA90","geometry":{"type":"Point","coordinates":[46.43186933272511,39.23465648435803,882.9976084073813]},"properties":{"037C11E443354CC4FAA5":0,"name":"İmanov İbrahim","extrude":true}},
{"type":"Feature","id":"081944C016354CC5F4AD","geometry":{"type":"Point","coordinates":[46.4318525810499,39.23552290740152,892.7235620180927]},"properties":{"033CD68097354CC5F4BC":0,"name":"Sadıqov Xeybər","extrude":true}},
{"type":"Feature","id":"0EAEB51E30354CC6DE94","geometry":{"type":"Point","coordinates":[46.43243357894155,39.23493890177033,880.5589940868637]},"properties":{"04F99DEAB2354CC6DEA6":0,"name":"Şirzadov Əvəz","extrude":true}},
{"type":"Feature","id":"0DCFA0C3C1354CC75151","geometry":{"type":"Point","coordinates":[46.43233597565786,39.23454655883491,876.08702013326]},"properties":{"0F0E5521DB354CC75161":0,"name":"Şirzadov İsa","extrude":true}},
{"type":"Feature","id":"0080923E60354CC884CE","geometry":{"type":"Point","coordinates":[46.43180157848472,39.23542702552199,892.5630871839996]},"properties":{"0B3A3F75C3354CC884E0":0,"name":"Usubov Məcid","extrude":true}},
{"type":"Feature","id":"01F4F67D6F354CC9E14F","geometry":{"type":"Point","coordinates":[46.43043812747238,39.23703608433039,899.918413484553]},"properties":{"0EF49D5A54354CC9E15E":0,"name":"İmanov Murad","extrude":true}},
{"type":"Feature","id":"080B9065FE354CCA40F7","geometry":{"type":"Point","coordinates":[46.42994219126295,39.23638051014524,894.1742494601333]},"properties":{"070F70A306354CCA4108":0,"name":"Bəşirov Musa","extrude":true}},
{"type":"Feature","id":"00F1AA015C354CCB0154","geometry":{"type":"Point","coordinates":[46.42935063854469,39.2366485252789,894.6793635018078]},"properties":{"04C8839080354CCB0164":0,"name":"Rzayev Aydın","extrude":true}},
{"type":"Feature","id":"0A567FABA9354CCB6632","geometry":{"type":"Point","coordinates":[46.42965399575642,39.23678072030607,897.2924978346016]},"properties":{"0DA0A7E3F4354CCB6647":0,"name":"Rzayev Kərim","extrude":true}},
{"type":"Feature","id":"03A545D7D3354CCBC79C","geometry":{"type":"Point","coordinates":[46.42966728195844,39.23638180794072,893.8723551016301]},"properties":{"0D75ECDA81354CCBC7AF":0,"name":"Zeynalova Tənzilə","extrude":true}},
{"type":"Feature","id":"02BA5BD0E8354CCE422E","geometry":{"type":"Point","coordinates":[46.42970992651249,39.23704603377119,899.3688653975139]},"properties":{"0723F13E65354CCE4242":0,"name":"Quliyeva Ayna","extrude":true}},
{"type":"Feature","id":"07CAE3E97D354CD1CBD6","geometry":{"type":"Point","coordinates":[46.43098555439502,39.23442359213151,877.7868057687792]},"properties":{"0C7DEA163F354CD1CBE7":0,"name":"Tibb məntəsi","extrude":true}},
{"type":"Feature","id":"00A26E7EA7354CD5763F","geometry":{"type":"Point","coordinates":[46.43238072958529,39.23636335602541,889.4749237904317]},"properties":{"0A0850FA32354CD57660":0,"name":"Vəliyeva Sona","extrude":true}},
{"type":"Feature","id":"0D0930AE39354CD7537A","geometry":{"type":"Point","coordinates":[46.42997547741192,39.23735132244888,901.2233281372038]},"properties":{"00EACA0044354CD75395":0,"name":"Hüseyn kişi","extrude":true}},
{"type":"Feature","id":"0D37FC21CE354CDCA042","geometry":{"type":"Point","coordinates":[46.43367444268844,39.2444031773158,920.3387779935716]},"properties":{"06DC53E5DF354CDCA054":0,"name":"Zoğallı dərə","extrude":true}},
{"type":"Feature","id":"06F6188F64354CDD12BC","geometry":{"type":"Point","coordinates":[46.43768782215626,39.24301740642338,926.8977209926986]},"properties":{"002AACF85A354CDD12CE":0,"name":"Xub bulağı","extrude":true}},
{"type":"Feature","id":"0E98C83FA9354CDDB439","geometry":{"type":"Point","coordinates":[46.43923305494658,39.24206502386906,953.6292909091221]},"properties":{"0131C960A8354CDDB44E":0,"name":"Zeynəb biçən","extrude":true}},
{"type":"Feature","id":"0C153E99C5354CDE8157","geometry":{"type":"Point","coordinates":[46.44107912902992,39.23763523866958,907.6632679168301]},"properties":{"0DF755499F354CDE8169":0,"name":"Kotan dərəsi","extrude":true}},
{"type":"Feature","id":"0E16955C18354CDF683F","geometry":{"type":"Point","coordinates":[46.42627318887786,39.23441078517831,793.2195870388086]},"properties":{"029A462E00354CDF684F":0,"name":"Şkol bağı","extrude":true}},
{"type":"Feature","id":"0E0D179ABE354CE0278F","geometry":{"type":"Point","coordinates":[46.43005007598384,39.23375357489061,844.8290782550457]},"properties":{"00F50F2EFC354CE027A3":0,"name":"Cəfərdaşı","extrude":true}},
{"type":"Feature","id":"035C2BA833354CE0FFE0","geometry":{"type":"Point","coordinates":[46.41937973432906,39.24138331458315,819.44667080242]},"properties":{"090539A183354CE0FFF3":0,"name":"Molla bağı","extrude":true}},
{"type":"Feature","id":"07F05CF169354CE17C2E","geometry":{"type":"Point","coordinates":[46.41797392762997,39.24366037281767,818.792959550852]},"properties":{"04FAAC0B4D354CE17C3F":0,"name":"Kalonlar","extrude":true}},
{"type":"Feature","id":"0844CA11CF354CE2608C","geometry":{"type":"Point","coordinates":[46.4210918144621,39.2337490432168,870.0382547300892]},"properties":{"0367CC1E5C354CE260A1":0,"name":"Güllü zəmi","extrude":true}},
{"type":"Feature","id":"069B3726A0354CE58ECB","geometry":{"type":"Point","coordinates":[46.46372032997147,39.20583079648198,718.8276728824062]},"properties":{"0EBD25EB00354CE58EDA":0,"name":"Baydaxt xarabalığı","extrude":true}},
{"type":"Feature","id":"032BFE8D9A354CE62865","geometry":{"type":"Point","coordinates":[46.45018194066627,39.21065435262394,725.3456476101583]},"properties":{"07CCDC1476354CE62874":0,"name":"Tecədin","extrude":true}}
]}
